{"type": "FeatureCollection", "features": [{"type": "Feature", "properties": {"type": "node", "id": 27439001, "tags": {"name": "Trelleborg", "name:lt": "Treleborgas", "name:ru": "\u0422\u0440\u0435\u043b\u043b\u0435\u0431\u043e\u0440\u0433", "place": "town", "population": "28290", "ref:se:pts:postort": "TRELLEBORG", "ref:se:scb": "3752", "wikidata": "Q26943", "wikipedia": "sv:Trelleborg"}}, "geometry": {"type": "Point", "coordinates": [13.1461522, 55.37592]}}, {"type": "Feature", "properties": {"type": "node", "id": 2286933882, "tags": {"name": "Skan\u00f6r med Falsterbo", "place": "town", "ref:se:scb": "3672"}}, "geometry": {"type": "Point", "coordinates": [12.8443425, 55.4060076]}}, {"type": "Feature", "properties": {"type": "node", "id": 2235001454, "tags": {"name": "H\u00f6llviken", "place": "town", "population": "10607", "ref:se:pts:postort": "H\u00d6LLVIKEN", "ref:se:scb": "3496", "wikidata": "Q1025480", "wikipedia": "sv:H\u00f6llviken"}}, "geometry": {"type": "Point", "coordinates": [12.9632315, 55.4137626]}}, {"type": "Feature", "properties": {"type": "node", "id": 26804505, "tags": {"alt_name:he": "\u05de\u05d0\u05dc\u05de\u05d5", "capital": "4", "name": "Malm\u00f6", "name:da": "Malm\u00f8", "name:de": "Malm\u00f6", "name:en": "Malmo", "name:he": "\u05de\u05d0\u05dc\u05de\u05d4", "name:hu": "Malm\u00f6", "name:ja": "\u30de\u30eb\u30e1", "name:ko": "\ub9d0\ubafc", "name:lt": "Malm\u0117", "name:mk": "\u041c\u0430\u043b\u043c\u0435", "name:ru": "\u041c\u0430\u043b\u044c\u043c\u0451", "name:yi": "\u05de\u05d0\u05dc\u05de\u05e2", "name:yue": "\u99ac\u5217\u9ea5", "name:zh": "\u9a6c\u5c14\u9ed8", "place": "city", "population": "316588", "ref:se:pts:postort": "MALM\u00d6", "ref:se:scb": "3604", "wikidata": "Q2211", "wikipedia": "sv:Malm\u00f6"}}, "geometry": {"type": "Point", "coordinates": [13.0001566, 55.6052931]}}, {"type": "Feature", "properties": {"type": "node", "id": 55080093, "tags": {"name": "Vellinge", "name:ru": "\u0412\u0435\u043b\u043b\u0438\u043d\u0433\u0435", "place": "town", "population": "6304", "ref:se:pts:postort": "VELLINGE", "ref:se:scb": "3780", "wikidata": "Q1013305", "wikipedia": "sv:Vellinge"}}, "geometry": {"type": "Point", "coordinates": [13.0199449, 55.470895]}}, {"type": "Feature", "properties": {"type": "node", "id": 262554934, "tags": {"name": "Oxie", "place": "town", "population": "11493", "ref:se:pts:postort": "OXIE", "ref:se:scb": "3640", "wikidata": "Q1995123", "wikipedia": "sv:Oxie"}}, "geometry": {"type": "Point", "coordinates": [13.0967868, 55.5461572]}}, {"type": "Feature", "properties": {"type": "node", "id": 68707953, "tags": {"name": "Svedala", "name:ru": "\u0421\u0432\u0435\u0434\u0430\u043b\u0430", "name:sv": "Svedala", "place": "town", "population": "10627", "ref:se:pts:postort": "SVEDALA", "ref:se:scb": "3724", "wikidata": "Q369863", "wikipedia": "sv:Svedala"}}, "geometry": {"type": "Point", "coordinates": [13.2384358, 55.5152421]}}, {"type": "Feature", "properties": {"type": "node", "id": 55079611, "tags": {"name": "Arl\u00f6v", "place": "town", "population": "10201", "population:note": "folkm\u00e4ngden avser delen av malm\u00f6 t\u00e4tort som ligger i burl\u00f6vs kommun, d\u00e5 arl\u00f6v inte \u00e4r n\u00e5gon egen t\u00e4tort", "ref:se:pts:postort": "ARL\u00d6V", "wikidata": "Q676026", "wikipedia": "sv:Arl\u00f6v"}}, "geometry": {"type": "Point", "coordinates": [13.0777501, 55.6378013]}}, {"type": "Feature", "properties": {"type": "node", "id": 27699240, "tags": {"name": "Lomma", "name:ru": "\u041b\u043e\u043c\u043c\u0430", "place": "town", "population": "10837", "ref:se:pts:postort": "LOMMA", "ref:se:scb": "3576", "wikidata": "Q995369", "wikipedia": "sv:Lomma"}}, "geometry": {"type": "Point", "coordinates": [13.0708928, 55.6745348]}}, {"type": "Feature", "properties": {"type": "node", "id": 53403734, "tags": {"name": "Staffanstorp", "name:sv": "Staffanstorp", "place": "town", "population": "14808", "ref:se:pts:postort": "STAFFANSTORP", "ref:se:scb": "3696", "wikidata": "Q1003201", "wikipedia": "sv:Staffanstorp"}}, "geometry": {"type": "Point", "coordinates": [13.2113993, 55.6427393]}}, {"type": "Feature", "properties": {"type": "node", "id": 55102316, "tags": {"name": "Bj\u00e4rred", "name:ru": "\u0411\u044c\u0435\u0440\u0440\u0435\u0434", "place": "town", "population": "10000", "ref:se:pts:postort": "BJ\u00c4RRED", "ref:se:scb": "3356", "wikidata": "Q879479", "wikipedia": "sv:Bj\u00e4rred"}}, "geometry": {"type": "Point", "coordinates": [13.0216436, 55.7221863]}}, {"type": "Feature", "properties": {"type": "node", "id": 27323968, "tags": {"name": "Lund", "name:da": "Lund", "name:ja": "\u30eb\u30f3\u30c9", "name:ko": "\ub8ec\ub4dc", "name:nn": "Lund", "name:no": "Lund", "name:ru": "\u041b\u0443\u043d\u0434", "name:sv": "Lund", "name:yue": "\u9686\u5fb7", "name:zh": "\u9686\u5fb7", "place": "town", "population": "82800", "ref:se:pts:postort": "LUND", "ref:se:scb": "3584", "wikidata": "Q2167"}}, "geometry": {"type": "Point", "coordinates": [13.1929449, 55.7029296]}}, {"type": "Feature", "properties": {"type": "node", "id": 122725384, "tags": {"name": "K\u00e4vlinge", "name:ru": "\u0427\u0435\u0432\u043b\u0438\u043d\u0433\u0435", "place": "town", "population": "9049", "ref:se:pts:postort": "K\u00c4VLINGE", "ref:se:scb": "3552", "wikidata": "Q117493", "wikipedia": "sv:K\u00e4vlinge"}}, "geometry": {"type": "Point", "coordinates": [13.1073471, 55.7912944]}}, {"type": "Feature", "properties": {"type": "node", "id": 21528692, "tags": {"name": "H\u00f6gan\u00e4s", "name:lt": "Hioganas", "name:ru": "\u0425\u0451\u0433\u0430\u043d\u0435\u0441", "place": "town", "population": "14356", "ref:se:pts:postort": "H\u00d6GAN\u00c4S", "ref:se:scb": "3488", "wikidata": "Q911875", "wikipedia": "sv:H\u00f6gan\u00e4s"}}, "geometry": {"type": "Point", "coordinates": [12.5515849, 56.2008565]}}, {"type": "Feature", "properties": {"type": "node", "id": 27699239, "tags": {"name": "Landskrona", "name:ru": "\u041b\u0430\u043d\u0434\u0441\u043a\u0440\u0443\u043d\u0430", "place": "town", "population": "30499", "ref:se:pts:postort": "LANDSKRONA", "ref:se:scb": "3560", "wikidata": "Q54352", "wikipedia": "sv:Landskrona"}}, "geometry": {"type": "Point", "coordinates": [12.8296734, 55.8698007]}}, {"type": "Feature", "properties": {"type": "node", "id": 15412058, "tags": {"capital": "6", "name": "Helsingborg", "name:et": "Helsingborg", "name:he": "\u05d4\u05dc\u05e1\u05d9\u05e0\u05d2\u05d1\u05d5\u05e8\u05d2", "name:hu": "Helsingborg", "name:is": "Helsingjaborg", "name:lt": "Helsingborgas", "name:mk": "\u0425\u0435\u043b\u0441\u0438\u043d\u0433\u0431\u043e\u0440\u0433", "name:ru": "\u0425\u0435\u043b\u044c\u0441\u0438\u043d\u0433\u0431\u043e\u0440\u0433", "name:zh": "\u8d6b\u5c14\u8f9b\u5821", "old_name": "H\u00e4lsingborg", "place": "city", "population": "93838", "ref:se:pts:postort": "HELSINGBORG", "ref:se:scb": "3452", "wikidata": "Q25411", "wikipedia": "sv:Helsingborg"}}, "geometry": {"type": "Point", "coordinates": [12.7040684, 56.0441984]}}, {"type": "Feature", "properties": {"type": "node", "id": 122732762, "tags": {"name": "Bjuv", "name:ru": "\u0411\u044c\u044e\u0432", "place": "town", "population": "6832", "ref:se:pts:postort": "BJUV", "ref:se:scb": "3352", "wikidata": "Q1760444", "wikipedia": "sv:Bjuv"}}, "geometry": {"type": "Point", "coordinates": [12.9167304, 56.0842983]}}, {"type": "Feature", "properties": {"type": "node", "id": 122716719, "tags": {"name": "\u00c5storp", "name:ru": "\u041e\u0441\u0442\u043e\u0440\u043f", "place": "town", "population": "9488", "ref:se:pts:postort": "\u00c5STORP", "ref:se:scb": "3192", "wikidata": "Q271299", "wikipedia": "sv:\u00c5storp"}}, "geometry": {"type": "Point", "coordinates": [12.9462464, 56.1351211]}}, {"type": "Feature", "properties": {"type": "node", "id": 266559071, "tags": {"name": "Sval\u00f6v", "place": "town", "population": "3633", "ref:se:pts:postort": "SVAL\u00d6V", "ref:se:scb": "3716", "wikidata": "Q202408", "wikipedia": "sv:Sval\u00f6v"}}, "geometry": {"type": "Point", "coordinates": [13.1069825, 55.9136519]}}, {"type": "Feature", "properties": {"type": "node", "id": 122697276, "tags": {"name": "Esl\u00f6v", "name:lt": "Esliovas", "name:ru": "\u042d\u0441\u043b\u0451\u0432", "name:sv": "Esl\u00f6v", "place": "town", "population": "17748", "ref:se:pts:postort": "ESL\u00d6V", "ref:se:scb": "3396", "wikidata": "Q79237", "wikipedia": "sv:Esl\u00f6v"}}, "geometry": {"type": "Point", "coordinates": [13.3036265, 55.8374959]}}, {"type": "Feature", "properties": {"type": "node", "id": 122717916, "tags": {"name": "Klippan", "name:ru": "\u041a\u043b\u0438\u043f\u043f\u0430\u043d", "place": "town", "population": "8116", "ref:se:pts:postort": "KLIPPAN", "ref:se:scb": "2964", "wikidata": "Q1018739", "wikipedia": "sv:Klippan"}}, "geometry": {"type": "Point", "coordinates": [13.1332245, 56.1340267]}}, {"type": "Feature", "properties": {"type": "node", "id": 122719596, "tags": {"name": "Perstorp", "name:ru": "\u041f\u0435\u0440\u0441\u0442\u043e\u0440\u043f", "name:sv": "Perstorp", "place": "town", "population": "5665", "ref:se:pts:postort": "PERSTORP", "ref:se:scb": "3036", "wikidata": "Q1736327", "wikipedia": "sv:Perstorp"}}, "geometry": {"type": "Point", "coordinates": [13.3952814, 56.1376968]}}, {"type": "Feature", "properties": {"type": "node", "id": 27699411, "tags": {"name": "\u00c4ngelholm", "name:ru": "\u042d\u043d\u0433\u0435\u043b\u044c\u0445\u043e\u043b\u044c\u043c", "place": "town", "population": "22532", "ref:se:pts:postort": "\u00c4NGELHOLM", "ref:se:scb": "3196", "wikidata": "Q54755", "wikipedia": "sv:\u00c4ngelholm"}}, "geometry": {"type": "Point", "coordinates": [12.8619375, 56.2429224]}}, {"type": "Feature", "properties": {"type": "node", "id": 27699428, "tags": {"name": "B\u00e5stad", "name:ru": "\u0411\u043e\u0441\u0442\u0430\u0434", "place": "town", "population": "4961", "ref:se:pts:postort": "B\u00c5STAD", "ref:se:scb": "2840", "wikidata": "Q1011844", "wikipedia": "sv:B\u00e5stad"}}, "geometry": {"type": "Point", "coordinates": [12.8607151, 56.4267895]}}, {"type": "Feature", "properties": {"type": "node", "id": 122720695, "tags": {"name": "\u00d6rkelljunga", "name:ru": "\u042d\u0440\u043a\u0435\u043b\u044a\u044e\u043d\u0433\u0430", "name:sv": "\u00d6rkelljunga", "place": "town", "population": "4818", "ref:se:pts:postort": "\u00d6RKELLJUNGA", "ref:se:scb": "3208", "wikidata": "Q297922", "wikipedia": "sv:\u00d6rkelljunga"}}, "geometry": {"type": "Point", "coordinates": [13.2784525, 56.2839768]}}, {"type": "Feature", "properties": {"type": "node", "id": 155538278, "tags": {"name": "Laholm", "name:ru": "\u041b\u0430\u0445\u043e\u043b\u044c\u043c", "place": "town", "population": "6150", "ref:se:pts:postort": "LAHOLM", "ref:se:scb": "4028", "wikidata": "Q503050", "wikipedia": "sv:Laholm"}}, "geometry": {"type": "Point", "coordinates": [13.043458, 56.5132738]}}, {"type": "Feature", "properties": {"type": "node", "id": 122728348, "tags": {"name": "Skurup", "name:ru": "\u0421\u043a\u0443\u0440\u0443\u043f", "name:sv": "Skurup", "place": "town", "population": "7565", "ref:se:pts:postort": "SKURUP", "ref:se:scb": "3684", "wikidata": "Q39059", "wikipedia": "sv:Skurup"}}, "geometry": {"type": "Point", "coordinates": [13.5015909, 55.4840328]}}, {"type": "Feature", "properties": {"type": "node", "id": 27374565, "tags": {"name": "Ystad", "name:ru": "\u0418\u0441\u0442\u0430\u0434", "name:sv": "Ystad", "place": "town", "population": "18350", "ref:se:pts:postort": "YSTAD", "ref:se:scb": "3808", "wikidata": "Q28287", "wikipedia": "sv:Ystad"}}, "geometry": {"type": "Point", "coordinates": [13.8196555, 55.4329849]}}, {"type": "Feature", "properties": {"type": "node", "id": 55083755, "tags": {"name": "Sj\u00f6bo", "name:ru": "\u0428\u0451\u0431\u0443", "name:sv": "Sj\u00f6bo", "place": "town", "population": "6724", "ref:se:pts:postort": "SJ\u00d6BO", "ref:se:scb": "3664", "wikidata": "Q1019556", "wikipedia": "sv:Sj\u00f6bo"}}, "geometry": {"type": "Point", "coordinates": [13.7031168, 55.6350867]}}, {"type": "Feature", "properties": {"type": "node", "id": 112159159, "tags": {"name": "Tomelilla", "name:ru": "\u0422\u0443\u043c\u0435\u043b\u0438\u043b\u043b\u0430", "name:sv": "Tomelilla", "place": "town", "population": "6444", "ref:se:pts:postort": "TOMELILLA", "ref:se:scb": "3112", "wikidata": "Q983681", "wikipedia": "sv:Tomelilla"}}, "geometry": {"type": "Point", "coordinates": [13.9541222, 55.5437984]}}, {"type": "Feature", "properties": {"type": "node", "id": 27374563, "tags": {"name": "Simrishamn", "name:ru": "\u0421\u0438\u043c\u0440\u0438\u0441\u0445\u0430\u043c\u043d", "name:sv": "Simrishamn", "place": "town", "population": "6527", "ref:se:pts:postort": "SIMRISHAMN", "ref:se:scb": "3060", "wikidata": "Q648536", "wikipedia": "sv:Simrishamn"}}, "geometry": {"type": "Point", "coordinates": [14.3499903, 55.5565541]}}, {"type": "Feature", "properties": {"type": "node", "id": 122703072, "tags": {"name": "H\u00f6\u00f6r", "name:ru": "\u0425\u0451\u044d\u0440", "name:sv": "H\u00f6\u00f6r", "place": "town", "population": "7865", "ref:se:pts:postort": "H\u00d6\u00d6R", "ref:se:scb": "3504", "wikidata": "Q765434", "wikipedia": "sv:H\u00f6\u00f6r"}}, "geometry": {"type": "Point", "coordinates": [13.5453834, 55.9332915]}}, {"type": "Feature", "properties": {"type": "node", "id": 122723398, "tags": {"name": "H\u00f6rby", "name:ru": "\u0425\u0451\u0440\u0431\u044e", "name:sv": "H\u00f6rby", "place": "town", "population": "7085", "ref:se:pts:postort": "H\u00d6RBY", "ref:se:scb": "3500", "wikidata": "Q1644288", "wikipedia": "sv:H\u00f6rby"}}, "geometry": {"type": "Point", "coordinates": [13.6633304, 55.8540136]}}, {"type": "Feature", "properties": {"type": "node", "id": 122713274, "tags": {"name": "H\u00e4ssleholm", "name:lt": "Hesleholmas", "name:ru": "\u0425\u0435\u0441\u043b\u0435\u0445\u043e\u043b\u044c\u043c", "name:sv": "H\u00e4ssleholm", "place": "town", "population": "18500", "ref:se:pts:postort": "H\u00c4SSLEHOLM", "ref:se:scb": "2936", "wikidata": "Q847665", "wikipedia": "sv:H\u00e4ssleholm"}}, "geometry": {"type": "Point", "coordinates": [13.7653328, 56.157986]}}, {"type": "Feature", "properties": {"type": "node", "id": 27377535, "tags": {"name": "Kristianstad", "name:lt": "Kristianstadas", "name:ru": "\u041a\u0440\u0438\u0441\u0442\u0438\u0430\u043d\u0441\u0442\u0430\u0434", "name:sv": "Kristianstad", "place": "town", "population": "35711", "ref:se:pts:postort": "KRISTIANSTAD", "ref:se:scb": "2980", "wikidata": "Q26937", "wikipedia": "sv:Kristianstad"}}, "geometry": {"type": "Point", "coordinates": [14.1566859, 56.0293778]}}, {"type": "Feature", "properties": {"type": "node", "id": 97913872, "tags": {"name": "Markaryd", "name:ru": "\u041c\u0430\u0440\u043a\u0430\u0440\u044e\u0434", "name:sv": "Markaryd", "place": "town", "population": "3966", "ref:se:pts:postort": "MARKARYD", "ref:se:scb": "1940", "wikidata": "Q1639483", "wikipedia": "sv:Markaryd"}}, "geometry": {"type": "Point", "coordinates": [13.5919834, 56.4596131]}}, {"type": "Feature", "properties": {"type": "node", "id": 27381348, "tags": {"name": "Osby", "name:ru": "\u0423\u0441\u0431\u044e", "name:sv": "Osby", "place": "town", "population": "7157", "ref:se:pts:postort": "OSBY", "ref:se:scb": "3032", "wikidata": "Q26511", "wikipedia": "sv:Osby"}}, "geometry": {"type": "Point", "coordinates": [13.9932853, 56.3827464]}}, {"type": "Feature", "properties": {"type": "node", "id": 122738499, "tags": {"name": "Broby", "name:sv": "Broby", "place": "town", "population": "2920", "ref:se:pts:postort": "BROBY", "ref:se:scb": "2828", "wikidata": "Q923113", "wikipedia": "sv:Broby, \u00d6stra G\u00f6inge kommun"}}, "geometry": {"type": "Point", "coordinates": [14.0777187, 56.2549337]}}, {"type": "Feature", "properties": {"type": "node", "id": 755927892, "tags": {"name": "\u00c4lmhult", "name:ru": "\u042d\u043b\u044c\u043c\u0445\u0443\u043b\u044c\u0442", "name:sv": "\u00c4lmhult", "place": "town", "population": "8955", "ref:se:pts:postort": "\u00c4LMHULT", "ref:se:scb": "2048", "wikidata": "Q122872", "wikipedia": "sv:\u00c4lmhult"}}, "geometry": {"type": "Point", "coordinates": [14.1391762, 56.5512883]}}, {"type": "Feature", "properties": {"type": "node", "id": 28093787, "tags": {"name": "\u00c5hus", "name:ru": "\u041e\u0445\u0443\u0441", "name:sv": "\u00c5hus", "place": "town", "population": "9423", "ref:se:pts:postort": "\u00c5HUS", "ref:se:scb": "3184", "wikidata": "Q127419", "wikipedia": "sv:\u00c5hus"}}, "geometry": {"type": "Point", "coordinates": [14.2955222, 55.9235165]}}, {"type": "Feature", "properties": {"type": "node", "id": 28094074, "tags": {"name": "Brom\u00f6lla", "name:ru": "\u0411\u0440\u0443\u043c\u0451\u043b\u043b\u0430", "name:sv": "Brom\u00f6lla", "place": "town", "population": "7595", "ref:se:pts:postort": "BROM\u00d6LLA", "ref:se:scb": "2832", "wikidata": "Q927096", "wikipedia": "sv:Brom\u00f6lla"}}, "geometry": {"type": "Point", "coordinates": [14.4681732, 56.076158]}}, {"type": "Feature", "properties": {"type": "node", "id": 28093722, "tags": {"name": "S\u00f6lvesborg", "name:ru": "\u0421\u0451\u043b\u044c\u0432\u0435\u0441\u0431\u043e\u0440\u0433", "name:sv": "S\u00f6lvesborg", "place": "town", "population": "8401", "ref:se:pts:postort": "S\u00d6LVESBORG", "ref:se:scb": "2752", "wikidata": "Q898727", "wikipedia": "sv:S\u00f6lvesborg"}}, "geometry": {"type": "Point", "coordinates": [14.5871906, 56.0506535]}}, {"type": "Feature", "properties": {"type": "node", "id": 27395889, "tags": {"loc_name": "Carlshamn", "name": "Karlshamn", "name:ru": "\u041a\u0430\u0440\u043b\u0441\u0445\u0430\u043c\u043d", "name:sv": "Karlshamn", "place": "town", "population": "19075", "ref:se:pts:postort": "KARLSHAMN", "ref:se:scb": "2676", "wikidata": "Q54769", "wikipedia": "sv:Karlshamn"}}, "geometry": {"type": "Point", "coordinates": [14.8631279, 56.1701723]}}, {"type": "Feature", "properties": {"type": "node", "id": 61103888, "tags": {"name": "Olofstr\u00f6m", "name:ru": "\u0423\u043b\u0443\u0444\u0441\u0442\u0440\u0451\u043c", "name:sv": "Olofstr\u00f6m", "place": "town", "population": "7327", "ref:se:pts:postort": "OLOFSTR\u00d6M", "ref:se:scb": "2720", "wikidata": "Q995431", "wikipedia": "sv:Olofstr\u00f6m"}}, "geometry": {"type": "Point", "coordinates": [14.5333253, 56.2789975]}}, {"type": "Feature", "properties": {"type": "node", "id": 98005657, "tags": {"name": "Tingsryd", "name:ru": "\u0422\u0438\u043d\u0433\u0441\u0440\u044e\u0434", "name:sv": "Tingsryd", "place": "town", "population": "3037", "ref:se:pts:postort": "TINGSRYD", "ref:se:scb": "1992", "wikidata": "Q1813784", "wikipedia": "sv:Tingsryd"}}, "geometry": {"type": "Point", "coordinates": [14.9771884, 56.5279063]}}, {"type": "Feature", "properties": {"type": "node", "id": 27396028, "tags": {"name": "Ronneby", "name:lt": "Ronebis", "name:ru": "\u0420\u043e\u043d\u043d\u0435\u0431\u044e", "name:sv": "Ronneby", "place": "town", "population": "11767", "ref:se:pts:postort": "RONNEBY", "ref:se:scb": "2732", "website": "https://www.ronneby.se/", "wikidata": "Q823785", "wikipedia": "sv:Ronneby"}}, "geometry": {"type": "Point", "coordinates": [15.2760355, 56.2100417]}}, {"type": "Feature", "properties": {"type": "node", "id": 1599473536, "tags": {"name": "Karlskrona", "name:he": "\u05e7\u05e8\u05dc\u05e1\u05e7\u05e8\u05d5\u05e0\u05d4", "name:is": "Karlskr\u00f3na", "name:lt": "Karlskruna", "name:ru": "\u041a\u0430\u0440\u043b\u0441\u043a\u0440\u0443\u043d\u0430", "name:sv": "Karlskrona", "place": "city", "population": "35212", "ref:se:pts:postort": "KARLSKRONA", "ref:se:scb": "2680", "wikidata": "Q25789", "wikipedia": "sv:Karlskrona"}}, "geometry": {"type": "Point", "coordinates": [15.5866422, 56.1621073]}}, {"type": "Feature", "properties": {"type": "node", "id": 148618391, "tags": {"name": "Emmaboda", "name:ru": "\u042d\u043c\u043c\u0430\u0431\u0443\u0434\u0430", "name:sv": "Emmaboda", "place": "town", "population": "4824", "ref:se:pts:postort": "EMMABODA", "ref:se:scb": "2160", "wikidata": "Q1338169", "wikipedia": "sv:Emmaboda"}}, "geometry": {"type": "Point", "coordinates": [15.5406619, 56.6308333]}}, {"type": "Feature", "properties": {"type": "node", "id": 155524671, "tags": {"name": "Tors\u00e5s", "name:ru": "\u0422\u0443\u0440\u0441\u043e\u0441", "name:sv": "Tors\u00e5s", "place": "town", "population": "1848", "ref:se:pts:postort": "TORS\u00c5S", "ref:se:scb": "2428", "wikidata": "Q1016705", "wikipedia": "sv:Tors\u00e5s"}}, "geometry": {"type": "Point", "coordinates": [16.0030732, 56.4124084]}}, {"type": "Feature", "properties": {"type": "node", "id": 33224860, "tags": {"name": "M\u00f6rbyl\u00e5nga", "name:lt": "Miorbilonga", "name:ru": "\u041c\u0451\u0440\u0431\u044e\u043b\u043e\u043d\u0433\u0430", "name:sv": "M\u00f6rbyl\u00e5nga", "place": "town", "population": "1780", "ref:se:pts:postort": "M\u00d6RBYL\u00c5NGA", "ref:se:scb": "2344", "wikidata": "Q1641531", "wikipedia": "sv:M\u00f6rbyl\u00e5nga"}}, "geometry": {"type": "Point", "coordinates": [16.3802337, 56.5249607]}}, {"type": "Feature", "properties": {"type": "node", "id": 61103335, "tags": {"name": "\u00d6cker\u00f6", "place": "town", "population": "3488", "ref:se:scb": "4628", "wikidata": "Q1725770", "wikipedia": "sv:\u00d6cker\u00f6 (t\u00e4tort)"}}, "geometry": {"type": "Point", "coordinates": [11.6564098, 57.7092534]}}, {"type": "Feature", "properties": {"type": "node", "id": 130148772, "tags": {"name": "Marstrand", "name:ru": "\u041c\u0430\u0440\u0441\u0442\u0440\u0430\u043d\u0434", "place": "town", "population": "1432", "ref:se:pts:postort": "Marstrand", "ref:se:scb": "4504", "wikidata": "Q406556", "wikipedia": "sv:Marstrand"}}, "geometry": {"type": "Point", "coordinates": [11.5887974, 57.8867618]}}, {"type": "Feature", "properties": {"type": "node", "id": 29690590, "tags": {"name": "Sk\u00e4rhamn", "name:ru": "\u0428\u0435\u0440\u0445\u0430\u043c\u043d", "place": "town", "ref:se:pts:postort": "SK\u00c4RHAMN", "ref:se:scb": "4560"}}, "geometry": {"type": "Point", "coordinates": [11.549795, 57.9909221]}}, {"type": "Feature", "properties": {"type": "node", "id": 26580816, "tags": {"name": "Lysekil", "name:ru": "\u041b\u044e\u0441\u0435\u0447\u0438\u043b\u044c", "place": "town", "population": "7628", "ref:se:pts:postort": "LYSEKIL", "ref:se:scb": "4496", "wikidata": "Q602574"}}, "geometry": {"type": "Point", "coordinates": [11.4430987, 58.2771735]}}, {"type": "Feature", "properties": {"type": "node", "id": 29690748, "tags": {"name": "Hen\u00e5n", "place": "town", "population": "1816", "ref:se:pts:postort": "HEN\u00c5N", "ref:se:scb": "4384"}}, "geometry": {"type": "Point", "coordinates": [11.6793381, 58.2361634]}}, {"type": "Feature", "properties": {"type": "node", "id": 30147825, "tags": {"name": "Falkenberg", "name:ru": "\u0424\u0430\u043b\u044c\u043a\u0435\u043d\u0431\u0435\u0440\u0433", "place": "town", "population": "20035", "ref:se:pts:postort": "FALKENBERG", "ref:se:scb": "3920", "wikidata": "Q4165241"}}, "geometry": {"type": "Point", "coordinates": [12.4912926, 56.904894]}}, {"type": "Feature", "properties": {"type": "node", "id": 762233330, "tags": {"name": "Onsala", "place": "town", "population": "13779", "ref:se:pts:postort": "ONSALA", "ref:se:scb": "4054"}}, "geometry": {"type": "Point", "coordinates": [12.0302702, 57.4272188]}}, {"type": "Feature", "properties": {"type": "node", "id": 30147521, "tags": {"name": "Varberg", "name:he": "\u05d5\u05e8\u05d1\u05e8\u05d2", "name:ru": "\u0412\u0430\u0440\u0431\u0435\u0440\u0433", "place": "town", "population": "27602", "ref:se:pts:postort": "VARBERG", "ref:se:scb": "4156", "wikidata": "Q21168", "wikipedia": "sv:Varberg"}}, "geometry": {"type": "Point", "coordinates": [12.2502949, 57.1057412]}}, {"type": "Feature", "properties": {"type": "node", "id": 1594669682, "tags": {"capital": "4", "name": "Halmstad", "name:he": "\u05d4\u05d0\u05dc\u05de\u05e1\u05d8\u05d3", "name:la": "Halmostadium", "name:lt": "Halmstadas", "name:ru": "\u0425\u0430\u043b\u044c\u043c\u0441\u0442\u0430\u0434", "place": "city", "population": "55688", "ref:se:pts:postort": "HALMSTAD", "ref:se:scb": "3960", "wikidata": "Q26521", "wikipedia": "sv:Halmstad"}}, "geometry": {"type": "Point", "coordinates": [12.8574827, 56.6739826]}}, {"type": "Feature", "properties": {"type": "node", "id": 30147985, "tags": {"name": "Hyltebruk", "name:sv": "Hyltebruk", "place": "town", "population": "3716", "ref:se:pts:postort": "HYLTEBRUK", "ref:se:scb": "3992", "wikidata": "Q531776", "wikipedia": "sv:Hyltebruk"}}, "geometry": {"type": "Point", "coordinates": [13.2403039, 56.9999142]}}, {"type": "Feature", "properties": {"type": "node", "id": 30146374, "tags": {"name": "Kungsbacka", "name:ru": "\u041a\u0443\u043d\u0433\u0441\u0431\u0430\u043a\u043a\u0430", "place": "town", "population": "18600", "ref:se:pts:postort": "KUNGSBACKA", "ref:se:scb": "4008", "wikidata": "Q28374", "wikipedia": "sv:Kungsbacka"}}, "geometry": {"type": "Point", "coordinates": [12.0787529, 57.4888563]}}, {"type": "Feature", "properties": {"type": "node", "id": 30146989, "tags": {"name": "Lindome", "name:ru": "\u041b\u0438\u043d\u0434\u0443\u043c\u0435", "place": "town", "population": "11037", "ref:se:pts:postort": "LINDOME", "ref:se:scb": "4488", "wikidata": "Q1796281", "wikipedia": "sv:Lindome"}}, "geometry": {"type": "Point", "coordinates": [12.0876599, 57.5791257]}}, {"type": "Feature", "properties": {"type": "node", "id": 30146990, "tags": {"name": "M\u00f6lndal", "name:lt": "Miolndalas", "name:ru": "\u041c\u0451\u043b\u044c\u043d\u0434\u0430\u043b\u044c", "place": "town", "population": "60000", "ref:se:pts:postort": "M\u00d6LNDAL", "wikidata": "Q27437", "wikipedia": "sv:M\u00f6lndal"}}, "geometry": {"type": "Point", "coordinates": [12.0153085, 57.6564918]}}, {"type": "Feature", "properties": {"type": "node", "id": 30578919, "tags": {"name": "M\u00f6lnlycke", "name:lt": "Miolnliuk\u0117", "name:ru": "\u041c\u0451\u043b\u044c\u043d\u043b\u044e\u043a\u043a\u0435", "name:uk": "\u041c\u044c\u043e\u043b\u043d\u043b\u0456\u043a\u0435", "place": "town", "population": "17728", "population:date": "2016", "ref:se:pts:postort": "M\u00d6LNLYCKE", "ref:se:scb": "4520", "source:population": "SCB", "wikidata": "Q25462", "wikipedia": "sv:M\u00f6lnlycke"}}, "geometry": {"type": "Point", "coordinates": [12.1135762, 57.6583613]}}, {"type": "Feature", "properties": {"type": "node", "id": 192294046, "tags": {"name": "Torslanda", "place": "town", "population": "23414", "population:date": "2016", "ref:se:pts:postort": "TORSLANDA", "ref:se:scb": "4302", "source:population": "SCB"}}, "geometry": {"type": "Point", "coordinates": [11.7653423, 57.7243742]}}, {"type": "Feature", "properties": {"type": "node", "id": 25930131, "tags": {"capital": "4", "name": "G\u00f6teborg", "name:ar": "\u063a\u0648\u062a\u0646\u0628\u0631\u063a", "name:bs": "Geteborg", "name:de": "G\u00f6teborg", "name:el": "\u0393\u03bf\u03c4\u03b8\u03bf\u03bc\u03b2\u03bf\u03cd\u03c1\u03b3\u03bf", "name:en": "Gothenburg", "name:eo": "Gotenburgo", "name:es": "Gotemburgo", "name:fi": "G\u00f6teborg", "name:he": "\u05d2\u05d8\u05d1\u05d5\u05e8\u05d2", "name:hr": "G\u00f6teborg", "name:hu": "G\u00f6teborg", "name:is": "Gautaborg", "name:ko": "\uc608\ud14c\ubcf4\ub9ac", "name:la": "Gothoburgum", "name:lt": "Geteborgas", "name:lv": "G\u0113teborga", "name:nl": "G\u00f6teborg", "name:pl": "G\u00f6teborg", "name:pt": "Gotemburgo", "name:ru": "\u0413\u0451\u0442\u0435\u0431\u043e\u0440\u0433", "name:sv": "G\u00f6teborg", "name:yi": "\u05d2\u05e2\u05d8\u05e2\u05d1\u05d0\u05e8\u05d2", "name:zh": "\u54e5\u5fb7\u5821", "old_name:de": "Gotenburg", "place": "city", "population": "522259", "ref:se:pts:postort": "G\u00d6TEBORG", "ref:se:scb": "4368", "short_name": "Gbg", "wikidata": "Q25287", "wikipedia": "sv:G\u00f6teborg"}}, "geometry": {"type": "Point", "coordinates": [11.9670171, 57.7072326]}}, {"type": "Feature", "properties": {"type": "node", "id": 175828354, "tags": {"name": "Partille", "place": "town", "population": "29444", "population:note": "folkm\u00e4ngden avser delen av g\u00f6teborgs t\u00e4tort som ligger i partille kommun, d\u00e5 partille inte \u00e4r n\u00e5gon egen t\u00e4tort", "ref:se:pts:postort": "PARTILLE", "wikidata": "Q2054961"}}, "geometry": {"type": "Point", "coordinates": [12.1100789, 57.7406279]}}, {"type": "Feature", "properties": {"type": "node", "id": 29691384, "tags": {"name": "Kung\u00e4lv", "name:ru": "\u041a\u0443\u043d\u0433\u044d\u043b\u044c\u0432", "place": "town", "population": "21139", "ref:se:pts:postort": "Kung\u00e4lv", "ref:se:scb": "4452", "wikidata": "Q27455", "wikipedia": "sv:Kung\u00e4lv"}}, "geometry": {"type": "Point", "coordinates": [11.9788622, 57.8707862]}}, {"type": "Feature", "properties": {"type": "node", "id": 192291021, "tags": {"name": "Bollebygd", "place": "town", "population": "3566", "ref:se:pts:postort": "BOLLEBYGD", "ref:se:scb": "4744"}}, "geometry": {"type": "Point", "coordinates": [12.5707216, 57.6688624]}}, {"type": "Feature", "properties": {"type": "node", "id": 30577975, "tags": {"name": "Lerum", "name:ru": "\u041b\u0435\u0440\u0443\u043c", "place": "town", "population": "16855", "ref:se:pts:postort": "LERUM", "ref:se:scb": "4920", "wikidata": "Q988275", "wikipedia": "sv:Lerum"}}, "geometry": {"type": "Point", "coordinates": [12.2695051, 57.7701659]}}, {"type": "Feature", "properties": {"type": "node", "id": 5300615844, "tags": {"name": "Stenungsund", "place": "town"}}, "geometry": {"type": "Point", "coordinates": [11.8229383, 58.0725069]}}, {"type": "Feature", "properties": {"type": "node", "id": 192296608, "tags": {"name": "N\u00f6dinge-Nol", "place": "town", "population": "9822", "ref:se:pts:postort": "NOL", "ref:se:scb": "4976"}}, "geometry": {"type": "Point", "coordinates": [12.0601607, 57.9068771]}}, {"type": "Feature", "properties": {"type": "node", "id": 21382663, "tags": {"name": "Lilla Edet", "name:ru": "\u041b\u0438\u043b\u043b\u0430-\u042d\u0434\u0435\u0442", "place": "town", "population": "4928", "population:date": "2016-01-01", "ref:se:pts:postort": "LILLA EDET", "ref:se:scb": "4924", "source:population": "SCB"}}, "geometry": {"type": "Point", "coordinates": [12.128477, 58.1350719]}}, {"type": "Feature", "properties": {"type": "node", "id": 28256477, "tags": {"int_name": "Alingsas", "name": "Alings\u00e5s", "name:ru": "\u0410\u043b\u0438\u043d\u0433\u0441\u043e\u0441", "place": "town", "population": "24482", "ref:se:pts:postort": "ALINGS\u00c5S", "ref:se:scb": "4700", "wikidata": "Q54743"}}, "geometry": {"type": "Point", "coordinates": [12.5329678, 57.9299658]}}, {"type": "Feature", "properties": {"type": "node", "id": 26585395, "tags": {"name": "Trollh\u00e4ttan", "name:he": "\u05d8\u05e8\u05d5\u05dc\u05d4\u05d8\u05df", "name:ru": "\u0422\u0440\u043e\u043b\u043b\u044c\u0445\u0435\u0442\u0442\u0430\u043d", "place": "town", "population": "44498", "ref:se:pts:postort": "TROLLH\u00c4TTAN", "ref:se:scb": "5084", "wikidata": "Q54339"}}, "geometry": {"type": "Point", "coordinates": [12.2908612, 58.2827931]}}, {"type": "Feature", "properties": {"type": "node", "id": 28350059, "tags": {"name": "Kinna", "name:ru": "\u0427\u0438\u043d\u043d\u0430", "place": "town", "population": "14776", "ref:se:pts:postort": "KINNA", "ref:se:scb": "4912", "wikidata": "Q667818", "wikipedia": "sv:Kinna"}}, "geometry": {"type": "Point", "coordinates": [12.6970568, 57.5080076]}}, {"type": "Feature", "properties": {"type": "node", "id": 1643360977, "tags": {"capital": "municipality", "name": "Bor\u00e5s", "name:he": "\u05d1\u05d5\u05e8\u05d5\u05e1", "name:lt": "Burosas", "name:ru": "\u0411\u0443\u0440\u043e\u0441", "place": "town", "population": "66273", "ref:se:pts:postort": "BOR\u00c5S", "ref:se:scb": "4752", "wikidata": "Q26040", "wikipedia": "sv:Bor\u00e5s"}}, "geometry": {"type": "Point", "coordinates": [12.9407407, 57.7210839]}}, {"type": "Feature", "properties": {"type": "node", "id": 149339653, "tags": {"name": "Svenljunga", "name:ru": "\u0421\u0432\u0435\u043d\u044a\u044e\u043d\u0433\u0430", "place": "town", "population": "3418", "ref:se:pts:postort": "SVENLJUNGA", "ref:se:scb": "5060", "wikidata": "Q1297746", "wikipedia": "sv:Svenljunga"}}, "geometry": {"type": "Point", "coordinates": [13.1122599, 57.4963122]}}, {"type": "Feature", "properties": {"type": "node", "id": 149339656, "tags": {"name": "Tranemo", "name:sv": "Tranemo", "place": "town", "population": "3168", "ref:se:pts:postort": "TRANEMO", "ref:se:scb": "5080"}}, "geometry": {"type": "Point", "coordinates": [13.3517534, 57.4849975]}}, {"type": "Feature", "properties": {"type": "node", "id": 28968863, "tags": {"name": "Ulricehamn", "name:ru": "\u0423\u043b\u044c\u0440\u0438\u0441\u0435\u0445\u0430\u043c\u043d", "name:sv": "Ulricehamn", "place": "town", "population": "9787", "ref:se:pts:postort": "ULRICEHAMN", "ref:se:scb": "5104"}}, "geometry": {"type": "Point", "coordinates": [13.4130426, 57.7913848]}}, {"type": "Feature", "properties": {"type": "node", "id": 28256476, "tags": {"name": "V\u00e5rg\u00e5rda", "place": "town", "population": "5133", "ref:se:pts:postort": "V\u00c5RG\u00c5RDA", "ref:se:scb": "5124", "wikidata": "Q178538", "wikipedia": "sv:V\u00e5rg\u00e5rda"}}, "geometry": {"type": "Point", "coordinates": [12.8090407, 58.0316492]}}, {"type": "Feature", "properties": {"type": "node", "id": 29691963, "tags": {"name": "Nossebro", "name:ru": "\u041d\u043e\u0441\u0435\u0431\u0440\u0443", "place": "town", "population": "1846", "ref:se:pts:postort": "NOSSEBRO", "ref:se:scb": "5388", "wikidata": "Q1639452"}}, "geometry": {"type": "Point", "coordinates": [12.7192098, 58.1883968]}}, {"type": "Feature", "properties": {"type": "node", "id": 25710724, "tags": {"name": "Vara", "name:ru": "\u0412\u0430\u0440\u0430", "place": "town", "population": "3889", "ref:se:pts:postort": "VARA", "ref:se:scb": "5500"}}, "geometry": {"type": "Point", "coordinates": [12.9521468, 58.2610628]}}, {"type": "Feature", "properties": {"type": "node", "id": 27426148, "tags": {"name": "Herrljunga", "name:ru": "\u0425\u0435\u0440\u0440\u044a\u044e\u043d\u0433\u0430", "place": "town", "population": "3822", "ref:se:pts:postort": "HERRLJUNGA", "ref:se:scb": "4864"}}, "geometry": {"type": "Point", "coordinates": [13.0257241, 58.0783609]}}, {"type": "Feature", "properties": {"type": "node", "id": 29689990, "tags": {"name": "Kungshamn", "place": "town", "population": "2814", "ref:se:pts:postort": "KUNGSHAMN", "ref:se:scb": "4448", "wikidata": "Q594557", "wikipedia": "sv:Kungshamn"}}, "geometry": {"type": "Point", "coordinates": [11.2511421, 58.3608171]}}, {"type": "Feature", "properties": {"type": "node", "id": 29686799, "tags": {"name": "Munkedal", "name:ru": "\u041c\u0443\u043d\u043a\u0435\u0434\u0430\u043b\u044c", "place": "town", "population": "3718", "ref:se:pts:postort": "MUNKEDAL", "ref:se:scb": "4512", "wikidata": "Q772339"}}, "geometry": {"type": "Point", "coordinates": [11.6733554, 58.4666055]}}, {"type": "Feature", "properties": {"type": "node", "id": 29689832, "tags": {"name": "Tanumshede", "place": "town", "population": "1697", "ref:se:pts:postort": "TANUMSHEDE", "ref:se:scb": "4600"}}, "geometry": {"type": "Point", "coordinates": [11.3323854, 58.7219089]}}, {"type": "Feature", "properties": {"type": "node", "id": 30983274, "tags": {"name": "Str\u00f6mstad", "name:ru": "\u0421\u0442\u0440\u0435\u043c\u0441\u0442\u0430\u0434", "place": "town", "population": "6288", "ref:se:pts:postort": "STR\u00d6MSTAD", "ref:se:scb": "4584", "wikidata": "Q748559"}}, "geometry": {"type": "Point", "coordinates": [11.1736096, 58.9377567]}}, {"type": "Feature", "properties": {"type": "node", "id": 26585398, "tags": {"name": "Uddevalla", "name:hu": "Uddevalla", "name:lt": "Udevala", "name:ru": "\u0423\u0434\u0434\u0435\u0432\u0430\u043b\u043b\u0430", "place": "town", "population": "31212", "ref:se:pts:postort": "UDDEVALLA", "ref:se:scb": "4608", "wikidata": "Q27447", "wikipedia": "sv:Uddevalla"}}, "geometry": {"type": "Point", "coordinates": [11.9382855, 58.3490555]}}, {"type": "Feature", "properties": {"type": "node", "id": 6555544388, "tags": {"name": "F\u00e4rgelanda", "name:ru": "\u0424\u0435\u0440\u0433\u0435\u043b\u0430\u043d\u0434\u0430", "place": "town", "population": "1894", "ref:se:pts:postort": "F\u00c4RGELANDA", "ref:se:scb": "4828"}}, "geometry": {"type": "Point", "coordinates": [11.9965125, 58.5692203]}}, {"type": "Feature", "properties": {"type": "node", "id": 26585396, "tags": {"name": "V\u00e4nersborg", "name:ru": "\u0412\u0435\u043d\u0435\u0440\u0441\u0431\u043e\u0440\u0433", "place": "town", "population": "21699", "ref:se:pts:postort": "V\u00c4NERSBORG", "ref:se:scb": "5132", "wikidata": "Q54759"}}, "geometry": {"type": "Point", "coordinates": [12.3226877, 58.3811988]}}, {"type": "Feature", "properties": {"type": "node", "id": 28831095, "tags": {"name": "Mellerud", "name:ru": "\u041c\u0435\u043b\u043b\u0435\u0440\u0443\u0434", "place": "town", "population": "3871", "population:date": "2016", "ref:se:pts:postort": "MELLERUD", "ref:se:scb": "4952", "source:population": "SCB"}}, "geometry": {"type": "Point", "coordinates": [12.4543462, 58.6990356]}}, {"type": "Feature", "properties": {"type": "node", "id": 29282318, "tags": {"name": "Ed", "name:ru": "\u042d\u0434", "place": "town", "population": "2932", "ref:se:pts:postort": "ED", "ref:se:scb": "4796"}}, "geometry": {"type": "Point", "coordinates": [11.9340137, 58.9125825]}}, {"type": "Feature", "properties": {"type": "node", "id": 30106774, "tags": {"name": "Bengtsfors", "name:ru": "\u0411\u0435\u043d\u0433\u0442\u0441\u0444\u043e\u0440\u0441", "place": "town", "population": "3231", "population:date": "2016", "ref:se:pts:postort": "BENGTSFORS", "ref:se:scb": "4720", "source:population": "SCB"}}, "geometry": {"type": "Point", "coordinates": [12.222887, 59.0309288]}}, {"type": "Feature", "properties": {"type": "node", "id": 29691802, "tags": {"name": "Gr\u00e4storp", "name:ru": "\u0413\u0440\u0435\u0441\u0442\u043e\u0440\u043f", "place": "town", "population": "2969", "ref:se:pts:postort": "GR\u00c4STORP", "ref:se:scb": "5260"}}, "geometry": {"type": "Point", "coordinates": [12.679212, 58.3328302]}}, {"type": "Feature", "properties": {"type": "node", "id": 27426448, "tags": {"alt_name": "Lidk\u00f6ping vid V\u00e4nern", "layer": "5", "name": "Lidk\u00f6ping", "name:ru": "\u041b\u0438\u0434\u0447\u0451\u043f\u0438\u043d\u0433", "place": "town", "population": "25644", "ref:se:pts:postort": "LIDK\u00d6PING", "ref:se:scb": "5352", "wikidata": "Q29988"}}, "geometry": {"type": "Point", "coordinates": [13.1576427, 58.5037196]}}, {"type": "Feature", "properties": {"type": "node", "id": 28831161, "tags": {"name": "\u00c5m\u00e5l", "name:ru": "\u041e\u043c\u043e\u043b\u044c", "place": "town", "population": "9065", "ref:se:pts:postort": "\u00c5M\u00c5L", "ref:se:scb": "5140"}}, "geometry": {"type": "Point", "coordinates": [12.7057062, 59.054803]}}, {"type": "Feature", "properties": {"type": "node", "id": 28831940, "tags": {"name": "S\u00e4ffle", "name:ru": "\u0421\u0435\u0444\u043b\u0435", "place": "town", "population": "9490", "population:date": "2018-03-28", "population:source": "SCB", "ref:se:pts:postort": "S\u00c4FFLE", "ref:se:scb": "5840"}}, "geometry": {"type": "Point", "coordinates": [12.9248679, 59.1329314]}}, {"type": "Feature", "properties": {"type": "node", "id": 30105474, "tags": {"name": "\u00c5rj\u00e4ng", "name:ru": "\u041e\u0440\u044c\u0435\u043d\u0433", "place": "town", "population": "3433", "population:date": "2018-03-28", "population:source": "SCB", "ref:se:pts:postort": "\u00c5RJ\u00c4NG", "ref:se:scb": "5884"}}, "geometry": {"type": "Point", "coordinates": [12.1352312, 59.3927862]}}, {"type": "Feature", "properties": {"type": "node", "id": 2029615887, "tags": {"name": "Koppom", "place": "town", "population": "691", "population:date": "2018-03-28", "population:source": "SCB", "ref:se:pts:postort": "KOPPOM", "ref:se:scb": "5716"}}, "geometry": {"type": "Point", "coordinates": [12.1494597, 59.7031557]}}, {"type": "Feature", "properties": {"type": "node", "id": 367469861, "tags": {"name": "\u00c5motfors", "place": "town", "population": "1375", "population:date": "2018-03-28", "population:source": "SCB", "ref:se:pts:postort": "\u00c5MOTFORS", "ref:se:scb": "5880"}}, "geometry": {"type": "Point", "coordinates": [12.362227, 59.7625867]}}, {"type": "Feature", "properties": {"type": "node", "id": 1705685721, "tags": {"name": "Charlottenberg", "name:ru": "\u0428\u0430\u0440\u043b\u043e\u0442\u0442\u0435\u043d\u0431\u0435\u0440\u0433", "place": "town", "population": "2505", "population:date": "2018-03-28", "population:source": "SCB", "ref:se:pts:postort": "CHARLOTTENBERG", "ref:se:scb": "5628", "start_date": "1906", "wikidata": "Q1013299", "wikipedia": "sv:Charlottenberg"}}, "geometry": {"type": "Point", "coordinates": [12.3049207, 59.8839607]}}, {"type": "Feature", "properties": {"type": "node", "id": 29816037, "tags": {"name": "Grums", "name:ru": "\u0413\u0440\u0443\u043c\u0441", "place": "town", "population": "5033", "population:date": "2018-03-28", "population:source": "SCB", "ref:se:pts:postort": "GRUMS", "ref:se:scb": "5676"}}, "geometry": {"type": "Point", "coordinates": [13.1056834, 59.3518935]}}, {"type": "Feature", "properties": {"type": "node", "id": 29816047, "tags": {"name": "V\u00e5lberg", "place": "town", "population": "2818", "population:date": "2018-03-28", "population:source": "SCB", "ref:se:pts:postort": "V\u00c5LBERG", "ref:se:scb": "5864"}}, "geometry": {"type": "Point", "coordinates": [13.1934701, 59.3953811]}}, {"type": "Feature", "properties": {"type": "node", "id": 29815562, "tags": {"name": "Kil", "name:ru": "\u0427\u0438\u043b\u044c", "name:sv": "Kil", "place": "town", "population": "7661", "population:date": "2018-03-28", "population:source": "SCB", "ref:se:pts:postort": "KIL", "ref:se:scb": "5708"}}, "geometry": {"type": "Point", "coordinates": [13.3175439, 59.5020632]}}, {"type": "Feature", "properties": {"type": "node", "id": 29814285, "tags": {"name": "Arvika", "name:ru": "\u0410\u0440\u0432\u0438\u043a\u0430", "place": "town", "population": "14052", "population:date": "2018-03-28", "population:source": "SCB", "ref:se:pts:postort": "ARVIKA", "ref:se:scb": "5604", "website": "https://www.arvika.se/", "wikidata": "Q654308", "wikipedia": "sv:Arvika"}}, "geometry": {"type": "Point", "coordinates": [12.5916225, 59.6543555]}}, {"type": "Feature", "properties": {"type": "node", "id": 29531595, "tags": {"name": "Sunne", "name:ru": "\u0421\u0443\u043d\u043d\u0435", "place": "town", "population": "5155", "population:date": "2018-03-28", "population:source": "SCB", "ref:se:pts:postort": "SUNNE", "ref:se:scb": "5824"}}, "geometry": {"type": "Point", "coordinates": [13.1354808, 59.8401813]}}, {"type": "Feature", "properties": {"type": "node", "id": 1705289628, "tags": {"name": "Torsby", "name:ru": "\u0422\u0443\u0440\u0441\u0431\u044e", "place": "town", "population": "4477", "population:date": "2018-03-28", "population:source": "SCB", "ref:se:pts:postort": "TORSBY", "ref:se:scb": "5844", "wikidata": "Q3582130"}}, "geometry": {"type": "Point", "coordinates": [13.0067884, 60.1355208]}}, {"type": "Feature", "properties": {"type": "node", "id": 26290051, "tags": {"name": "Ljungby", "name:ru": "\u042e\u043d\u0433\u0431\u044e", "name:sv": "Ljungby", "place": "town", "population": "15205", "ref:se:pts:postort": "LJUNGBY", "ref:se:scb": "1936", "wikidata": "Q744491", "wikipedia": "sv:Ljungby"}}, "geometry": {"type": "Point", "coordinates": [13.9359916, 56.8325886]}}, {"type": "Feature", "properties": {"type": "node", "id": 46792661, "tags": {"name": "Gislaved", "name:ru": "\u0419\u0438\u0441\u043b\u0430\u0432\u0435\u0434", "name:sv": "Gislaved", "place": "town", "population": "10037", "ref:se:pts:postort": "GISLAVED", "ref:se:scb": "1484"}}, "geometry": {"type": "Point", "coordinates": [13.5392235, 57.3019768]}}, {"type": "Feature", "properties": {"type": "node", "id": 111949834, "tags": {"name": "Gnosj\u00f6", "name:ru": "\u0413\u043d\u043e\u0448\u0451", "name:sv": "Gnosj\u00f6", "place": "town", "population": "4326", "ref:se:pts:postort": "GNOSJ\u00d6", "ref:se:scb": "1488"}}, "geometry": {"type": "Point", "coordinates": [13.7350863, 57.3569728]}}, {"type": "Feature", "properties": {"type": "node", "id": 30146159, "tags": {"name": "V\u00e4rnamo", "name:ru": "\u0412\u0435\u0440\u043d\u0430\u043c\u0443", "name:sv": "V\u00e4rnamo", "place": "town", "population": "19817", "population:date": "2018-12-31", "ref:se:pts:postort": "V\u00c4RNAMO", "ref:se:scb": "1732", "source:population": "V\u00e4rnamo Kommun", "wikidata": "Q54771", "wikipedia": "sv:V\u00e4rnamo"}}, "geometry": {"type": "Point", "coordinates": [14.0483437, 57.1832783]}}, {"type": "Feature", "properties": {"type": "node", "id": 111937982, "tags": {"name": "Skillingaryd", "name:ru": "\u0428\u0438\u043b\u043b\u0438\u043d\u0433\u0430\u0440\u044e\u0434", "name:sv": "Skillingaryd", "place": "town", "population": "3889", "ref:se:pts:postort": "SKILLINGARYD", "ref:se:scb": "1656"}}, "geometry": {"type": "Point", "coordinates": [14.091985, 57.4289474]}}, {"type": "Feature", "properties": {"type": "node", "id": 88790094, "tags": {"name": "Alvesta", "name:ru": "\u0410\u043b\u044c\u0432\u0435\u0441\u0442\u0430", "name:sv": "Alvesta", "place": "town", "population": "8017", "ref:se:pts:postort": "ALVESTA", "ref:se:scb": "1808", "wikidata": "Q2604885", "wikipedia": "sv:Alvesta"}}, "geometry": {"type": "Point", "coordinates": [14.5546493, 56.8997562]}}, {"type": "Feature", "properties": {"type": "node", "id": 25508576, "tags": {"capital": "county", "name": "V\u00e4xj\u00f6", "name:he": "\u05d5\u05e7\u05e9\u05d4", "name:hu": "V\u00e4xj\u00f6", "name:la": "Wexionia", "name:lt": "Vek\u0161\u0117", "name:ru": "\u0412\u0435\u043a\u0448\u0451", "name:sv": "V\u00e4xj\u00f6", "place": "city", "population": "55600", "ref:se:pts:postort": "V\u00c4XJ\u00d6", "ref:se:scb": "2024", "wikidata": "Q26152", "wikipedia": "sv:V\u00e4xj\u00f6"}}, "geometry": {"type": "Point", "coordinates": [14.8094385, 56.8787183]}}, {"type": "Feature", "properties": {"type": "node", "id": 111915147, "tags": {"name": "S\u00e4vsj\u00f6", "name:ru": "\u0421\u0435\u0432\u0448\u0451", "name:sv": "S\u00e4vsj\u00f6", "place": "town", "population": "5122", "ref:se:pts:postort": "S\u00c4VSJ\u00d6", "ref:se:scb": "1688"}}, "geometry": {"type": "Point", "coordinates": [14.6667098, 57.4021387]}}, {"type": "Feature", "properties": {"type": "node", "id": 26587059, "tags": {"name": "Vetlanda", "name:ru": "\u0412\u0435\u0442\u043b\u0430\u043d\u0434\u0430", "name:sv": "Vetlanda", "place": "town", "population": "13050", "ref:se:pts:postort": "VETLANDA", "ref:se:scb": "1724", "website": "https://vetlanda.se/", "wikidata": "Q611013", "wikipedia": "sv:Vetlanda"}}, "geometry": {"type": "Point", "coordinates": [15.0870226, 57.4260178]}}, {"type": "Feature", "properties": {"type": "node", "id": 111937980, "tags": {"name": "Vaggeryd", "name:ru": "\u0412\u0430\u0433\u0433\u0435\u0440\u044e\u0434", "name:sv": "Vaggeryd", "place": "town", "population": "5122", "ref:se:pts:postort": "VAGGERYD", "ref:se:scb": "1720", "wikipedia": "sv:Vaggeryd"}}, "geometry": {"type": "Point", "coordinates": [14.1484787, 57.4980578]}}, {"type": "Feature", "properties": {"type": "node", "id": 191664748, "tags": {"capital": "4", "name": "J\u00f6nk\u00f6ping", "name:la": "Junecopia", "name:ru": "\u0419\u0451\u043d\u0447\u0451\u043f\u0438\u043d\u0433", "name:sv": "J\u00f6nk\u00f6ping", "name:zh": "\u5ef6\u96ea\u5e73", "place": "city", "population": "84423", "ref:se:pts:postort": "J\u00d6NK\u00d6PING", "ref:se:scb": "1544", "wikidata": "Q25415", "wikipedia": "sv:J\u00f6nk\u00f6ping"}}, "geometry": {"type": "Point", "coordinates": [14.165719, 57.7825634]}}, {"type": "Feature", "properties": {"type": "node", "id": 1395086026, "tags": {"name": "Falk\u00f6ping", "name:bg": "\u0424\u0430\u043b\u0448\u044c\u043e\u043f\u0438\u043d\u0433", "name:fa": "\u0648\u06cc\u0698\u0647:\u067e\u0627\u0644\u0627\u06cc\u0647\u0654_\u062e\u0631\u0627\u0628\u06a9\u0627\u0631\u06cc", "name:ja": "\u30d5\u30a1\u30eb\u30b7\u30a7\u30fc\u30d4\u30f3\u30b0", "name:la": "Falcopia", "name:lt": "Fal\u0161iopingas", "name:ru": "\u0424\u0430\u043b\u044c\u0447\u0451\u043f\u0438\u043d\u0433", "name:sr": "\u0424\u0430\u043b\u045b\u0435\u043f\u0438\u043d\u0433", "name:sv": "Falk\u00f6ping", "name:ur": "\u0641\u0627\u0644\u06a9\u0648\u067e\u06cc\u0646\u06af", "name:zh": "\u6cd5\u723e\u96ea\u5e73", "place": "town", "population": "16350", "ref:se:pts:postort": "FALK\u00d6PING", "ref:se:scb": "5236", "wikidata": "Q21165"}}, "geometry": {"type": "Point", "coordinates": [13.5542412, 58.1695083]}}, {"type": "Feature", "properties": {"type": "node", "id": 30096223, "tags": {"name": "Mullsj\u00f6", "name:ru": "\u041c\u0443\u043b\u043b\u044c\u0448\u0435", "name:sv": "Mullsj\u00f6", "place": "town", "population": "5584", "ref:se:pts:postort": "MULLSJ\u00d6", "ref:se:scb": "5380", "wikidata": "Q1625556"}}, "geometry": {"type": "Point", "coordinates": [13.8804724, 57.9168131]}}, {"type": "Feature", "properties": {"type": "node", "id": 30095596, "tags": {"name": "Habo", "name:ru": "\u0425\u0430\u0431\u0443", "name:sv": "Habo", "place": "town", "population": "6883", "ref:se:pts:postort": "HABO", "ref:se:scb": "5284"}}, "geometry": {"type": "Point", "coordinates": [14.0743562, 57.9092463]}}, {"type": "Feature", "properties": {"type": "node", "id": 24970666, "tags": {"name": "Tidaholm", "name:ru": "\u0422\u0438\u0434\u0430\u0445\u043e\u043b\u044c\u043c", "name:sv": "Tidaholm", "place": "town", "population": "8027", "ref:se:pts:postort": "TIDAHOLM", "ref:se:scb": "5460"}}, "geometry": {"type": "Point", "coordinates": [13.9596994, 58.1803687]}}, {"type": "Feature", "properties": {"type": "node", "id": 191664752, "tags": {"name": "Huskvarna", "name:ru": "\u0425\u0443\u0441\u043a\u0432\u0430\u0440\u043d\u0430", "name:sv": "Huskvarna", "place": "town", "population": "22800", "population:note": "huskvarna \u00e4r ingen egen t\u00e4tort, folkm\u00e4ngd avser kommundel i j\u00f6nk\u00f6pings kommun", "ref:se:pts:postort": "HUSKVARNA", "wikidata": "Q263877"}}, "geometry": {"type": "Point", "coordinates": [14.2739261, 57.7918701]}}, {"type": "Feature", "properties": {"type": "node", "id": 26592946, "tags": {"importance": "national", "name": "N\u00e4ssj\u00f6", "name:ru": "\u041d\u0435\u0441\u0448\u0451", "name:sv": "N\u00e4ssj\u00f6", "place": "town", "population": "16678", "ref:se:pts:postort": "N\u00c4SSJ\u00d6", "ref:se:scb": "1608", "wikidata": "Q654299", "wikipedia": "sv:N\u00e4ssj\u00f6"}}, "geometry": {"type": "Point", "coordinates": [14.6981554, 57.6530377]}}, {"type": "Feature", "properties": {"type": "node", "id": 26592947, "tags": {"name": "Eksj\u00f6", "name:ru": "\u042d\u043a\u0448\u0451", "name:sv": "Eksj\u00f6", "place": "town", "population": "9701", "ref:se:pts:postort": "EKSJ\u00d6", "ref:se:scb": "1460"}}, "geometry": {"type": "Point", "coordinates": [14.9735595, 57.6674439]}}, {"type": "Feature", "properties": {"type": "node", "id": 111970448, "tags": {"name": "Aneby", "name:ru": "\u0410\u043d\u0435\u0431\u044e", "name:sv": "Aneby", "place": "town", "population": "3367", "ref:se:pts:postort": "ANEBY", "ref:se:scb": "1404"}}, "geometry": {"type": "Point", "coordinates": [14.8100784, 57.838069]}}, {"type": "Feature", "properties": {"type": "node", "id": 270662109, "tags": {"name": "Gr\u00e4nna", "name:ru": "\u0413\u0440\u0435\u043d\u043d\u0430", "name:sv": "Gr\u00e4nna", "place": "town", "population": "2578", "ref:se:pts:postort": "GR\u00c4NNA", "ref:se:scb": "1500", "wikidata": "Q194353"}}, "geometry": {"type": "Point", "coordinates": [14.4673146, 58.0250583]}}, {"type": "Feature", "properties": {"type": "node", "id": 29195071, "tags": {"name": "Hjo", "name:ru": "\u042e", "name:sv": "Hjo", "place": "town", "population": "6094", "ref:se:pts:postort": "HJO", "ref:se:scb": "5296", "wikipedia": "sv:Hjo"}}, "geometry": {"type": "Point", "coordinates": [14.2879244, 58.3012958]}}, {"type": "Feature", "properties": {"type": "node", "id": 112301443, "tags": {"name": "\u00d6desh\u00f6g", "name:ru": "\u042d\u0434\u0435\u0441\u0445\u0451\u0433", "name:sv": "\u00d6desh\u00f6g", "place": "town", "population": "2572", "ref:se:pts:postort": "\u00d6DESH\u00d6G", "ref:se:scb": "1332"}}, "geometry": {"type": "Point", "coordinates": [14.6554063, 58.2315432]}}, {"type": "Feature", "properties": {"type": "node", "id": 111958987, "tags": {"name": "Tran\u00e5s", "name:ru": "\u0422\u0440\u0430\u043d\u043e\u0441", "name:sv": "Tran\u00e5s", "place": "town", "ref:se:pts:postort": "TRAN\u00c5S", "ref:se:scb": "1700"}}, "geometry": {"type": "Point", "coordinates": [14.9776937, 58.0379566]}}, {"type": "Feature", "properties": {"type": "node", "id": 192285494, "tags": {"name": "Boxholm", "name:ru": "\u0411\u043e\u043a\u0441\u0445\u043e\u043b\u044c\u043c", "name:sv": "Boxholm", "place": "town", "population": "3194", "ref:se:pts:postort": "BOXHOLM", "ref:se:scb": "1040"}}, "geometry": {"type": "Point", "coordinates": [15.0571207, 58.1981005]}}, {"type": "Feature", "properties": {"type": "node", "id": 2973476133, "tags": {"name": "Lessebo", "name:ru": "\u041b\u0435\u0441\u0441\u0435\u0431\u0443", "name:sv": "Lessebo", "place": "town", "population": "2737", "wikidata": "Q1820923", "wikipedia": "sv:Lessebo"}}, "geometry": {"type": "Point", "coordinates": [15.2714213, 56.7504634]}}, {"type": "Feature", "properties": {"type": "node", "id": 27405018, "tags": {"name": "Nybro", "name:lt": "Nibru", "name:ru": "\u041d\u044e\u0431\u0440\u0443", "name:sv": "Nybro", "place": "town", "population": "12810", "ref:se:pts:postort": "NYBRO", "ref:se:scb": "2352", "wikidata": "Q930238", "wikipedia": "sv:Nybro"}}, "geometry": {"type": "Point", "coordinates": [15.9061542, 56.7452259]}}, {"type": "Feature", "properties": {"type": "node", "id": 97918380, "tags": {"name": "\u00c5seda", "name:ru": "\u041e\u0441\u0435\u0434\u0430", "name:sv": "\u00c5seda", "place": "town", "population": "2430", "ref:se:pts:postort": "\u00c5SEDA", "ref:se:scb": "2036", "wikidata": "Q271255", "wikipedia": "sv:\u00c5seda"}}, "geometry": {"type": "Point", "coordinates": [15.3525029, 57.1691268]}}, {"type": "Feature", "properties": {"type": "node", "id": 1607319731, "tags": {"capital": "county", "name": "Kalmar", "name:la": "Calmaria", "name:lt": "Kalmaras", "name:ru": "\u041a\u0430\u043b\u044c\u043c\u0430\u0440", "name:sv": "Kalmar", "old_name": "Calmar", "place": "city", "population": "35170", "ref:se:pts:postort": "KALMAR", "ref:se:scb": "2280", "start_date:old_name": "before 1532", "wikidata": "Q26345", "wikipedia": "sv:Kalmar"}}, "geometry": {"type": "Point", "coordinates": [16.3662382, 56.6628826]}}, {"type": "Feature", "properties": {"type": "node", "id": 155509450, "tags": {"name": "M\u00f6nster\u00e5s", "name:ru": "\u041c\u0451\u043d\u0441\u0442\u0435\u0440\u043e\u0441", "name:sv": "M\u00f6nster\u00e5s", "place": "town", "population": "4731", "ref:se:pts:postort": "M\u00d6NSTER\u00c5S", "ref:se:scb": "2340", "wikidata": "Q599114", "wikipedia": "sv:M\u00f6nster\u00e5s"}}, "geometry": {"type": "Point", "coordinates": [16.4448013, 57.0429558]}}, {"type": "Feature", "properties": {"type": "node", "id": 32958197, "tags": {"name": "Borgholm", "name:lt": "Borgholmas", "name:ru": "\u0411\u043e\u0440\u0433\u0445\u043e\u043b\u044c\u043c", "name:sv": "Borgholm", "place": "town", "population": "4344", "ref:se:pts:postort": "BORGHOLM", "ref:se:scb": "2132", "wikipedia": "sv:Borgholm"}}, "geometry": {"type": "Point", "coordinates": [16.6561377, 56.8799276]}}, {"type": "Feature", "properties": {"type": "node", "id": 155514110, "tags": {"name": "H\u00f6gsby", "name:ru": "\u0425\u0451\u0433\u0441\u0431\u044e", "name:sv": "H\u00f6gsby", "place": "town", "population": "1881", "ref:se:pts:postort": "H\u00d6GSBY", "ref:se:scb": "2264"}}, "geometry": {"type": "Point", "coordinates": [16.0261862, 57.1652915]}}, {"type": "Feature", "properties": {"type": "node", "id": 28362755, "tags": {"name": "Oskarshamn", "name:lt": "Oskar\u0161hamnas", "name:ru": "\u041e\u0441\u043a\u0430\u0440\u0441\u0445\u0430\u043c\u043d", "name:sv": "Oskarshamn", "place": "town", "population": "17258", "ref:se:pts:postort": "OSKARSHAMN", "ref:se:scb": "2360", "wikidata": "Q654268", "wikipedia": "sv:Oskarshamn"}}, "geometry": {"type": "Point", "coordinates": [16.4443478, 57.2632811]}}, {"type": "Feature", "properties": {"type": "node", "id": 192288583, "tags": {"name": "\u00d6sterbymo", "name:ru": "\u042d\u0441\u0442\u0435\u0440\u0431\u044e\u043c\u0443", "name:sv": "\u00d6sterbymo", "place": "town", "population": "834", "ref:se:scb": "1336", "wikidata": "Q298357"}}, "geometry": {"type": "Point", "coordinates": [15.2753967, 57.8247951]}}, {"type": "Feature", "properties": {"type": "node", "id": 112107902, "tags": {"name": "Hultsfred", "name:ru": "\u0425\u0443\u043b\u044c\u0442\u0441\u0444\u0440\u0435\u0434", "name:sv": "Hultsfred", "place": "town", "population": "5143", "ref:se:pts:postort": "HULTSFRED", "ref:se:scb": "2260"}}, "geometry": {"type": "Point", "coordinates": [15.8428142, 57.4898352]}}, {"type": "Feature", "properties": {"type": "node", "id": 26589965, "tags": {"name": "Vimmerby", "name:ru": "\u0412\u0438\u043c\u043c\u0435\u0440\u0431\u044e", "name:sv": "Vimmerby", "place": "town", "population": "8934", "ref:se:pts:postort": "VIMMERBY", "ref:se:scb": "2460"}}, "geometry": {"type": "Point", "coordinates": [15.8563269, 57.6653495]}}, {"type": "Feature", "properties": {"type": "node", "id": 155505157, "tags": {"name": "Kisa", "name:ru": "\u0427\u0438\u0441\u0430", "name:sv": "Kisa", "place": "town", "population": "3687", "ref:se:pts:postort": "KISA", "ref:se:scb": "1132"}}, "geometry": {"type": "Point", "coordinates": [15.622841, 57.9875021]}}, {"type": "Feature", "properties": {"type": "node", "id": 26594373, "tags": {"name": "V\u00e4stervik", "name:lt": "Vestervikas", "name:ru": "\u0412\u0435\u0441\u0442\u0435\u0440\u0432\u0438\u043a", "name:sv": "V\u00e4stervik", "place": "town", "population": "21178", "ref:se:pts:postort": "V\u00c4STERVIK", "ref:se:scb": "2472", "wikidata": "Q54764", "wikipedia": "sv:V\u00e4stervik"}}, "geometry": {"type": "Point", "coordinates": [16.6385035, 57.7594186]}}, {"type": "Feature", "properties": {"type": "node", "id": 90405833, "tags": {"name": "\u00c5tvidaberg", "name:ru": "\u041e\u0442\u0432\u0438\u0434\u0430\u0431\u0435\u0440\u0433", "name:sv": "\u00c5tvidaberg", "place": "town", "population": "7014", "ref:se:pts:postort": "\u00c5TVIDABERG", "ref:se:scb": "1328"}}, "geometry": {"type": "Point", "coordinates": [16.0018979, 58.2009877]}}, {"type": "Feature", "properties": {"type": "node", "id": 20975577, "tags": {"name": "Valdemarsvik", "name:ru": "\u0412\u0430\u043b\u044c\u0434\u0435\u043c\u0430\u0440\u0441\u0432\u0438\u043a", "name:sv": "Valdemarsvik", "place": "town", "population": "2685", "ref:se:pts:postort": "VALDEMARSVIK", "ref:se:scb": "1304", "wikipedia": "sv:Valdemarsvik"}}, "geometry": {"type": "Point", "coordinates": [16.6032191, 58.2025901]}}, {"type": "Feature", "properties": {"type": "node", "id": 26458262, "tags": {"name": "Skara", "name:ru": "\u0421\u043a\u0430\u0440\u0430", "name:sv": "Skara", "place": "town", "population": "11437", "ref:se:pts:postort": "SKARA", "ref:se:scb": "5420", "wikipedia": "sv:Skara"}}, "geometry": {"type": "Point", "coordinates": [13.4397675, 58.3846075]}}, {"type": "Feature", "properties": {"type": "node", "id": 28830613, "tags": {"name": "G\u00f6tene", "name:ru": "\u0419\u0451\u0442\u0435\u043d\u0435", "name:sv": "G\u00f6tene", "place": "town", "population": "5027", "ref:se:pts:postort": "G\u00d6TENE", "ref:se:scb": "5280", "wikipedia": "sv:G\u00f6tene"}}, "geometry": {"type": "Point", "coordinates": [13.4921229, 58.5280626]}}, {"type": "Feature", "properties": {"type": "node", "id": 27430678, "tags": {"name": "Mariestad", "name:ru": "\u041c\u0430\u0440\u0438\u0435\u0441\u0442\u0430\u0434", "name:sv": "Mariestad", "place": "town", "population": "16249", "ref:se:pts:postort": "MARIESTAD", "ref:se:scb": "5372", "wikidata": "Q948117", "wikipedia": "sv:Mariestad"}}, "geometry": {"type": "Point", "coordinates": [13.8228754, 58.7093225]}}, {"type": "Feature", "properties": {"type": "node", "id": 25508588, "tags": {"name": "Sk\u00f6vde", "name:hu": "Sk\u00f6vde", "name:lt": "\u0160iovd\u0117", "name:ru": "\u0428\u0451\u0432\u0434\u0435", "name:sv": "Sk\u00f6vde", "place": "town", "population": "34466", "ref:se:pts:postort": "SK\u00d6VDE", "ref:se:scb": "5428", "wikidata": "Q21166", "wikipedia": "sv:Sk\u00f6vde"}}, "geometry": {"type": "Point", "coordinates": [13.8443792, 58.3898453]}}, {"type": "Feature", "properties": {"type": "node", "id": 30501590, "tags": {"name": "Tibro", "name:ru": "\u0422\u0438\u0431\u0440\u0443", "name:sv": "Tibro", "place": "town", "population": "8018", "ref:se:pts:postort": "TIBRO", "ref:se:scb": "5456", "wikidata": "Q1017565", "wikipedia": "sv:Tibro"}}, "geometry": {"type": "Point", "coordinates": [14.1631194, 58.4248905]}}, {"type": "Feature", "properties": {"type": "node", "id": 28197924, "tags": {"name": "T\u00f6reboda", "name:ru": "\u0422\u0451\u0440\u0435\u0431\u0443\u0434\u0430", "name:sv": "T\u00f6reboda", "place": "town", "population": "4626", "postal_code": "545 30", "ref:se:pts:postort": "T\u00d6REBODA", "ref:se:scb": "5484", "wikipedia": "sv:T\u00f6reboda"}}, "geometry": {"type": "Point", "coordinates": [14.1239738, 58.7081061]}}, {"type": "Feature", "properties": {"type": "node", "id": 32940796, "tags": {"name": "Hova", "name:ru": "\u0425\u043e\u0432\u0430", "name:sv": "Hova", "place": "town", "population": "1254", "ref:se:pts:postort": "HOVA", "ref:se:scb": "5300", "wikipedia": "sv:Hova"}}, "geometry": {"type": "Point", "coordinates": [14.2175182, 58.8578203]}}, {"type": "Feature", "properties": {"type": "node", "id": 29196032, "tags": {"name": "Karlsborg", "name:ru": "\u041a\u0430\u0440\u043b\u0441\u0431\u043e\u0440\u0433", "name:sv": "Karlsborg", "place": "town", "population": "3551", "ref:se:pts:postort": "KARLSBORG", "ref:se:scb": "5324"}}, "geometry": {"type": "Point", "coordinates": [14.5054884, 58.5359075]}}, {"type": "Feature", "properties": {"type": "node", "id": 2510281751, "tags": {"name": "Sk\u00e4nninge", "name:ru": "\u0428\u0435\u043d\u043d\u0438\u043d\u0433\u0435", "place": "town", "population": "3140"}}, "geometry": {"type": "Point", "coordinates": [15.0867705, 58.3955804]}}, {"type": "Feature", "properties": {"type": "node", "id": 2711172476, "tags": {"name": "Vadstena", "name:ru": "\u0412\u0430\u0434\u0441\u0442\u0435\u043d\u0430", "name:sv": "Vadstena", "place": "town", "population": "5613", "ref:se:pts:postort": "VADSTENA", "ref:se:scb": "1300"}}, "geometry": {"type": "Point", "coordinates": [14.8915928, 58.4488105]}}, {"type": "Feature", "properties": {"type": "node", "id": 410426765, "tags": {"name": "Motala", "name:he": "\u05de\u05d5\u05d8\u05dc\u05d4", "name:ru": "\u041c\u0443\u0442\u0430\u043b\u0430", "name:sv": "Motala", "place": "town", "population": "29823", "ref:se:pts:postort": "MOTALA", "ref:se:scb": "1188", "wikidata": "Q54357", "wikipedia": "sv:Motala"}}, "geometry": {"type": "Point", "coordinates": [15.041261, 58.5420395]}}, {"type": "Feature", "properties": {"type": "node", "id": 6654679163, "tags": {"name": "Lax\u00e5", "name:ru": "\u041b\u0430\u043a\u0441\u043e", "place": "town", "population": "3119", "population:date": "2018-12-31", "ref:se:pts:postort": "LAX\u00c5", "ref:se:scb": "6036", "wikidata": "Q1076290", "wikipedia": "sv:Lax\u00e5"}}, "geometry": {"type": "Point", "coordinates": [14.618827, 58.9853347]}}, {"type": "Feature", "properties": {"type": "node", "id": 25904434, "tags": {"name": "Askersund", "name:ru": "\u0410\u0441\u043a\u0435\u0440\u0441\u0443\u043d\u0434", "name:sv": "Askersund", "place": "town", "population": "4172", "population:date": "2018-12-31", "ref:se:pts:postort": "ASKERSUND", "ref:se:scb": "5904", "wikidata": "Q731441", "wikipedia": "sv:Askersund"}}, "geometry": {"type": "Point", "coordinates": [14.9028069, 58.8799641]}}, {"type": "Feature", "properties": {"type": "node", "id": 60141422, "tags": {"name": "Skoghall", "name:lt": "Skoghalis", "name:ru": "\u0421\u043a\u0443\u0433\u0445\u0430\u043b\u043b\u044c", "name:sv": "Skoghall", "place": "town", "population": "14447", "population:date": "2018-03-28", "population:source": "SCB", "ref:se:pts:postort": "SKOGHALL", "ref:se:scb": "5804", "wikidata": "Q576644", "wikipedia": "sv:Skoghall"}}, "geometry": {"type": "Point", "coordinates": [13.4705229, 59.3241856]}}, {"type": "Feature", "properties": {"type": "node", "id": 25975135, "tags": {"capital": "4", "name": "Karlstad", "name:he": "\u05e7\u05e8\u05dc\u05e1\u05d8\u05d3", "name:hu": "Karlstad", "name:la": "Carolostadium Suevicum", "name:lt": "Karlstadas", "name:lv": "K\u0101rlst\u0101de", "name:ru": "\u041a\u0430\u0440\u043b\u0441\u0442\u0430\u0434", "name:sv": "Karlstad", "name:uk": "\u041a\u0430\u0440\u043b\u0441\u0442\u0430\u0434", "place": "city", "population": "62797", "population:date": "2018-03-28", "population:source": "SCB", "ref:se:pts:postort": "KARLSTAD", "ref:se:scb": "5704", "wikidata": "Q25457", "wikipedia": "sv:Karlstad"}}, "geometry": {"type": "Point", "coordinates": [13.5027631, 59.3809146]}}, {"type": "Feature", "properties": {"type": "node", "id": 29537571, "tags": {"name": "Forshaga", "name:ru": "\u0424\u043e\u0440\u0441\u0445\u0430\u0433\u0430", "name:sv": "Forshaga", "place": "town", "population": "6457", "population:date": "2018-03-28", "population:source": "SCB", "ref:se:pts:postort": "FORSHAGA", "ref:se:scb": "5664", "wikidata": "Q1303800", "wikipedia": "sv:Forshaga"}}, "geometry": {"type": "Point", "coordinates": [13.4826031, 59.5290618]}}, {"type": "Feature", "properties": {"type": "node", "id": 367325870, "tags": {"name": "Skattk\u00e4rr", "place": "town", "population": "1982", "population:date": "2018-03-28", "population:source": "SCB", "ref:se:pts:postort": "SKATTK\u00c4RR", "ref:se:scb": "5800"}}, "geometry": {"type": "Point", "coordinates": [13.674373, 59.4133819]}}, {"type": "Feature", "properties": {"type": "node", "id": 25869331, "tags": {"name": "Kristinehamn", "name:ru": "\u041a\u0440\u0438\u0441\u0442\u0438\u043d\u0435\u0445\u0430\u043c\u043d", "name:sv": "Kristinehamn", "place": "town", "population": "18829", "population:date": "2018-03-28", "population:source": "SCB", "ref:se:pts:postort": "KRISTINEHAMN", "ref:se:scb": "5720", "wikidata": "Q215832", "wikipedia": "sv:Kristinehamn"}}, "geometry": {"type": "Point", "coordinates": [14.11176, 59.3113619]}}, {"type": "Feature", "properties": {"type": "node", "id": 29532120, "tags": {"name": "Deje", "place": "town", "population": "2715", "population:date": "2018-03-28", "population:source": "SCB", "ref:se:pts:postort": "DEJE", "ref:se:scb": "5632"}}, "geometry": {"type": "Point", "coordinates": [13.4636486, 59.6059394]}}, {"type": "Feature", "properties": {"type": "node", "id": 26983541, "tags": {"name": "Munkfors", "name:ru": "\u041c\u0443\u043d\u043a\u0444\u043e\u0440\u0441", "name:sv": "Munkfors", "place": "town", "population": "2943", "population:date": "2018-03-28", "population:source": "SCB", "ref:se:pts:postort": "MUNKFORS", "ref:se:scb": "5760"}}, "geometry": {"type": "Point", "coordinates": [13.5481044, 59.83417]}}, {"type": "Feature", "properties": {"type": "node", "id": 448697022, "tags": {"name": "Filipstad", "name:ru": "\u0424\u0438\u043b\u0438\u043f\u0441\u0442\u0430\u0434", "name:sv": "Filipstad", "name:uk": "\u0424\u0456\u043b\u0456\u043f\u0441\u0442\u0430\u0434", "place": "town", "population": "6334", "population:date": "2018-03-28", "population:source": "SCB", "ref:se:pts:postort": "FILIPSTAD", "ref:se:scb": "5660", "wikidata": "Q847769", "wikipedia": "sv:Filipstad"}}, "geometry": {"type": "Point", "coordinates": [14.1680314, 59.7135483]}}, {"type": "Feature", "properties": {"type": "node", "id": 25597315, "tags": {"is_in": "Degerfors kommun", "name": "Degerfors", "name:ru": "\u0414\u0435\u0433\u0435\u0440\u0444\u043e\u0440\u0441", "name:sv": "Degerfors", "place": "town", "population": "7418", "ref:se:pts:postort": "DEGERFORS", "ref:se:scb": "5916"}}, "geometry": {"type": "Point", "coordinates": [14.4297309, 59.2361209]}}, {"type": "Feature", "properties": {"type": "node", "id": 25597313, "tags": {"is_in": "Karlskoga kommun, \u00d6rebro l\u00e4n, V\u00e4rmland, Sweden, Scandinavia, Europe", "name": "Karlskoga", "name:ru": "\u041a\u0430\u0440\u043b\u0441\u043a\u0443\u0433\u0430", "name:sv": "Karlskoga", "place": "town", "population": "27562", "population:date": "2018-12-31", "ref:se:pts:postort": "KARLSKOGA", "ref:se:scb": "6008", "wikidata": "Q54732", "wikipedia": "sv:Karlskoga"}}, "geometry": {"type": "Point", "coordinates": [14.5176911, 59.3291667]}}, {"type": "Feature", "properties": {"type": "node", "id": 26980859, "tags": {"name": "Storfors", "name:ru": "\u0421\u0442\u0443\u0440\u0444\u043e\u0440\u0441", "name:sv": "Storfors", "place": "town", "population": "2260", "population:date": "2018-03-28", "population:source": "SCB", "ref:se:pts:postort": "STORFORS", "ref:se:scb": "5812"}}, "geometry": {"type": "Point", "coordinates": [14.2726055, 59.5316393]}}, {"type": "Feature", "properties": {"type": "node", "id": 25597317, "tags": {"is_in": "Lekebergs kommun, N\u00e4rke, \u00d6rebro l\u00e4n, Sweden", "name": "Fjugesta", "name:ru": "\u0424\u044c\u044e\u0433\u0435\u0441\u0442\u0430", "name:sv": "Fjugesta", "place": "town", "population": "2033", "ref:se:pts:postort": "FJUGESTA", "ref:se:scb": "5936", "wikidata": "Q1422463", "wikipedia": "sv:Fjugesta"}}, "geometry": {"type": "Point", "coordinates": [14.8709494, 59.1734088]}}, {"type": "Feature", "properties": {"type": "node", "id": 25869333, "tags": {"is_in": "Nora kommun, V\u00e4stmanland, \u00d6rebro l\u00e4n, Sweden", "name": "Nora", "name:ru": "\u041d\u0443\u0440\u0430", "name:sv": "Nora", "place": "town", "population": "6526", "ref:se:pts:postort": "NORA", "ref:se:scb": "6060"}}, "geometry": {"type": "Point", "coordinates": [15.0387972, 59.5187493]}}, {"type": "Feature", "properties": {"type": "node", "id": 26502341, "tags": {"name": "H\u00e4llefors", "name:ru": "\u0425\u0435\u043b\u043b\u0435\u0444\u043e\u0440\u0441", "name:sv": "H\u00e4llefors", "place": "town", "population": "4530", "ref:se:pts:postort": "H\u00c4LLEFORS", "ref:se:scb": "5996", "wikidata": "Q305380", "wikipedia": "sv:H\u00e4llefors"}}, "geometry": {"type": "Point", "coordinates": [14.5221142, 59.7837945]}}, {"type": "Feature", "properties": {"type": "node", "id": 26502340, "tags": {"is_in": "Ljusnarsbergs kommun, V\u00e4stmanland, \u00d6rebro l\u00e4n, Sweden", "name": "Kopparberg", "name:ru": "\u041a\u043e\u043f\u043f\u0430\u0440\u0431\u0435\u0440\u0433", "name:sv": "Kopparberg", "place": "town", "population": "3012", "ref:se:pts:postort": "KOPPARBERG", "ref:se:scb": "6016", "wikipedia": "sv:Kopparberg"}}, "geometry": {"type": "Point", "coordinates": [14.9903848, 59.8745061]}}, {"type": "Feature", "properties": {"type": "node", "id": 29684311, "tags": {"name": "Mj\u00f6lby", "name:ru": "\u041c\u044c\u0451\u043b\u044c\u0431\u044e", "name:sv": "Mj\u00f6lby", "place": "town", "population": "12245", "ref:se:pts:postort": "MJ\u00d6LBY", "ref:se:scb": "1180"}}, "geometry": {"type": "Point", "coordinates": [15.131448, 58.3254361]}}, {"type": "Feature", "properties": {"type": "node", "id": 20975578, "tags": {"capital": "county", "name": "Link\u00f6ping", "name:ar": "\u0644\u064a\u0646\u0634\u0648\u0628\u064a\u0646\u063a", "name:be": "\u041b\u0456\u043d\u0447\u044d\u043f\u0456\u043d\u0433", "name:bg": "\u041b\u0438\u043d\u0448\u044c\u043e\u043f\u0438\u043d\u0433", "name:el": "\u039b\u03b9\u03bd\u03ba\u03cc\u03c0\u03b9\u03bd\u03b3\u03ba", "name:fa": "\u0644\u06cc\u0646\u0634\u0648\u067e\u06cc\u0646\u06af", "name:hy": "\u053c\u056b\u0576\u0579\u0578\u057a\u056b\u0576\u0563", "name:ja": "\u30ea\u30f3\u30b7\u30a7\u30fc\u30d4\u30f3\u30b0", "name:ka": "\u10da\u10d8\u10dc\u10e9\u10d4\u10de\u10d8\u10dc\u10d2\u10d8", "name:ko": "\ub9b0\uc170\ud551", "name:la": "Lincopia", "name:lt": "Lin\u0161iopingas", "name:lv": "Lin\u0161\u0113pinga", "name:mk": "\u041b\u0438\u043d\u0448\u0435\u043f\u0438\u043d\u0433", "name:ru": "\u041b\u0438\u043d\u0447\u0451\u043f\u0438\u043d\u0433", "name:sr": "\u041b\u0438\u043d\u045b\u0435\u043f\u0438\u043d\u0433", "name:sv": "Link\u00f6ping", "name:th": "\u0e25\u0e34\u0e19\u0e40\u0e0a\u0e2d\u0e1b\u0e34\u0e07", "name:uk": "\u041b\u0456\u043d\u0447\u0435\u043f\u0456\u043d\u0433", "name:zh": "\u6797\u96ea\u5e73", "place": "city", "population": "111267", "ref:se:pts:postort": "LINK\u00d6PING", "ref:se:scb": "1152", "website": "https://www.linkoping.se/", "wikidata": "Q25413", "wikipedia": "sv:Link\u00f6ping"}}, "geometry": {"type": "Point", "coordinates": [15.6245252, 58.4098135]}}, {"type": "Feature", "properties": {"type": "node", "id": 192284376, "tags": {"name": "Finsp\u00e5ng", "name:ru": "\u0424\u0438\u043d\u0441\u043f\u043e\u043d\u0433", "name:sv": "Finsp\u00e5ng", "place": "town", "population": "12807", "ref:se:pts:postort": "FINSP\u00c5NG", "ref:se:scb": "1056", "wikipedia": "sv:Finsp\u00e5ng"}}, "geometry": {"type": "Point", "coordinates": [15.7758645, 58.70773]}}, {"type": "Feature", "properties": {"type": "node", "id": 27531092, "tags": {"name": "Hallsberg", "name:ru": "\u0425\u0430\u043b\u043b\u044c\u0441\u0431\u0435\u0440\u0433", "name:sv": "Hallsberg", "place": "town", "population": "7122", "ref:se:pts:postort": "HALLSBERG", "ref:se:scb": "5964"}}, "geometry": {"type": "Point", "coordinates": [15.1089181, 59.0660302]}}, {"type": "Feature", "properties": {"type": "node", "id": 26794098, "tags": {"name": "Kumla", "name:lt": "Kumla", "name:ru": "\u041a\u0443\u043c\u043b\u0430", "name:sv": "Kumla", "place": "town", "population": "14062", "ref:se:pts:postort": "KUMLA", "ref:se:scb": "6020"}}, "geometry": {"type": "Point", "coordinates": [15.1443464, 59.130171]}}, {"type": "Feature", "properties": {"type": "node", "id": 28795943, "tags": {"name": "Ving\u00e5ker", "name:ru": "\u0412\u0438\u043d\u0442\u043e\u043a\u0435\u0440", "name:sv": "Ving\u00e5ker", "place": "town", "population": "4548", "ref:se:pts:postort": "VING\u00c5KER", "ref:se:scb": "0904", "wikipedia": "sv:Ving\u00e5ker"}}, "geometry": {"type": "Point", "coordinates": [15.8715565, 59.0433723]}}, {"type": "Feature", "properties": {"type": "node", "id": 20975576, "tags": {"name": "S\u00f6derk\u00f6ping", "name:ru": "\u0421\u0451\u0434\u0435\u0440\u0447\u0451\u043f\u0438\u043d\u0433", "name:sv": "S\u00f6derk\u00f6ping", "place": "town", "population": "7418", "ref:se:pts:postort": "S\u00d6DERK\u00d6PING", "ref:se:scb": "1284", "wikipedia": "sv:S\u00f6derk\u00f6ping"}}, "geometry": {"type": "Point", "coordinates": [16.3216224, 58.4823802]}}, {"type": "Feature", "properties": {"type": "node", "id": 27431648, "tags": {"name": "Norrk\u00f6ping", "name:he": "\u05e0\u05d5\u05e8\u05e9\u05e4\u05d9\u05e0\u05d2", "name:hu": "Norrk\u00f6ping", "name:la": "Norcopia", "name:ru": "\u041d\u043e\u0440\u0440\u0447\u0451\u043f\u0438\u043d\u0433", "name:sv": "Norrk\u00f6ping", "name:yi": "\u05e0\u05d0\u05e8\u05e9\u05e2\u05e4\u05d9\u05e0\u05d2", "name:zh": "\u8bfa\u5c14\u96ea\u5e73", "place": "town", "population": "87247", "ref:se:pts:postort": "NORRK\u00d6PING", "ref:se:scb": "1192", "wikidata": "Q25724", "wikipedia": "sv:Norrk\u00f6ping"}}, "geometry": {"type": "Point", "coordinates": [16.1903511, 58.5909124]}}, {"type": "Feature", "properties": {"type": "node", "id": 27532837, "tags": {"name": "Katrineholm", "name:lt": "Katrineholmas", "name:ru": "\u041a\u0430\u0442\u0440\u0438\u043d\u0435\u0445\u043e\u043b\u044c\u043c", "name:sv": "Katrineholm", "place": "town", "population": "20000", "ref:se:pts:postort": "KATRINEHOLM", "ref:se:scb": "0784", "wikidata": "Q54758"}}, "geometry": {"type": "Point", "coordinates": [16.2067589, 58.9960335]}}, {"type": "Feature", "properties": {"type": "node", "id": 27534589, "tags": {"name": "Flen", "name:ru": "\u0424\u043b\u0435\u043d", "name:sv": "Flen", "place": "town", "population": "6594", "ref:se:pts:postort": "FLEN", "ref:se:scb": "0744", "wikipedia": "sv:Flen"}}, "geometry": {"type": "Point", "coordinates": [16.5893, 59.0567823]}}, {"type": "Feature", "properties": {"type": "node", "id": 27593232, "tags": {"capital": "4", "name": "\u00d6rebro", "name:he": "\u05d0\u05e8\u05d1\u05e8\u05d5", "name:lt": "Erebru", "name:ru": "\u042d\u0440\u0435\u0431\u0440\u0443", "name:sv": "\u00d6rebro", "name:yi": "\u05e2\u05e8\u05e2\u05d1\u05e8\u05d5", "old_name": "\u00d8rabro", "place": "city", "population": "98237", "ref:se:pts:postort": "\u00d6REBRO", "ref:se:scb": "6188", "wikidata": "Q25732", "wikipedia": "sv:\u00d6rebro"}}, "geometry": {"type": "Point", "coordinates": [15.2151181, 59.2747287]}}, {"type": "Feature", "properties": {"type": "node", "id": 49871511, "tags": {"name": "Arboga", "name:ru": "\u0410\u0440\u0431\u0443\u0433\u0430", "name:sv": "Arboga", "place": "town", "population": "10330", "ref:se:pts:postort": "ARBOGA", "ref:se:scb": "6200", "wikidata": "Q669660", "wikipedia": "sv:Arboga"}}, "geometry": {"type": "Point", "coordinates": [15.8396643, 59.394187]}}, {"type": "Feature", "properties": {"type": "node", "id": 26502339, "tags": {"is_in": "Lindesbergs Kommun, V\u00e4stmanland, \u00d6rebro l\u00e4n, Sweden", "name": "Lindesberg", "name:ru": "\u041b\u0438\u043d\u0434\u0435\u0441\u0431\u0435\u0440\u0433", "name:sv": "Lindesberg", "place": "town", "population": "9571", "ref:se:pts:postort": "LINDESBERG", "ref:se:scb": "6040", "wikipedia": "sv:Lindesberg"}}, "geometry": {"type": "Point", "coordinates": [15.2264966, 59.5930569]}}, {"type": "Feature", "properties": {"type": "node", "id": 29918089, "tags": {"is_in": "Skinnskattebergs kommun, V\u00e4stmanland, V\u00e4stmanlands l\u00e4n, Sweden", "name": "Skinnskatteberg", "name:ru": "\u0421\u043a\u0438\u043d\u043d\u0441\u043a\u0430\u0442\u0442\u0435\u0431\u0435\u0440\u0433", "name:sv": "Skinnskatteberg", "place": "town", "population": "2287", "ref:se:pts:postort": "SKINNSKATTEBERG", "ref:se:scb": "6320", "short_name": "Skinnsberg"}}, "geometry": {"type": "Point", "coordinates": [15.6877802, 59.8297956]}}, {"type": "Feature", "properties": {"type": "node", "id": 61126916, "tags": {"name": "Kungs\u00f6r", "name:ru": "\u041a\u0443\u043d\u0433\u0441\u0451\u0440", "name:sv": "Kungs\u00f6r", "place": "town", "population": "5452", "ref:se:pts:postort": "KUNGS\u00d6R", "ref:se:scb": "6256", "wikidata": "Q41992"}}, "geometry": {"type": "Point", "coordinates": [16.0950394, 59.4248622]}}, {"type": "Feature", "properties": {"type": "node", "id": 71565648, "tags": {"is_in": "K\u00f6pings kommun, V\u00e4stmanland, V\u00e4stmanlands l\u00e4n, Sweden", "name": "K\u00f6ping", "name:ru": "\u0427\u0451\u043f\u0438\u043d\u0433", "name:sv": "K\u00f6ping", "place": "town", "population": "17743", "ref:se:pts:postort": "K\u00d6PING", "ref:se:scb": "6268", "wikidata": "Q174126"}}, "geometry": {"type": "Point", "coordinates": [15.9970475, 59.5137434]}}, {"type": "Feature", "properties": {"type": "node", "id": 28898845, "tags": {"capital": "municipality", "name": "Eskilstuna", "name:lt": "Eskilstiuna", "name:ru": "\u042d\u0441\u043a\u0438\u043b\u044c\u0441\u0442\u0443\u043d\u0430", "name:sv": "Eskilstuna", "place": "city", "population": "60185", "ref:se:pts:postort": "ESKILSTUNA", "ref:se:scb": "0740", "wikidata": "Q26498", "wikipedia": "en:Eskilstuna"}}, "geometry": {"type": "Point", "coordinates": [16.5051474, 59.3717379]}}, {"type": "Feature", "properties": {"type": "node", "id": 192273562, "tags": {"name": "Hallstahammar", "name:ru": "\u0425\u0430\u043b\u044c\u0441\u0442\u0430\u0445\u0430\u043c\u043c\u0430\u0440", "name:sv": "Hallstahammar", "place": "town", "population": "10478", "ref:se:pts:postort": "HALLSTAHAMMAR", "ref:se:scb": "6224", "wikidata": "Q1019560", "wikipedia": "sv:Hallstahammar"}}, "geometry": {"type": "Point", "coordinates": [16.2301613, 59.6134488]}}, {"type": "Feature", "properties": {"type": "node", "id": 33362011, "tags": {"name": "Surahammar", "name:ru": "\u0421\u0443\u0440\u0430\u0445\u0430\u043c\u043c\u0430\u0440", "name:sv": "Surahammar", "place": "town", "population": "6270", "ref:se:pts:postort": "SURAHAMMAR", "ref:se:scb": "6332", "wikipedia": "sv:Surahammar"}}, "geometry": {"type": "Point", "coordinates": [16.2219947, 59.707058]}}, {"type": "Feature", "properties": {"type": "node", "id": 27513227, "tags": {"capital": "county", "name": "V\u00e4ster\u00e5s", "name:he": "\u05d5\u05e1\u05d8\u05e8\u05d5\u05e1", "name:lt": "Vesterosas", "name:ru": "\u0412\u0435\u0441\u0442\u0435\u0440\u043e\u0441", "name:sv": "V\u00e4ster\u00e5s", "name:yi": "\u05d5\u05d5\u05e2\u05e1\u05d8\u05e2\u05e8\u05d0\u05e1", "place": "city", "population": "110877", "ref:se:pts:postort": "V\u00c4STER\u00c5S", "ref:se:scb": "6376", "wikidata": "Q25412", "wikipedia": "sv:V\u00e4ster\u00e5s"}}, "geometry": {"type": "Point", "coordinates": [16.5463679, 59.6110992]}}, {"type": "Feature", "properties": {"type": "node", "id": 29916407, "tags": {"description": "Silverstaden", "name": "Sala", "name:ru": "\u0421\u0430\u043b\u0430", "name:sv": "Sala", "place": "town", "population": "12289", "ref:se:pts:postort": "SALA", "ref:se:scb": "6312", "wikidata": "Q930262", "wikipedia": "sv:Sala"}}, "geometry": {"type": "Point", "coordinates": [16.6056444, 59.9202268]}}, {"type": "Feature", "properties": {"type": "node", "id": 27150427, "tags": {"name": "Visby", "name:ar": "\u0641\u064a\u0633\u0628\u064a", "name:el": "\u0392\u03af\u03c3\u03bc\u03c0\u03c5", "name:fa": "\u0648\u06cc\u0632\u0628\u0647", "name:ja": "\u30f4\u30a3\u30fc\u30b9\u30d3", "name:ko": "\ube44\uc2a4\ubdd4", "name:lt": "Visbis", "name:lv": "Visbija", "name:mk": "\u0412\u0438\u0441\u0431\u0438", "name:ne": "\u092d\u093f\u0938\u094d\u092c\u0940", "name:ru": "\u0412\u0438\u0441\u0431\u044e", "name:sr": "\u0412\u0438\u0441\u0431\u0438", "name:sv": "Visby", "name:ur": "\u0648\u06cc\u0633\u067e\u06d2", "name:xmf": "\u10d5\u10d8\u10e1\u10d1\u10d8\u10e3", "name:zh": "\u7dad\u65af\u6bd4", "old_name": "Wisby", "place": "town", "population": "22593", "ref:se:pts:postort": "VISBY", "ref:se:scb": "2552", "wikidata": "Q54757", "wikipedia": "sv:Visby"}}, "geometry": {"type": "Point", "coordinates": [18.297982, 57.6379361]}}, {"type": "Feature", "properties": {"type": "node", "id": 32657698, "tags": {"name": "Oxel\u00f6sund", "name:ru": "\u041e\u043a\u0441\u0435\u043b\u0451\u0441\u0443\u043d\u0434", "name:sv": "Oxel\u00f6sund", "place": "town", "population": "10870", "ref:se:pts:postort": "OXEL\u00d6SUND", "ref:se:scb": "0820"}}, "geometry": {"type": "Point", "coordinates": [17.1040821, 58.6700167]}}, {"type": "Feature", "properties": {"type": "node", "id": 11094836, "tags": {"capital": "4", "name": "Nyk\u00f6ping", "name:lt": "Ni\u0161iopingas", "name:ru": "\u041d\u044e\u0447\u0451\u043f\u0438\u043d\u0433", "name:sv": "Nyk\u00f6ping", "name:zh": "\u5c3c\u96ea\u5e73", "place": "town", "population": "29891", "ref:se:pts:postort": "NYK\u00d6PING", "ref:se:scb": "0812", "wikidata": "Q54356", "wikipedia": "en:Nyk\u00f6ping"}}, "geometry": {"type": "Point", "coordinates": [17.0120656, 58.7545409]}}, {"type": "Feature", "properties": {"type": "node", "id": 112026297, "tags": {"description": "\"V\u00e4rldens \u00c4nde\"", "name": "Trosa", "name:ru": "\u0422\u0440\u0443\u0441\u0430", "name:sv": "Trosa", "place": "town", "population": "5027", "ref:se:pts:postort": "TROSA", "ref:se:scb": "0884"}}, "geometry": {"type": "Point", "coordinates": [17.5478116, 58.8967057]}}, {"type": "Feature", "properties": {"type": "node", "id": 60639832, "tags": {"name": "Gnesta", "name:ru": "\u0413\u043d\u0435\u0441\u0442\u0430", "name:sv": "Gnesta", "place": "town", "population": "5562", "ref:se:pts:postort": "GNESTA", "ref:se:scb": "0752"}}, "geometry": {"type": "Point", "coordinates": [17.30897, 59.0454209]}}, {"type": "Feature", "properties": {"type": "node", "id": 80268995, "tags": {"name": "Nyn\u00e4shamn", "name:bg": "\u041d\u044e\u043d\u0435\u0441\u0445\u0430\u043c\u043d", "name:da": "Nyn\u00e4shamn", "name:de": "Nyn\u00e4shamn", "name:en": "Nyn\u00e4shamn", "name:et": "Nyn\u00e4shamn", "name:fo": "Nyn\u00e4shamn", "name:hu": "Nyn\u00e4shamn", "name:it": "Nyn\u00e4shamn", "name:nl": "Nyn\u00e4shamn", "name:nn": "Nyn\u00e4shamn", "name:no": "Nyn\u00e4shamn", "name:pl": "Nyn\u00e4shamn", "name:pt": "Nyn\u00e4shamn", "name:ru": "\u041d\u044e\u043d\u0435\u0441\u0445\u0430\u043c\u043d", "name:se": "Nyn\u00e4shamn", "name:sv": "Nyn\u00e4shamn", "name:uk": "\u041d\u0438\u043d\u0435\u0441\u0433\u0430\u043c\u043d", "name:vi": "Nyn\u00e4shamn", "name:zh": "\u5c3c\u5948\u65af\u6e2f", "place": "town", "population": "13510", "population:date": "2010-12-31", "ref:se:pts:postort": "NYN\u00c4SHAMN", "ref:se:scb": "0264", "website": "https://www.nynashamn.se/", "wikidata": "Q738338", "wikipedia": "sv:Nyn\u00e4shamn"}}, "geometry": {"type": "Point", "coordinates": [17.9470987, 58.9056457]}}, {"type": "Feature", "properties": {"type": "node", "id": 4137298009, "tags": {"name": "V\u00e4sterhaninge", "name:sv": "V\u00e4sterhaninge", "place": "town", "population": "15134", "ref:se:pts:postort": "V\u00c4STERHANINGE", "ref:se:scb": "0404", "wikidata": "Q1544751"}}, "geometry": {"type": "Point", "coordinates": [18.1085969, 59.1221593]}}, {"type": "Feature", "properties": {"type": "node", "id": 304051622, "tags": {"name": "Jordbro", "name:sv": "Jordbro", "place": "town", "population": "10291", "ref:se:pts:postort": "JORDBRO", "ref:se:scb": "0200", "wikidata": "Q1703720"}}, "geometry": {"type": "Point", "coordinates": [18.1317918, 59.1423991]}}, {"type": "Feature", "properties": {"type": "node", "id": 59773306, "tags": {"capital": "municipality", "name": "Str\u00e4ngn\u00e4s", "name:lt": "Strengnesas", "name:ru": "\u0421\u0442\u0440\u0435\u043d\u0433\u043d\u0435\u0441", "name:sv": "Str\u00e4ngn\u00e4s", "place": "town", "population": "12856", "ref:se:pts:postort": "STR\u00c4NGN\u00c4S", "ref:se:scb": "0868", "wikidata": "Q106909"}}, "geometry": {"type": "Point", "coordinates": [17.0268194, 59.3763155]}}, {"type": "Feature", "properties": {"type": "node", "id": 324660956, "tags": {"name": "Mariefred", "name:ru": "\u041c\u0430\u0440\u0438\u0435\u0444\u0440\u0435\u0434", "name:sv": "Mariefred", "place": "town", "population": "3726", "ref:se:pts:postort": "MARIEFRED", "ref:se:scb": "0800"}}, "geometry": {"type": "Point", "coordinates": [17.2229487, 59.2599454]}}, {"type": "Feature", "properties": {"type": "node", "id": 20853389, "tags": {"name": "Nykvarn", "name:ru": "\u041d\u044e\u043a\u0432\u0430\u0440\u043d", "name:sv": "Nykvarn", "place": "town", "population": "6497", "population:date": "2009-12-31", "ref:se:pts:postort": "NYKVARN", "ref:se:scb": "0260"}}, "geometry": {"type": "Point", "coordinates": [17.431243, 59.1772398]}}, {"type": "Feature", "properties": {"type": "node", "id": 112032928, "tags": {"name": "B\u00e5lsta", "name:sv": "B\u00e5lsta", "place": "town", "population": "13138", "ref:se:pts:postort": "B\u00c5LSTA", "ref:se:scb": "0520", "source": "scb", "wikidata": "Q661608", "wikipedia": "sv:B\u00e5lsta"}}, "geometry": {"type": "Point", "coordinates": [17.5293647, 59.5682102]}}, {"type": "Feature", "properties": {"type": "node", "id": 27544566, "tags": {"name": "Enk\u00f6ping", "name:sv": "Enk\u00f6ping", "place": "town", "population": "21121", "ref:se:pts:postort": "ENK\u00d6PING", "ref:se:scb": "0532", "website": "https://enkoping.se/", "wikidata": "Q21167", "wikipedia": "sv:Enk\u00f6ping"}}, "geometry": {"type": "Point", "coordinates": [17.077856, 59.6356115]}}, {"type": "Feature", "properties": {"type": "node", "id": 192279891, "tags": {"name": "Heby", "name:ru": "\u0425\u0435\u0431\u044e", "name:sv": "Heby", "place": "town", "population": "2550", "ref:se:pts:postort": "HEBY", "ref:se:scb": "6232", "wikidata": "Q1592909", "wikipedia": "sv:Heby"}}, "geometry": {"type": "Point", "coordinates": [16.8579115, 59.9416821]}}, {"type": "Feature", "properties": {"type": "node", "id": 30097996, "tags": {"capital": "municipality", "name": "S\u00f6dert\u00e4lje", "name:la": "Telga australis", "name:lt": "Siodertelj\u0117", "name:ru": "\u0421\u0451\u0434\u0435\u0440\u0442\u0435\u043b\u044c\u0435", "name:sv": "S\u00f6dert\u00e4lje", "name:zh": "\u5357\u6cf0\u5229\u8036", "old_name": "Telje", "place": "town", "population": "64619", "ref:se:pts:postort": "S\u00d6DERT\u00c4LJE", "ref:se:scb": "0356", "wikidata": "Q26518", "wikipedia": "sv:S\u00f6dert\u00e4lje"}}, "geometry": {"type": "Point", "coordinates": [17.6271663, 59.1964289]}}, {"type": "Feature", "properties": {"type": "node", "id": 56520072, "tags": {"name": "Eker\u00f6", "name:sv": "Eker\u00f6", "place": "town", "population": "10907", "population:date": "2010-12-31", "ref:se:pts:postort": "EKER\u00d6", "ref:se:scb": "0150"}}, "geometry": {"type": "Point", "coordinates": [17.813072, 59.2904595]}}, {"type": "Feature", "properties": {"type": "node", "id": 35729508, "tags": {"name": "Tumba", "name:ru": "\u0422\u0443\u043c\u0431\u0430", "name:sv": "Tumba", "place": "town", "population": "42344", "population:date": "2018-12-31", "ref:se:pts:postort": "TUMBA", "ref:se:scb": "0372", "source": "local knowledge", "wikidata": "Q83715", "wikipedia": "sv:Tumba"}}, "geometry": {"type": "Point", "coordinates": [17.8343123, 59.2005555]}}, {"type": "Feature", "properties": {"type": "node", "id": 442688099, "tags": {"name": "Flemingsberg", "name:sv": "Flemingsberg", "place": "town", "population": "15558", "source": "local knowledge", "source:population": "https://www.huddinge.se/organisation-och-styrning/statistik-och-fakta/korta-fakta-om-huddinge/", "wikidata": "Q4117115", "wikipedia": "sv:Flemingsberg"}}, "geometry": {"type": "Point", "coordinates": [17.9398948, 59.2223899]}}, {"type": "Feature", "properties": {"type": "node", "id": 2236313278, "tags": {"name": "Huddinge", "name:sv": "Huddinge", "place": "town", "population": "95234", "population:note": "folkm\u00e4ngden avser delen av stockholms t\u00e4tort som ligger i huddinge kommun, d\u00e5 huddinge inte \u00e4r n\u00e5gon egen t\u00e4tort", "ref:se:pts:postort": "HUDDINGE", "wikidata": "Q21667231", "wikipedia": "sv:Huddinge kommun", "wikipedia:en": "Huddinge Municipality#Huddinge"}}, "geometry": {"type": "Point", "coordinates": [17.9748815, 59.2293827]}}, {"type": "Feature", "properties": {"type": "node", "id": 2022692055, "tags": {"name": "Sj\u00f6dalen-Fullersta", "name:sv": "Sj\u00f6dalen-Fullersta", "place": "town", "population": "22304", "wikidata": "Q10669406", "wikipedia": "sv:Sj\u00f6dalen-Fullersta"}}, "geometry": {"type": "Point", "coordinates": [17.9761219, 59.2362466]}}, {"type": "Feature", "properties": {"type": "node", "id": 1112077620, "tags": {"name": "Stuvsta-Sn\u00e4ttringe", "name:sv": "Stuvsta-Sn\u00e4ttringe", "place": "town", "population": "15847", "wikidata": "Q10682494", "wikipedia": "sv:Stuvsta-Sn\u00e4ttringe"}}, "geometry": {"type": "Point", "coordinates": [17.9850911, 59.2532237]}}, {"type": "Feature", "properties": {"type": "node", "id": 54522077, "tags": {"name": "Sundbyberg", "name:sv": "Sundbyberg", "place": "town", "population": "39224", "ref:se:pts:postort": "SUNDBYBERG", "wikidata": "Q972564", "wikipedia": "sv:Sundbybergs kommun"}}, "geometry": {"type": "Point", "coordinates": [17.9681359, 59.3628802]}}, {"type": "Feature", "properties": {"type": "node", "id": 54519667, "tags": {"name": "Solna", "name:sv": "Solna", "place": "town", "population": "74790", "population:date": "2009-12-31", "ref:se:pts:postort": "SOLNA", "wikidata": "Q28476747", "wikipedia": "sv:Solna (bebyggelse)"}}, "geometry": {"type": "Point", "coordinates": [18.0013693, 59.361367]}}, {"type": "Feature", "properties": {"type": "node", "id": 143790406, "tags": {"name": "Bro", "name:ru": "\u0411\u0440\u0443", "name:sv": "Bro", "place": "town", "population": "7050", "ref:se:pts:postort": "BRO", "ref:se:scb": "0112"}}, "geometry": {"type": "Point", "coordinates": [17.6426027, 59.514658]}}, {"type": "Feature", "properties": {"type": "node", "id": 150528634, "tags": {"name": "Kungs\u00e4ngen", "name:ru": "\u041a\u0443\u043d\u0441\u0435\u043d\u0433\u0435\u043d", "name:sv": "Kungs\u00e4ngen", "place": "town", "ref:se:pts:postort": "KUNGS\u00c4NGEN", "ref:se:scb": "0220", "website": "https://www.upplands-bro.se/"}}, "geometry": {"type": "Point", "coordinates": [17.7511698, 59.4786677]}}, {"type": "Feature", "properties": {"type": "node", "id": 31014648, "tags": {"name": "J\u00e4rf\u00e4lla", "name:sv": "J\u00e4rf\u00e4lla", "place": "town", "population": "65295", "population:date": "2009-12-31", "ref:se:pts:postort": "J\u00c4RF\u00c4LLA"}}, "geometry": {"type": "Point", "coordinates": [17.8285472, 59.4204736]}}, {"type": "Feature", "properties": {"type": "node", "id": 31066580, "tags": {"name": "Sollentuna", "name:ru": "\u0421\u043e\u043b\u043b\u0435\u043d\u0442\u0443\u043d\u0430", "name:sv": "Sollentuna", "place": "town", "population": "73660", "population:date": "2019-09-30", "ref:se:pts:postort": "SOLLENTUNA", "wikidata": "Q503746", "wikipedia": "ru:\u0421\u043e\u043b\u043b\u0435\u043d\u0442\u0443\u043d\u0430"}}, "geometry": {"type": "Point", "coordinates": [17.9500556, 59.4293164]}}, {"type": "Feature", "properties": {"type": "node", "id": 56449803, "tags": {"name": "Upplands V\u00e4sby", "name:sv": "Upplands V\u00e4sby", "place": "town", "population": "41816", "ref:se:pts:postort": "UPPLANDS V\u00c4SBY", "ref:se:scb": "0384", "wikidata": "Q54343", "wikipedia": "sv:Upplands V\u00e4sby"}}, "geometry": {"type": "Point", "coordinates": [17.9164192, 59.517164]}}, {"type": "Feature", "properties": {"type": "node", "id": 322329736, "tags": {"name": "Handen", "name:ru": "\u0425\u0430\u043d\u0434\u0435\u043d", "name:sv": "Handen", "place": "town", "population": "12233", "population:date": "2009-12-31", "ref:se:pts:postort": "HANDEN", "wikidata": "Q1574991", "wikipedia": "sv:Handen"}}, "geometry": {"type": "Point", "coordinates": [18.1409008, 59.1676451]}}, {"type": "Feature", "properties": {"type": "node", "id": 3173649715, "tags": {"name": "\u00c4lta", "name:sv": "\u00c4lta", "place": "town", "population": "9989", "ref:se:pts:postort": "\u00c4LTA", "ref:se:scb": "0416"}}, "geometry": {"type": "Point", "coordinates": [18.1812421, 59.2573973]}}, {"type": "Feature", "properties": {"type": "node", "id": 25929985, "tags": {"admin_level": "2", "alt_name:gl": "Stockholm", "alt_name:he": "\u05e9\u05d8\u05d5\u05e7\u05d4\u05d5\u05dc\u05dd", "capital": "yes", "name": "Stockholm", "name:am": "\u1235\u1276\u12ae\u120d\u121d", "name:an": "Estocolmo", "name:ang": "Stoccholm", "name:ar": "\u0633\u062a\u0648\u0643\u0647\u0648\u0644\u0645", "name:arc": "\u0723\u071b\u0718\u0729\u0717\u0718\u0720\u0721", "name:arz": "\u0633\u062a\u0648\u0643\u0647\u0648\u0644\u0645", "name:ast": "Estocolmu", "name:az": "Stokholm", "name:bat-smg": "Stuokhuolms", "name:be": "\u0421\u0442\u0430\u043a\u0433\u043e\u043b\u044c\u043c", "name:be-tarask": "\u0421\u0442\u0430\u043a\u0433\u043e\u043b\u044c\u043c", "name:bg": "\u0421\u0442\u043e\u043a\u0445\u043e\u043b\u043c", "name:bn": "\u09b8\u09cd\u099f\u0995\u09b9\u09cb\u09ae", "name:bo": "\u0f66\u0f72\u0f0b\u0f4f\u0f7c\u0f42\u0f0b\u0f67\u0f7c\u0f0b\u0f63\u0f72\u0f58\u0f0d", "name:ca": "Estocolm", "name:ckb": "\u0633\u062a\u06c6\u06a9\u06be\u06c6\u06b5\u0645", "name:co": "Stoccolma", "name:cs": "Stockholm", "name:csb": "Sztokh\u00f2lm", "name:cv": "\u0421\u0442\u043e\u043a\u0433\u043e\u043b\u044c\u043c", "name:de": "Stockholm", "name:diq": "Stokholm", "name:dk": "Stockholm", "name:el": "\u03a3\u03c4\u03bf\u03ba\u03c7\u03cc\u03bb\u03bc\u03b7", "name:en": "Stockholm", "name:eo": "Stokholmo", "name:es": "Estocolmo", "name:ext": "Estocolmu", "name:fa": "\u0627\u0633\u062a\u06a9\u0647\u0644\u0645", "name:fi": "Tukholma", "name:fiu-vro": "Stokholm", "name:fo": "Stokkh\u00f3lmur", "name:fr": "Stockholm", "name:fy": "Stokholm", "name:ga": "St\u00f3c\u00f3lm", "name:gl": "Estocolmo", "name:he": "\u05e1\u05d8\u05d5\u05e7\u05d4\u05d5\u05dc\u05dd", "name:hi": "\u0938\u094d\u091f\u0949\u0915\u0939\u094b\u092e", "name:hr": "Stockholm", "name:ht": "Stokolm", "name:hu": "Stockholm", "name:hy": "\u054d\u057f\u0578\u0584\u0570\u0578\u056c\u0574", "name:is": "Stokkh\u00f3lmur", "name:it": "Stoccolma", "name:iu": "\u1505\u1451\u1483\u14f1\u14ea\u14bb", "name:iu-Latn": "stuukhulm", "name:ja": "\u30b9\u30c8\u30c3\u30af\u30db\u30eb\u30e0", "name:ka": "\u10e1\u10e2\u10dd\u10d9\u10f0\u10dd\u10da\u10db\u10d8", "name:kk": "\u0421\u0442\u043e\u043a\u0433\u043e\u043b\u044c\u043c", "name:ko": "\uc2a4\ud1a1\ud640\ub984", "name:koi": "\u0421\u0442\u0451\u043a\u043e\u043b\u043d\u0430", "name:ku": "Stokholm", "name:kv": "\u0421\u0442\u043e\u043a\u0433\u043e\u043b\u044c\u043c", "name:la": "Holmia", "name:lad": "Estokolma", "name:lij": "Stoccolma", "name:lmo": "Stuculma", "name:lt": "Stokholmas", "name:lv": "Stokholma", "name:lzh": "\u65af\u5fb7\u54e5\u723e\u6469", "name:mdf": "\u0421\u0442\u043e\u043a\u043e\u043b\u044c\u043c\u0430", "name:mhr": "\u0421\u0442\u043e\u043a\u0433\u043e\u043b\u044c\u043c", "name:mk": "\u0421\u0442\u043e\u043a\u0445\u043e\u043b\u043c", "name:ml": "\u0d38\u0d4d\u0d31\u0d4d\u0d31\u0d4b\u0d15\u0d4d\u0d15\u0d4d\u200c\u0d39\u0d4b\u0d02", "name:mr": "\u0938\u094d\u091f\u0949\u0915\u0939\u094b\u092e", "name:mrj": "\u0421\u0442\u043e\u043a\u0433\u043e\u043b\u044c\u043c", "name:mt": "Stokkolma", "name:my": "\u1005\u1010\u1031\u102c\u1037\u101f\u102f\u1019\u103a\u1038\u1019\u103c\u102d\u102f\u1037", "name:myv": "\u0421\u0442\u043e\u043a\u0433\u043e\u043b\u044c\u043c \u043e\u0448", "name:mzn": "\u0627\u0633\u062a\u06a9\u0647\u0644\u0645", "name:nah": "Estocolmo", "name:nds": "Stockholm", "name:no": "Stockholm", "name:oc": "Estoc\u00f2lme", "name:os": "\u0421\u0442\u043e\u043a\u0433\u043e\u043b\u044c\u043c", "name:pl": "Sztokholm", "name:pms": "Stoc\u00f2lma", "name:pnb": "\u0633\u0679\u0627\u06a9\u06c1\u0648\u0645", "name:pt": "Estocolmo", "name:ru": "\u0421\u0442\u043e\u043a\u0433\u043e\u043b\u044c\u043c", "name:sah": "\u0421\u0442\u043e\u043ah\u043e\u043b\u044c\u043c", "name:sc": "Stoccolma", "name:se": "Stockholbma", "name:sk": "\u0160tokholm", "name:sq": "Stokholmi", "name:sr": "\u0421\u0442\u043e\u043a\u0445\u043e\u043b\u043c", "name:sv": "Stockholm", "name:szl": "Sztokholm", "name:ta": "\u0bb8\u0bcd\u0b9f\u0bbe\u0b95\u0bcd\u0bb9\u0bcb\u0bae\u0bcd", "name:tg": "\u0421\u0442\u043e\u043a\u04b3\u043e\u043b\u043c", "name:th": "\u0e2a\u0e15\u0e2d\u0e01\u0e42\u0e2e\u0e25\u0e4c\u0e21", "name:tt": "\u0421\u0442\u043e\u043a\u0433\u043e\u043b\u044c\u043c", "name:udm": "\u0421\u0442\u043e\u043a\u0433\u043e\u043b\u044c\u043c", "name:ug": "Stokgolm", "name:uk": "\u0421\u0442\u043e\u043a\u0433\u043e\u043b\u044c\u043c", "name:ur": "\u0633\u0679\u0627\u06a9\u06c1\u0648\u0645", "name:uz": "Stokgolm", "name:vec": "Stoc\u00f3lma", "name:wo": "Stokolm", "name:yi": "\u05e9\u05d8\u05d0\u05e7\u05d4\u05d0\u05dc\u05dd", "name:yue": "\u65af\u5fb7\u54e5\u723e\u6469", "name:zh": "\u65af\u5fb7\u54e5\u723e\u6469", "name:zh-Hans": "\u65af\u5fb7\u54e5\u5c14\u6469", "place": "city", "population": "829417", "ref:se:pts:postort": "STOCKHOLM", "ref:se:scb": "0336", "short_name": "Sthlm", "wikidata": "Q1754", "wikipedia": "sv:Stockholm"}}, "geometry": {"type": "Point", "coordinates": [18.0710935, 59.3251172]}}, {"type": "Feature", "properties": {"type": "node", "id": 29756716, "tags": {"gns_classification": "PPL", "gns_populated_place_classification": "3", "gns_uni": "-3437720", "name": "Liding\u00f6", "name:ru": "\u041b\u0438\u0434\u0438\u043d\u0433\u0451", "name:sv": "Liding\u00f6", "place": "town", "population": "31561", "population:date": "2009-12-31", "ref:se:pts:postort": "LIDING\u00d6", "ref:se:scb": "0228", "website": "https://www.lidingo.se/", "wikidata": "Q54349", "wikipedia": "en:Liding\u00f6"}}, "geometry": {"type": "Point", "coordinates": [18.133142, 59.3643845]}},