{"version": 0.6, "generator": "Overpass API 0.7.56.8 7d656e78", "osm3s": {"timestamp_osm_base": "2021-02-24T09:04:57Z", "timestamp_areas_base": "2021-02-24T08:24:02Z", "copyright": "The data included in this document is from www.openstreetmap.org. The data is made available under ODbL."}, "elements": [{"type": "node", "id": 564888704, "lat": 58.2972667, "lon": 6.6604201, "tags": {"name": "Flekkefjord", "name:no": "Flekkefjord", "name:ru": "\u0424\u043b\u0435\u043a\u043a\u0435\u0444\u044c\u043e\u0440\u0434", "place": "town", "population": "6056", "population:date": "2020-01-01", "ref:ssb_tettsted": "4031", "source:population": "SSB - befolkning i tettstedet"}}, {"type": "node", "id": 31264078, "lat": 58.7333088, "lon": 5.6503503, "tags": {"name": "Bryne", "name:ru": "\u0411\u0440\u044e\u043d\u0435", "place": "town", "population": "12308", "population:date": "2020-01-01", "ref:ssb_tettsted": "4591", "source:population": "SSB - befolkning i tettstedet"}}, {"type": "node", "id": 31264140, "lat": 59.1508737, "lon": 5.2550843, "tags": {"alt_name": "Skudeneshamn", "name": "Skudeneshavn", "place": "town", "population": "3310", "population:date": "2020-01-01", "ref:ssb_tettsted": "4705", "source:population": "SSB - befolkning i tettstedet", "wikidata": "Q1900046", "wikipedia": "en:Skudeneshavn"}}, {"type": "node", "id": 351105380, "lat": 58.8871602, "lon": 5.647697, "tags": {"name": "Sola", "place": "town", "population": "21967", "population:date": "2020-01-01", "ref:ssb_tettsted": "4522-1124", "source:population": "SSB - befolkning i tettstedet"}}, {"type": "node", "id": 305653806, "lat": 58.8517825, "lon": 5.7369907, "tags": {"name": "Sandnes", "name:ru": "\u0421\u0430\u043d\u043d\u0435\u0441", "place": "town", "population": "63375", "population:date": "2020-01-01", "ref:ssb_tettsted": "4522-1108", "source:population": "SSB - befolkning i tettstedet", "wikidata": "Q27587", "wikipedia": "de:Sandnes"}}, {"type": "node", "id": 1952300774, "lat": 58.9996678, "lon": 5.6181339, "tags": {"name": "Randaberg", "name:ru": "\u0420\u0430\u043d\u0434\u0430\u0431\u0435\u0440\u0433", "place": "town", "population": "9609"}}, {"type": "node", "id": 30421326, "lat": 58.9689601, "lon": 5.7294654, "tags": {"alt_name:ar": "\u0633\u062a\u0627\u0641\u0627\u0646\u062c\u0631", "name": "Stavanger", "name:ar": "\u0633\u062a\u0627\u0641\u0627\u0646\u063a\u0631", "name:is": "Stafangur", "name:ps": "\u0633\u062a\u0648\u0627\u0646\u06ab\u0631", "name:ru": "\u0421\u0442\u0430\u0432\u0430\u043d\u0433\u0435\u0440", "name:zh": "\u65af\u5854\u842c\u683c", "place": "city", "population": "228287", "population:date": "2020-01-01", "ref:ssb_tettsted": "4522", "source:population": "SSB - befolkning i tettstedet", "wikidata": "Q26772333"}}, {"type": "node", "id": 1182638837, "lat": 58.4518952, "lon": 5.9999963, "tags": {"name": "Egersund", "place": "town", "population": "11484", "population:date": "2020-01-01", "ref:ssb_tettsted": "4501", "source:population": "SSB - befolkning i tettstedet"}}, {"type": "node", "id": 31264099, "lat": 59.0166667, "lon": 6.0499999, "tags": {"name": "J\u00f8rpeland", "name:ru": "\u0419\u043e\u0440\u043f\u0435\u043b\u0430\u043d\u043d", "place": "town", "population": "7248", "population:date": "2020-01-01", "ref:ssb_tettsted": "4631", "source:population": "SSB - befolkning i tettstedet"}}, {"type": "node", "id": 31264150, "lat": 59.2666667, "lon": 5.1833333, "tags": {"name": "\u00c5krehamn", "place": "town", "population": "7843", "population:date": "2020-01-01", "ref:ssb_tettsted": "4702", "source:population": "SSB - befolkning i tettstedet"}}, {"type": "node", "id": 1798834590, "lat": 59.2836139, "lon": 5.3067005, "tags": {"name": "Kopervik", "name:ru": "\u041a\u043e\u043f\u0435\u0440\u0432\u0438\u043a", "place": "town", "population": "11574", "population:date": "2020-01-01", "ref:ssb_tettsted": "4706", "source:population": "SSB - befolkning i tettstedet", "wikidata": "Q2109119", "wikipedia": "en:Kopervik"}}, {"type": "node", "id": 21717610, "lat": 59.4154805, "lon": 5.2636464, "tags": {"name": "Haugesund", "name:ru": "\u0425\u0451\u0443\u0433\u0435\u0441\u0443\u043d\u043d", "place": "town", "population": "45352", "population:date": "2020-01-01", "ref:ssb_tettsted": "4532", "source:population": "SSB - befolkning i tettstedet", "wikidata": "Q109036", "wikipedia": "no:Haugesund"}}, {"type": "node", "id": 1406441984, "lat": 59.7798008, "lon": 5.5012164, "tags": {"alt_name": "Stord", "name": "Leirvik", "name:ru": "\u041b\u0435\u0439\u0440\u0432\u0438\u043a", "place": "town", "population": "14198", "population:date": "2020-01-01", "ref:ssb_tettsted": "5053", "source:population": "SSB - befolkning i tettstedet", "wikidata": "Q1022729"}}, {"type": "node", "id": 31264131, "lat": 59.6502547, "lon": 6.3543716, "tags": {"name": "Sauda", "place": "town", "population": "4180", "population:date": "2020-01-01", "ref:ssb_tettsted": "4661", "source:population": "SSB - befolkning i tettstedet"}}, {"type": "node", "id": 258770049, "lat": 61.5998581, "lon": 5.0320356, "tags": {"name": "Flor\u00f8", "name:ru": "\u0424\u043b\u0443\u0440\u0451", "place": "town", "population": "8922", "population:date": "2020-01-01", "ref:ssb_tettsted": "5501", "source:population": "SSB - befolkning i tettstedet"}}, {"type": "node", "id": 21261083, "lat": 60.3943055, "lon": 5.3259192, "tags": {"alt_name:ar": "\u0628\u0631\u062c\u0646", "capital": "4", "layer": "2", "name": "Bergen", "name:ar": "\u0628\u0631\u063a\u0646", "name:he": "\u05d1\u05e8\u05d2\u05df", "name:ru": "\u0411\u0435\u0440\u0433\u0435\u043d", "name:zh": "\u5351\u723e\u6839", "note": "Bergen plassert med spissen av Holbergs spaserstokk.", "old_name": "Bj\u00f8rgvin", "place": "city", "population": "259958", "population:date": "2020-01-01", "ref:ssb_tettsted": "5001", "source:population": "SSB - befolkning i tettstedet", "wikidata": "Q26793", "wikipedia": "no:Bergen"}}, {"type": "node", "id": 316440666, "lat": 60.1851447, "lon": 5.4698394, "tags": {"alt_name": "Os", "name": "Os\u00f8yro", "place": "town", "population": "14046", "population:date": "2020-01-01", "ref:ssb_tettsted": "5173", "source:population": "SSB - befolkning i tettstedet"}}, {"type": "node", "id": 31264122, "lat": 60.0666667, "lon": 6.55, "tags": {"name": "Odda", "name:ru": "\u041e\u0434\u0434\u0430", "place": "town", "population": "4840", "population:date": "2020-01-01", "ref:ssb_tettsted": "5092", "source:population": "SSB - befolkning i tettstedet", "wikidata": "Q109494", "wikipedia": "no:Odda"}}, {"type": "node", "id": 32950991, "lat": 60.6286944, "lon": 6.4147445, "tags": {"alt_name": "Voss", "name": "Vossavangen", "name:ru": "\u0412\u043e\u0441\u0441\u0435\u0432\u0430\u043d\u0433\u0435\u043d", "place": "town", "population": "6828", "population:date": "2020-01-01", "ref:ssb_tettsted": "5132", "source:population": "SSB - befolkning i tettstedet", "ssr:stedsnr": "370739", "wikidata": "Q2715598"}}, {"type": "node", "id": 31264091, "lat": 61.4521316, "lon": 5.8572636, "tags": {"name": "F\u00f8rde", "name:no": "F\u00f8rde", "name:ru": "\u0424\u0451\u0440\u0434\u0435", "place": "town", "population": "10420", "population:date": "2020-01-01", "ref:ssb_tettsted": "5651", "source:population": "SSB - befolkning i tettstedet"}}, {"type": "node", "id": 31264119, "lat": 61.9353815, "lon": 5.1135697, "tags": {"name": "M\u00e5l\u00f8y", "place": "town", "population": "3300", "population:date": "2020-01-01", "ref:ssb_tettsted": "5682", "source:population": "SSB - befolkning i tettstedet"}}, {"type": "node", "id": 31264089, "lat": 62.342253, "lon": 5.6333501, "tags": {"name": "Fosnav\u00e5g", "place": "town", "population": "3553", "population:date": "2020-01-01", "ref:ssb_tettsted": "6043", "source:population": "SSB - befolkning i tettstedet"}}, {"type": "node", "id": 31264153, "lat": 62.3432661, "lon": 5.8483848, "tags": {"name": "Ulsteinvik", "place": "town", "population": "5909", "population:date": "2020-01-01", "ref:ssb_tettsted": "6051", "source:population": "SSB - befolkning i tettstedet"}}, {"type": "node", "id": 86002386, "lat": 62.1484466, "lon": 6.0698678, "tags": {"name": "Volda", "place": "town", "population": "6511", "population:date": "2020-01-01", "ref:ssb_tettsted": "6071", "source:population": "SSB - befolkning i tettstedet"}}, {"type": "node", "id": 86002385, "lat": 62.2023256, "lon": 6.1289531, "tags": {"name": "\u00d8rsta", "place": "town", "population": "7468", "population:date": "2020-01-01", "ref:ssb_tettsted": "6081", "source:population": "SSB - befolkning i tettstedet"}}, {"type": "node", "id": 31264149, "lat": 62.4728781, "lon": 6.1492684, "tags": {"name": "\u00c5lesund", "name:ru": "\u041e\u043b\u0435\u0441\u0443\u043d\u043d", "place": "town", "population": "53905", "population:date": "2020-01-01", "ref:ssb_tettsted": "6025", "source:population": "SSB - befolkning i tettstedet", "wikidata": "Q62266"}}, {"type": "node", "id": 31264083, "lat": 58.0951137, "lon": 6.8047461, "tags": {"name": "Farsund", "name:ru": "\u0424\u0430\u0440\u0441\u0443\u043d\u043d", "place": "town", "population": "3377", "population:date": "2020-01-01", "ref:ssb_tettsted": "4021", "source:population": "SSB - befolkning i tettstedet", "ssr:stedsnr": "121334", "wikidata": "Q490462", "wikipedia": "no:Farsund"}}, {"type": "node", "id": 31264109, "lat": 58.1379878, "lon": 7.0685965, "tags": {"name": "Lyngdal", "name:ru": "\u041b\u044e\u043d\u0433\u0434\u0430\u043b", "place": "town", "population": "5159", "population:date": "2020-01-01", "ref:ssb_tettsted": "4091", "source:population": "SSB - befolkning i tettstedet", "ssr:stedsnr": "910476", "ssr:type": "by"}}, {"type": "node", "id": 25781237, "lat": 58.0268181, "lon": 7.4534802, "tags": {"name": "Mandal", "name:ru": "\u041c\u0430\u043d\u0434\u0430\u043b", "place": "town", "population": "11053", "population:date": "2020-01-01", "ref:ssb_tettsted": "4011", "source:population": "SSB - befolkning i tettstedet", "ssr:stedsnr": "364950", "ssr:type": "by", "wikidata": "Q108966", "wikipedia": "en:Mandal, Norway"}}, {"type": "node", "id": 31264100, "lat": 58.14615, "lon": 7.9957333, "tags": {"alt_name": "Kristiansand S", "email": "postmottak@kristiansand.kommune.no", "name": "Kristiansand", "name:is": "Kristj\u00e1nssandur", "name:lt": "Kristiansandas", "name:lv": "Krisj\u0101nsanna", "name:ps": "\u06a9\u0631\u064a\u0633\u062a\u064a\u0627\u0646 \u0633\u0627\u0646\u062f", "name:ru": "\u041a\u0440\u0438\u0441\u0442\u0438\u0430\u043d\u0441\u0430\u043d\u043d", "name:zh": "\u514b\u91cc\u65af\u8482\u5b89\u6851", "phone": "+4738075000", "place": "city", "population": "64596", "population:date": "2020-01-01", "ref:ssb_tettsted": "4002", "source:population": "SSB - befolkning i tettstedet", "ssr:stedsnr": "303227", "ssr:type": "by", "website": "https://www.kristiansand.kommune.no", "wikidata": "Q2415", "wikipedia": "no:Kristiansand"}}, {"type": "node", "id": 251861331, "lat": 58.2688968, "lon": 7.9713527, "tags": {"name": "Vennesla", "name:ru": "\u0412\u0435\u043d\u043d\u0435\u0441\u043b\u0430", "place": "town", "population": "13300", "population:date": "2020-01-01", "ref:ssb_tettsted": "4042", "source:population": "SSB - befolkning i tettstedet", "ssr:stedsnr": "667070", "ssr:type": "tettsted"}}, {"type": "node", "id": 31264114, "lat": 58.2479943, "lon": 8.3775716, "tags": {"name": "Lillesand", "name:ru": "\u041b\u0438\u043b\u043b\u0435\u0441\u0430\u043d\u043d", "place": "town", "population": "7966", "population:date": "2020-01-01", "ref:ssb_tettsted": "3571", "source": "earth-info.nga.mil", "source:population": "SSB - befolkning i tettstedet"}}, {"type": "node", "id": 258940180, "lat": 58.339908, "lon": 8.5911966, "tags": {"name": "Grimstad", "name:ru": "\u0413\u0440\u0438\u043c\u0441\u0442\u0430\u0434", "place": "town", "population": "13543", "population:date": "2020-01-01", "ref:ssb_tettsted": "3523", "source:population": "SSB - befolkning i tettstedet"}}, {"type": "node", "id": 31264073, "lat": 58.4596408, "lon": 8.7666023, "tags": {"name": "Arendal", "name:ru": "\u0410\u0440\u0435\u043d\u0434\u0430\u043b", "name:zh": "\u963f\u4f26\u8fbe\u5c14", "place": "town", "population": "37815", "population:date": "2020-01-01", "ref:ssb_tettsted": "3511", "source": "earth-info.nga.mil", "source:population": "SSB - befolkning i tettstedet", "wikidata": "Q57919"}}, {"type": "node", "id": 31264144, "lat": 58.6226202, "lon": 8.9312914, "tags": {"name": "Tvedestrand", "name:ru": "\u0422\u0432\u0435\u0434\u0435\u0441\u0442\u0440\u0430\u043d\u043d", "place": "town", "population": "2582", "population:date": "2020-01-01", "ref:ssb_tettsted": "3531", "source": "earth-info.nga.mil", "source:population": "SSB - befolkning i tettstedet", "ssr:stedsnr": "851324", "ssr:type": "by"}}, {"type": "node", "id": 2380166198, "lat": 58.7207522, "lon": 9.2343838, "tags": {"name": "Ris\u00f8r", "name:ru": "\u0420\u0438\u0441\u0451\u0440", "place": "town", "population": "4609", "population:date": "2020-01-01", "ref:ssb_tettsted": "3501", "source:population": "SSB - befolkning i tettstedet", "ssr:stedsnr": "177", "ssr:type": "by"}}, {"type": "node", "id": 31264103, "lat": 58.8696217, "lon": 9.4142145, "tags": {"name": "Krager\u00f8", "name:ru": "\u041a\u0440\u0430\u0433\u0435\u0440\u0451", "place": "town", "population": "5382", "population:date": "2020-01-01", "ref:ssb_tettsted": "3054", "source:population": "SSB - befolkning i tettstedet", "ssr:stedsnr": "183707", "ssr:type": "by"}}, {"type": "node", "id": 31264136, "lat": 59.0450062, "lon": 9.6977418, "tags": {"name": "Stathelle", "place": "town", "population": "10171", "population:date": "2020-01-01", "ref:ssb_tettsted": "3005-3813", "source:population": "SSB - befolkning i tettstedet", "ssr:stedsnr": "123549", "ssr:type": "by"}}, {"type": "node", "id": 31264106, "lat": 59.000697, "lon": 9.7484437, "tags": {"name": "Langesund", "place": "town", "ssr:stedsnr": "122583", "ssr:type": "by"}}, {"type": "node", "id": 1300644558, "lat": 59.0528886, "lon": 9.699978, "tags": {"name": "Brevik", "name:ru": "\u0411\u0440\u0435\u0432\u0438\u043a", "place": "town", "population": "3000", "population:date": "2008", "source": "earth-info.nga.mil", "ssr:stedsnr": "244530", "ssr:type": "by"}}, {"type": "node", "id": 31264126, "lat": 59.140759, "lon": 9.6562495, "tags": {"name": "Porsgrunn", "name:ru": "\u041f\u043e\u0440\u0441\u0433\u0440\u0443\u043d\u043d", "place": "town", "population": "34016", "population:date": "2020-01-01", "ref:ssb_tettsted": "3005-3806", "source": "SSB", "source:population": "SSB - befolkning i tettstedet", "ssr:stedsnr": "365574", "ssr:type": "by", "wikidata": "Q2290"}}, {"type": "node", "id": 252583445, "lat": 58.9983397, "lon": 10.0360061, "tags": {"name": "Stavern", "name:ru": "\u0421\u0442\u0430\u0432\u0435\u0440\u043d", "place": "town", "population": "5752", "population:date": "2020-01-01", "ref:ssb_tettsted": "2551", "source:population": "SSB - befolkning i tettstedet", "ssr:stedsnr": "183954", "ssr:type": "by"}}, {"type": "node", "id": 31264107, "lat": 59.053173, "lon": 10.027182, "tags": {"name": "Larvik", "name:ru": "\u041b\u0430\u0440\u0432\u0438\u043a", "place": "town", "population": "24779", "population:date": "2020-01-01", "ref:ssb_tettsted": "2541", "source:population": "SSB - befolkning i tettstedet", "ssr:stedsnr": "608185", "ssr:type": "by", "wikidata": "Q156125"}}, {"type": "node", "id": 31264133, "lat": 59.8786889, "lon": 8.5941727, "tags": {"name": "Rjukan", "name:ru": "\u0420\u044c\u044e\u043a\u0430\u043d", "place": "town", "population": "3101", "population:date": "2020-01-01", "ref:ssb_tettsted": "3102", "source:population": "SSB - befolkning i tettstedet", "ssr:stedsnr": "367147", "ssr:type": "by", "wikidata": "Q991201", "wikipedia": "en:Rjukan"}}, {"type": "node", "id": 31264139, "lat": 59.2091003, "lon": 9.607544, "tags": {"name": "Skien", "name:ru": "\u0428\u0438\u0435\u043d", "name:zh": "\u5e0c\u6069", "place": "town", "population": "49591", "population:date": "2020-01-01", "ref:ssb_tettsted": "3005-3807", "source": "SSB", "source:population": "SSB - befolkning i tettstedet", "ssr:stedsnr": "305902", "ssr:type": "by"}}, {"type": "node", "id": 31264124, "lat": 59.5593283, "lon": 9.2592923, "tags": {"name": "Notodden", "name:ru": "\u041d\u0443\u0442\u043e\u0434\u0434\u0435\u043d", "place": "town", "population": "9055", "population:date": "2020-01-01", "ref:ssb_tettsted": "3021", "source:population": "SSB - befolkning i tettstedet", "ssr:stedsnr": "428748", "ssr:type": "by"}}, {"type": "node", "id": 31264097, "lat": 59.6693196, "lon": 9.6515097, "tags": {"name": "Kongsberg", "name:no": "Kongsberg", "name:ru": "\u041a\u043e\u043d\u0433\u0441\u0431\u0435\u0440\u0433", "place": "town", "population": "22471", "population:date": "2020-01-01", "ref:ssb_tettsted": "2015", "source:name": "Kartverket", "source:population": "SSB - befolkning i tettstedet", "ssr:stedsnr": "245560", "wikidata": "Q108988"}}, {"type": "node", "id": 31264094, "lat": 59.7705536, "lon": 9.90702, "tags": {"name": "Hokksund", "name:ru": "\u0425\u043e\u043a\u043a\u0441\u0443\u043d\u043d", "place": "town", "population": "9089", "population:date": "2019-01-01", "source": "earth-info.nga.mil"}}, {"type": "node", "id": 31264134, "lat": 59.1300112, "lon": 10.2255602, "tags": {"name": "Sandefjord", "name:ru": "\u0421\u0430\u043d\u043d\u0435\u0444\u044c\u043e\u0440\u0434", "place": "town", "population": "44968", "population:date": "2020-01-01", "ref:ssb_tettsted": "2531", "source": "SSB", "source:population": "SSB - befolkning i tettstedet", "ssr:stedsnr": "730045", "ssr:type": "by", "wikidata": "Q109005"}}, {"type": "node", "id": 27537743, "lat": 59.1245724, "lon": 11.3875227, "tags": {"name": "Halden", "name:ru": "\u0425\u0430\u043b\u0434\u0435\u043d", "place": "town", "population": "25838", "population:date": "2020-01-01", "ref:ssb_tettsted": "0001", "source:population": "SSB - befolkning i tettstedet", "ssr:stedsnr": "245734", "wikidata": "Q11494262"}}, {"type": "node", "id": 31264143, "lat": 59.2677363, "lon": 10.4080715, "tags": {"name": "T\u00f8nsberg", "name:ru": "\u0422\u0451\u043d\u0441\u0431\u0435\u0440\u0433", "place": "town", "population": "53018", "population:date": "2020-01-01", "ref:ssb_tettsted": "2521", "source": "earth-info.nga.mil", "source:population": "SSB - befolkning i tettstedet", "ssr:stedsnr": "792644", "ssr:type": "by", "wikidata": "Q107392"}}, {"type": "node", "id": 252585942, "lat": 59.3491387, "lon": 10.4680198, "tags": {"name": "\u00c5sg\u00e5rdstrand", "place": "town", "population": "2957", "population:date": "2020-01-01", "ref:ssb_tettsted": "2603", "source:population": "SSB - befolkning i tettstedet", "ssr:stedsnr": "184593", "ssr:type": "by"}}, {"type": "node", "id": 31264095, "lat": 59.4166459, "lon": 10.4838599, "tags": {"name": "Horten", "name:ru": "\u0425\u043e\u0440\u0442\u0435\u043d", "place": "town", "population": "20585", "population:date": "2020-01-01", "ref:ssb_tettsted": "2511", "source:population": "SSB - befolkning i tettstedet", "ssr:stedsnr": "692216", "ssr:type": "by", "wikidata": "Q109048"}}, {"type": "node", "id": 31264093, "lat": 59.4899583, "lon": 10.3150445, "tags": {"name": "Holmestrand", "name:ru": "\u0425\u043e\u043b\u043c\u0435\u0441\u0442\u0440\u0430\u043d\u043d", "place": "town", "population": "7576", "population:date": "2020-01-01", "ref:ssb_tettsted": "2501", "source": "earth-info.nga.mil", "source:population": "SSB - befolkning i tettstedet", "ssr:stedsnr": "670011", "ssr:type": "by"}}, {"type": "node", "id": 31264121, "lat": 59.4347974, "lon": 10.6619753, "tags": {"name": "Moss", "name:ru": "\u041c\u043e\u0441\u0441", "name:zh": "\u83ab\u65af", "place": "town", "population": "47397", "population:date": "2020-01-01", "ref:ssb_tettsted": "0031", "source:population": "SSB - befolkning i tettstedet", "ssr:stedsnr": "427982", "wikidata": "Q109021"}}, {"type": "node", "id": 31264080, "lat": 59.7436749, "lon": 10.2043749, "tags": {"name": "Drammen", "name:no": "Drammen", "name:ps": "\u062f\u0631\u0627\u0645\u064a\u0646", "name:ru": "\u0414\u0440\u0430\u043c\u043c\u0435\u043d", "name:zh": "\u5fb7\u62c9\u95e8", "place": "town", "population": "109416", "population:date": "2020-01-01", "ref:ssb_tettsted": "2003", "source:name": "Kartverket", "source:population": "SSB - befolkning i tettstedet", "ssr:stedsnr": "609364", "wikidata": "Q26525", "wikipedia": "en:Drammen"}}, {"type": "node", "id": 31264148, "lat": 59.6135205, "lon": 10.4091066, "tags": {"name": "Svelvik", "name:ru": "\u0421\u0432\u0435\u043b\u0432\u0438\u043a", "place": "town", "population": "3953", "population:date": "2020-01-01", "ref:ssb_tettsted": "2562", "source": "earth-info.nga.mil", "source:population": "SSB - befolkning i tettstedet", "ssr:stedsnr": "124591", "ssr:type": "by"}}, {"type": "node", "id": 33767375, "lat": 59.8347053, "lon": 10.4350677, "tags": {"name": "Asker", "name:ru": "\u0410\u0441\u043a\u0435\u0440", "place": "town", "population": "68132", "population:date": "2020-01-01", "ref:ssb_tettsted": "0801-3025", "source:population": "SSB - befolkning i tettstedet", "wikidata": "Q56869"}}, {"type": "node", "id": 6463616300, "lat": 59.6632937, "lon": 10.6294465, "tags": {"name": "Dr\u00f8bak", "name:ru": "\u0414\u0440\u0451\u0431\u0430\u043a", "place": "town", "population": "13485", "population:date": "2020-01-01", "ref:ssb_tettsted": "0531", "source:population": "SSB - befolkning i tettstedet", "ssr:stedsnr": "732857"}}, {"type": "node", "id": 31264138, "lat": 59.7199284, "lon": 10.8382744, "tags": {"name": "Ski", "name:no": "Ski", "name:ru": "\u0428\u0438", "place": "town", "population": "20144", "population:date": "2020-01-01", "ref:ssb_tettsted": "0512", "source:population": "SSB - befolkning i tettstedet", "ssr:stedsnr": "610596", "wikidata": "Q1770672", "wikipedia": "no:Ski (tettsted)"}}, {"type": "node", "id": 127867478, "lat": 59.8563647, "lon": 10.6618625, "tags": {"name": "Nesoddtangen", "place": "town", "population": "13102", "population:date": "2020-01-01", "ref:ssb_tettsted": "0541", "source:population": "SSB - befolkning i tettstedet", "ssr:stedsnr": "732798"}}, {"type": "node", "id": 31264129, "lat": 59.8905671, "lon": 10.5271801, "tags": {"name": "Sandvika", "name:ps": "\u0633\u0627\u0646\u062f\u0648\u064a\u06a9\u0627", "name:ru": "\u0421\u0430\u043d\u0434\u0432\u0438\u043a\u0430", "place": "town", "population": "115134", "population:date": "2020-01-01", "ref:ssb_tettsted": "0801-3024", "source:population": "SSB - befolkning i tettstedet", "ssr:stedsnr": "180676", "wikidata": "Q651744"}}, {"type": "node", "id": 20981158, "lat": 59.9133301, "lon": 10.7389701, "tags": {"admin_level": "2", "capital": "yes", "capital_ISO3166-1": "yes", "name": "Oslo", "name:am": "\u12a6\u1235\u120e", "name:ar": "\u0623\u0648\u0633\u0644\u0648", "name:arc": "\u0710\u0718\u0723\u0720\u0718", "name:ast": "Oslo", "name:bat-smg": "Uoslos", "name:be": "\u041e\u0441\u043b\u0430", "name:be-tarask": "\u041e\u0441\u044c\u043b\u0451", "name:bg": "\u041e\u0441\u043b\u043e", "name:bo": "\u0f68\u0f7c\u0f0b\u0f66\u0f72\u0f0b\u0f63\u0f7c\u0f0d", "name:bpy": "\u0993\u09b8\u09b2\u09cb", "name:ca": "Oslo", "name:ckb": "\u0626\u06c6\u0633\u0644\u06c6", "name:co": "Oslu", "name:cv": "\u041e\u0441\u043b\u043e", "name:de": "Oslo", "name:el": "\u038c\u03c3\u03bb\u03bf", "name:en": "Oslo", "name:eo": "Oslo", "name:es": "Oslo", "name:fa": "\u0627\u0633\u0644\u0648", "name:fr": "Oslo", "name:ga": "Osl\u00f3", "name:he": "\u05d0\u05d5\u05e1\u05dc\u05d5", "name:hi": "\u0913\u0938\u094d\u0932\u094b", "name:hu": "Oslo", "name:hy": "\u0555\u057d\u056c\u0578", "name:is": "\u00d3sl\u00f3", "name:it": "Oslo", "name:ja": "\u30aa\u30b9\u30ed", "name:ka": "\u10dd\u10e1\u10da\u10dd", "name:kk": "\u041e\u0441\u043b\u043e", "name:ko": "\uc624\uc2ac\ub85c", "name:ku": "Oslo", "name:kv": "\u041e\u0441\u043b\u043e", "name:ky": "\u041e\u0441\u043b\u043e", "name:la": "Asloa", "name:lez": "\u041e\u0441\u043b\u043e", "name:lt": "Oslas", "name:lzh": "\u5967\u65af\u9678", "name:mi": "\u014choro", "name:mk": "\u041e\u0441\u043b\u043e", "name:ml": "\u0d13\u0d38\u0d4d\u0d32\u0d4a", "name:mr": "\u0913\u0938\u094d\u0932\u094b", "name:mrj": "\u041e\u0441\u043b\u043e", "name:my": "\u1021\u1031\u102c\u1037\u1005\u101c\u102d\u102f\u1019\u103c\u102d\u102f\u1037", "name:myv": "\u041e\u0441\u043b\u043e \u043e\u0448", "name:mzn": "\u0627\u0633\u0644\u0648", "name:nds": "Oslo", "name:ne": "\u0913\u0938\u094d\u0932\u094b", "name:nn": "Oslo", "name:no": "Oslo", "name:oc": "\u00d2slo", "name:os": "\u041e\u0441\u043b\u043e", "name:pl": "Oslo", "name:pms": "\u00d2slo", "name:pnb": "\u0627\u0648\u0633\u0644\u0648", "name:ps": "\u0627\u0648\u0633\u0644\u0648", "name:pt": "Oslo", "name:ru": "\u041e\u0441\u043b\u043e", "name:sah": "\u041e\u0441\u043b\u043e", "name:scn": "Oslu", "name:sr": "\u041e\u0441\u043b\u043e", "name:sv": "Oslo", "name:ta": "\u0b92\u0bb8\u0bcd\u0bb2\u0bcb", "name:tg": "\u041e\u0441\u043b\u043e", "name:th": "\u0e2d\u0e2d\u0e2a\u0e42\u0e25", "name:tt": "\u041e\u0441\u043b\u043e", "name:udm": "\u041e\u0441\u043b\u043e", "name:ug": "\u0626\u0648\u0633\u0644\u0648", "name:uk": "\u041e\u0441\u043b\u043e", "name:ur": "\u0627\u0648\u0633\u0644\u0648", "name:yue": "\u5967\u65af\u9678", "name:zh": "\u5967\u65af\u9678", "name:zh-Hans": "\u5965\u65af\u9646", "old_name:1624-1924": "Christiania", "old_name:cs": "Kristiania", "old_name:en": "Christiania", "place": "city", "population": "1036059", "population:date": "2020-01-01", "ref:ssb_tettsted": "0801", "source:population": "SSB - befolkning i tettstedet", "wikidata": "Q585", "wikipedia": "de:Oslo", "wikipedia:en": "Oslo"}}, {"type": "node", "id": 31264088, "lat": 59.2133614, "lon": 10.9361604, "tags": {"name": "Fredrikstad", "name:ru": "\u0424\u0440\u0435\u0434\u0440\u0438\u043a\u0441\u0442\u0430\u0434", "place": "town", "population": "68876", "population:date": "2020-01-01", "ref:ssb_tettsted": "0022-3004", "source:population": "SSB - befolkning i tettstedet", "ssr:stedsnr": "365324", "wikidata": "Q107135"}}, {"type": "node", "id": 31264130, "lat": 59.2838792, "lon": 11.1096115, "tags": {"name": "Sarpsborg", "name:ru": "\u0421\u0430\u0440\u043f\u0441\u0431\u043e\u0440\u0433", "place": "town", "population": "47497", "population:date": "2020-01-01", "ref:ssb_tettsted": "0022-3003", "source:population": "SSB - befolkning i tettstedet", "ssr:stedsnr": "487975", "wikidata": "Q108025"}}, {"type": "node", "id": 31264120, "lat": 59.5556968, "lon": 11.3259216, "tags": {"name": "Mysen", "name:ru": "\u041c\u044e\u0441\u0435\u043d", "place": "town", "population": "6729", "population:date": "2020-01-01", "ref:ssb_tettsted": "0121", "source:population": "SSB - befolkning i tettstedet", "ssr:stedsnr": "550525"}}, {"type": "node", "id": 31264074, "lat": 59.583327, "lon": 11.1641532, "tags": {"name": "Askim", "name:ru": "\u0410\u0448\u0438\u043c", "place": "town", "population": "14592", "population:date": "2020-01-01", "ref:ssb_tettsted": "0111", "source:population": "SSB - befolkning i tettstedet", "ssr:stedsnr": "732636"}}, {"type": "node", "id": 6234312556, "lat": 59.9281257, "lon": 10.9534659, "tags": {"name": "L\u00f8renskog", "name:ps": "\u0644\u0648\u0631\u06d0\u0646 \u0633\u06a9\u0648\u06ab", "place": "town", "population": "41080", "population:date": "2020-01-01", "ref:ssb_tettsted": "0801-3029", "source:population": "SSB - befolkning i tettstedet", "start_date": "1908-01-01", "website": "https://www.lorenskog.kommune.no/", "wikidata": "Q57860", "wikipedia": "no:L\u00f8renskog"}}, {"type": "node", "id": 252573002, "lat": 59.955923, "lon": 11.0491123, "tags": {"name": "Lillestr\u00f8m", "name:ps": "\u0644\u064a\u0644\u0647 \u0633\u062a\u0631\u0648\u0645", "name:ru": "\u041b\u0438\u043b\u043b\u0435\u0441\u0442\u0440\u0451\u043c", "place": "town", "population": "56358", "population:date": "2020-01-01", "ref:ssb_tettsted": "0801-3030", "source:population": "SSB - befolkning i tettstedet"}}, {"type": "node", "id": 34553636, "lat": 61.2310369, "lon": 7.09309, "tags": {"alt_name": "Sogndalsfj\u00f8ra", "name": "Sogndal", "name:ru": "\u0421\u043e\u0433\u043d\u0434\u0430\u043b", "place": "town", "population": "4117", "population:date": "2020-01-01", "ref:ssb_tettsted": "5561", "source:population": "SSB - befolkning i tettstedet"}}, {"type": "node", "id": 280364160, "lat": 60.9862581, "lon": 9.2363406, "tags": {"name": "Fagernes", "name:ru": "\u0424\u0430\u0433\u0435\u0440\u043d\u0435\u0441", "place": "town", "population": "1968", "population:date": "2020-01-01", "ref:ssb_tettsted": "1711", "source:population": "SSB - befolkning i tettstedet"}}, {"type": "node", "id": 266127070, "lat": 61.5950619, "lon": 9.7337054, "tags": {"name": "Vinstra", "place": "town", "population": "2700", "population:date": "2020-01-01", "ref:ssb_tettsted": "1571", "source:population": "SSB - befolkning i tettstedet"}}, {"type": "node", "id": 31264116, "lat": 62.7378836, "lon": 7.1589568, "tags": {"name": "Molde", "name:ru": "\u041c\u043e\u043b\u0434\u0435", "name:zh": "\u83ab\u723e\u5fb7", "place": "town", "population": "21260", "population:date": "2020-01-01", "ref:ssb_tettsted": "6001", "source:population": "SSB - befolkning i tettstedet", "wikidata": "Q104095"}}, {"type": "node", "id": 31264151, "lat": 62.5678096, "lon": 7.6891801, "tags": {"name": "\u00c5ndalsnes", "name:ru": "\u041e\u043d\u0434\u0430\u043b\u0441\u043d\u0435\u0441", "place": "town", "population": "2428", "population:date": "2020-01-01", "ref:ssb_tettsted": "6192", "source:population": "SSB - befolkning i tettstedet"}}, {"type": "node", "id": 31264101, "lat": 63.1150646, "lon": 7.7332899, "tags": {"alt_name": "Kristiansund N", "name": "Kristiansund", "name:ru": "\u041a\u0440\u0438\u0441\u0442\u0438\u0430\u043d\u0441\u0443\u043d\u043d", "place": "town", "population": "18210", "population:date": "2020-01-01", "ref:ssb_tettsted": "6011", "source:population": "SSB - befolkning i tettstedet", "wikidata": "Q109483"}}, {"type": "node", "id": 31264127, "lat": 61.7712098, "lon": 9.5394379, "tags": {"name": "Otta", "name:ru": "\u0423\u0442\u0442\u0430", "place": "town", "population": "1715", "population:date": "2020-01-01", "ref:ssb_tettsted": "1582", "source:population": "SSB - befolkning i tettstedet"}}, {"type": "node", "id": 135642422, "lat": 62.6750314, "lon": 8.563095, "tags": {"name": "Sunndals\u00f8ra", "place": "town", "population": "3963", "population:date": "2020-01-01", "ref:ssb_tettsted": "6283", "source:population": "SSB - befolkning i tettstedet"}}, {"type": "node", "id": 2774665133, "lat": 62.5951984, "lon": 9.6860883, "tags": {"name": "Oppdal", "name:ru": "\u041e\u043f\u043f\u0434\u0430\u043b", "old_name": "Auna", "place": "town", "population": "4370", "population:date": "2020-01-01", "ref:ssb_tettsted": "6591", "source:population": "SSB - befolkning i tettstedet"}}, {"type": "node", "id": 279932407, "lat": 63.3050275, "lon": 9.8497373, "tags": {"name": "Orkanger", "place": "town", "population": "8572", "population:date": "2020-01-01", "ref:ssb_tettsted": "6621", "source:population": "SSB - befolkning i tettstedet"}}, {"type": "node", "id": 31264125, "lat": 60.1666996, "lon": 10.2550853, "tags": {"name": "H\u00f8nefoss", "name:ru": "\u0425\u0451\u043d\u0435\u0444\u043e\u0441\u0441", "place": "town", "population": "16260", "population:date": "2020-01-01", "ref:ssb_tettsted": "2033", "source": "earth-info.nga.mil", "source:population": "SSB - befolkning i tettstedet"}}, {"type": "node", "id": 312573431, "lat": 60.7280387, "lon": 10.6135261, "tags": {"name": "Raufoss", "name:ps": "\u0631\u0627\u0648\u0641\u0648\u0633", "name:ru": "\u0420\u0451\u0443\u0444\u043e\u0441\u0441", "place": "town", "population": "7737", "population:date": "2020-01-01", "ref:ssb_tettsted": "1645", "source:population": "SSB - befolkning i tettstedet"}}, {"type": "node", "id": 31264090, "lat": 60.7904113, "lon": 10.6899329, "tags": {"name": "Gj\u00f8vik", "name:ps": "\u064a\u0648\u0648\u064a\u06a9", "name:ru": "\u0419\u043e\u0432\u0438\u043a", "place": "town", "population": "20474", "population:date": "2020-01-01", "ref:ssb_tettsted": "1511", "source:population": "SSB - befolkning i tettstedet", "wikidata": "Q108031"}}, {"type": "node", "id": 252588838, "lat": 60.1415058, "lon": 11.1751426, "tags": {"name": "Jessheim", "name:ru": "\u0419\u0435\u0441\u0441\u0445\u0435\u0439\u043c", "place": "town", "population": "21598", "population:date": "2020-01-01", "ref:ssb_tettsted": "0659", "source:population": "SSB - befolkning i tettstedet"}}, {"type": "node", "id": 75519989, "lat": 60.3285925, "lon": 11.2613229, "tags": {"name": "Eidsvoll", "name:ru": "\u042d\u0439\u0434\u0441\u0432\u043e\u043b\u043b", "place": "town", "population": "5946", "population:date": "2020-01-01", "ref:ssb_tettsted": "0673", "source:population": "SSB - befolkning i tettstedet", "wikidata": "Q57080"}}, {"type": "node", "id": 29880578, "lat": 60.7955967, "lon": 11.0746049, "tags": {"name": "Hamar", "name:ps": "\u0647\u0627\u0645\u0627\u0631", "place": "town", "population": "28434", "population:date": "2020-01-01", "ref:ssb_tettsted": "1001", "source:population": "SSB - befolkning i tettstedet", "wikidata": "Q104400"}}, {"type": "node", "id": 31264110, "lat": 61.1145379, "lon": 10.4671034, "tags": {"name": "Lillehammer", "name:ps": "\u0644\u064a\u0644\u0647 \u0647\u0627\u0645\u0627\u0631", "name:ru": "\u041b\u0438\u043b\u043b\u0435\u0445\u0430\u043c\u043c\u0435\u0440", "place": "town", "population": "20933", "population:date": "2020-01-01", "ref:ssb_tettsted": "1501", "source:population": "SSB - befolkning i tettstedet"}}, {"type": "node", "id": 298010354, "lat": 60.9305469, "lon": 10.6996643, "tags": {"name": "Moelv", "name:ps": "\u0645\u0648\u0648\u0644", "place": "town", "population": "4438", "population:date": "2020-01-01", "ref:ssb_tettsted": "1023", "source:population": "SSB - befolkning i tettstedet", "wikidata": "Q1863851", "wikipedia": "en:Moelv"}}, {"type": "node", "id": 2555197891, "lat": 60.8866339, "lon": 10.9368128, "tags": {"name": "Brumunddal", "name:ps": "\u0628\u0631\u0648\u0645\u0648\u0646\u062f\u0627\u0644", "name:ru": "\u0411\u0440\u0443\u043c\u0443\u043d\u0434\u0434\u0430\u043b", "place": "town", "population": "10919", "population:date": "2020-01-01", "ref:ssb_tettsted": "1021", "source:population": "SSB - befolkning i tettstedet", "wikidata": "Q992492", "wikipedia": "ps:\u0628\u0631\u0648\u0645\u0648\u0646\u062f\u0627\u0644"}}, {"type": "node", "id": 29880474, "lat": 60.8829633, "lon": 11.5602384, "tags": {"name": "Elverum", "name:ru": "\u042d\u043b\u044c\u0432\u0435\u0440\u0443\u043c", "place": "town", "population": "15248", "population:date": "2020-01-01", "ref:ssb_tettsted": "1121", "source:population": "SSB - befolkning i tettstedet", "wikidata": "Q109140"}}, {"type": "node", "id": 31264098, "lat": 60.1866725, "lon": 12.0050299, "tags": {"name": "Kongsvinger", "name:ru": "\u041a\u043e\u043d\u0433\u0441\u0432\u0438\u043d\u0433\u0435\u0440", "place": "town", "population": "12088", "population:date": "2020-01-01", "ref:ssb_tettsted": "1011", "source:population": "SSB - befolkning i tettstedet", "wikidata": "Q109499"}}, {"type": "node", "id": 34222956, "lat": 62.2775149, "lon": 10.7769656, "tags": {"name": "Tynset", "name:ru": "\u0422\u044e\u043d\u0441\u0435\u0442", "place": "town", "population": "2803", "population:date": "2020-01-01", "ref:ssb_tettsted": "1191", "source:population": "SSB - befolkning i tettstedet"}}, {"type": "node", "id": 60647032, "lat": 62.5749835, "lon": 11.3821349, "tags": {"alt_name": "Bergstaden", "alt_name:sma": "Plaassje", "name": "R\u00f8ros", "name:de": "R\u00f6ros", "name:ru": "\u0420\u0451\u0440\u0443\u0441", "name:sma": "Plassje", "name:sv": "R\u00f6ros", "place": "town", "population": "3836", "population:date": "2020-01-01", "ref:ssb_tettsted": "6631", "source:population": "SSB - befolkning i tettstedet", "wikidata": "Q108999", "wikipedia": "de:R\u00f6ros"}}, {"type": "node", "id": 31264076, "lat": 63.6868699, "lon": 9.6663716, "tags": {"name": "Brekstad", "name:ru": "\u0411\u0440\u0435\u043a\u0441\u0442\u0430\u0434", "place": "town", "population": "2291", "population:date": "2020-01-01", "ref:ssb_tettsted": "6543", "source:population": "SSB - befolkning i tettstedet"}}, {"type": "node", "id": 31264142, "lat": 63.4305658, "lon": 10.3951929, "tags": {"alt_name:ar": "\u062a\u0631\u0648\u0646\u062f\u064a\u0645", "name": "Trondheim", "name:ar": "\u062a\u0631\u0648\u0646\u062f\u0647\u0627\u064a\u0645", "name:bpy": "\u099f\u09cd\u09b0\u09cb\u09a8\u09a1\u09c7\u09b9\u09bf\u09ae", "name:is": "\u00der\u00e1ndheimur", "name:lt": "Trondheimas", "name:lv": "Trondheima", "name:ru": "\u0422\u0440\u043e\u043d\u0445\u0435\u0439\u043c", "name:se": "Troandin", "name:sma": "Tr\u00e5ante", "name:smj": "Tr\u00e5ante", "name:sr": "\u0422\u0440\u043e\u043d\u0434\u0445\u0435\u0458\u043c", "name:sv": "Trondheim", "name:zh": "\u7279\u9686\u8d6b\u59c6", "old_name": "Kaupangen;Nidaros;Throndhjem;Trondhjem", "old_name:de": "Drontheim", "place": "city", "population": "189271", "population:date": "2020-01-01", "ref:ssb_tettsted": "6501", "source:population": "SSB - befolkning i tettstedet", "website": "https://www.trondheim.no/", "wikidata": "Q25804", "wikipedia": "no:Trondheim"}}, {"type": "node", "id": 29677359, "lat": 63.4698298, "lon": 10.9230674, "tags": {"name": "Stj\u00f8rdal", "name:ru": "\u0421\u0445\u044c\u0451\u0440\u0434\u0430\u043b", "old_name": "Stj\u00f8rdalshalsen", "place": "town", "population": "14868", "population:date": "2020-01-01", "ref:ssb_tettsted": "7034", "source:population": "SSB - befolkning i tettstedet", "wikidata": "Q217802"}}, {"type": "node", "id": 31264105, "lat": 63.7462033, "lon": 11.2998629, "tags": {"name": "Levanger", "name:ru": "\u041b\u0435\u0432\u0430\u043d\u0433\u0435\u0440", "place": "town", "population": "10333", "population:date": "2020-01-01", "postal_code": "7600", "ref:ssb_tettsted": "7051", "source:population": "SSB - befolkning i tettstedet", "wikidata": "Q216430"}}, {"type": "node", "id": 31264154, "lat": 63.7921736, "lon": 11.4830651, "tags": {"alt_name": "Verdal", "name": "Verdals\u00f8ra", "name:ru": "\u0412\u0435\u0440\u0434\u0430\u043b\u0441\u0451\u0440\u0430", "place": "town", "population": "8356", "population:date": "2020-01-01", "ref:ssb_tettsted": "7068", "source:population": "SSB - befolkning i tettstedet"}}, {"type": "node", "id": 31264137, "lat": 64.0185782, "lon": 11.4937998, "tags": {"capital": "4", "name": "Steinkjer", "name:ru": "\u0421\u0442\u0435\u0439\u043d\u0445\u044c\u0435\u0440", "name:zh": "\u65af\u6cf0\u6069\u8b1d\u723e", "place": "town", "population": "12976", "population:date": "2020-01-01", "ref:ssb_tettsted": "7003", "source:population": "SSB - befolkning i tettstedet", "wikidata": "Q110431"}}, {"type": "node", "id": 31264118, "lat": 64.469427, "lon": 11.5099523, "tags": {"name": "Namsos", "name:ru": "\u041d\u0430\u043c\u0441\u0443\u0441", "place": "town", "population": "8421", "population:date": "2020-01-01", "ref:ssb_tettsted": "7013", "source:population": "SSB - befolkning i tettstedet", "wikidata": "Q6962086"}}, {"type": "node", "id": 274068416, "lat": 64.8623037, "lon": 11.2346459, "tags": {"name": "R\u00f8rvik", "name:ru": "\u0420\u0451\u0440\u0432\u0438\u043a", "place": "town", "population": "3205", "population:date": "2020-01-01", "ref:ssb_tettsted": "7181", "source:population": "SSB - befolkning i tettstedet"}}, {"type": "node", "id": 31264079, "lat": 65.4737042, "lon": 12.2111915, "tags": {"name": "Br\u00f8nn\u00f8ysund", "name:ru": "\u0411\u0440\u0451\u043d\u043d\u0451\u0439\u0441\u0443\u043d\u043d", "name:sma": "Br\u00efenne", "place": "town", "population": "5071", "population:date": "2020-01-01", "ref:ssb_tettsted": "7542", "source:population": "SSB - befolkning i tettstedet"}}, {"type": "node", "id": 31264115, "lat": 65.8376537, "lon": 13.1943186, "tags": {"name": "Mosj\u00f8en", "name:ru": "\u041c\u0443\u0448\u0451\u044d\u043d", "name:sma": "Mussere", "place": "town", "population": "9769", "population:date": "2020-01-01", "ref:ssb_tettsted": "7581", "source:population": "SSB - befolkning i tettstedet"}}, {"type": "node", "id": 31264135, "lat": 66.0222279, "lon": 12.6364387, "tags": {"name": "Sandnessj\u00f8en", "name:ru": "\u0421\u0430\u043d\u0434\u043d\u0435\u0441\u0441\u0439\u043e\u044d\u043d", "place": "town", "population": "6096", "population:date": "2020-01-01", "ref:ssb_tettsted": "7572", "source:population": "SSB - befolkning i tettstedet"}}, {"type": "node", "id": 31264117, "lat": 66.3110969, "lon": 14.1386991, "tags": {"name": "Mo i Rana", "name:ru": "\u041c\u0443-\u0438-\u0420\u0430\u043d\u0430", "name:se": "Muoffi", "name:sju": "M\u00e5hvie", "name:sma": "M\u00e5ehvie", "place": "town", "population": "18898", "population:date": "2020-01-01", "ref:ssb_tettsted": "7631", "source:population": "SSB - befolkning i tettstedet", "wikidata": "Q59169"}}, {"type": "node", "id": 1312806546, "lat": 66.8166262, "lon": 13.9440905, "tags": {"name": "Glomfjord", "place": "town", "population": "1077", "population:date": "2020-01-01", "ref:ssb_tettsted": "7662", "source:population": "SSB - befolkning i tettstedet", "ssr:stedsnr": "866308"}}, {"type": "node", "id": 1773877380, "lat": 67.2839476, "lon": 14.3825834, "tags": {"designation": "City and Capital of Nordland", "int_name": "Bod\u00f8", "name": "Bod\u00f8", "name:bat-smg": "Bod\u0117", "name:be": "\u0411\u0443\u0434\u0437\u0451", "name:be-tarask": "\u0411\u0443\u0434\u044d", "name:bg": "\u0411\u0443\u0434\u044c\u043e", "name:bpy": "\u09ac\u09cb\u09a1\u09be", "name:ja": "\u30dc\u30fc\u30c9\u30fc", "name:ko": "\ubcf4\ub418", "name:lt": "Bud\u0117", "name:mk": "\u0411\u043e\u0434\u0435", "name:os": "\u0411\u0443\u0434\u0451", "name:pnb": "\u0628\u0648\u0688\u0648", "name:ru": "\u0411\u0443\u0434\u0451", "name:se": "Budejju", "name:sje": "Buvdda", "name:smj": "B\u00e5d\u00e5ddjo", "name:sr": "\u0411\u043e\u0434\u0435", "name:uk": "\u0411\u0443\u0434\u0435", "name:zh": "\u535a\u5fb7", "old_name": "Hundholmen", "place": "city", "population": "42102", "population:date": "2020-01-01", "ref:ssb_tettsted": "7501", "source:population": "SSB - befolkning i tettstedet", "wikidata": "Q39383", "wikipedia": "no:Bod\u00f8"}}, {"type": "node", "id": 31264104, "lat": 68.1453921, "lon": 13.61002, "tags": {"name": "Leknes", "name:ru": "\u041b\u0435\u043a\u043d\u0435\u0441", "name:se": "Liehkke", "place": "town", "population": "3599", "population:date": "2020-01-01", "ref:ssb_tettsted": "7802", "source:population": "SSB - befolkning i tettstedet"}}, {"type": "node", "id": 31264147, "lat": 68.2347719, "lon": 14.564736, "tags": {"name": "Svolv\u00e6r", "name:ru": "\u0421\u0432\u043e\u043b\u044c\u0432\u0435\u0440", "name:se": "Sp\u00e5llavuolle", "place": "town", "population": "4736", "population:date": "2020-01-01", "ref:ssb_tettsted": "7814", "source:population": "SSB - befolkning i tettstedet"}}, {"type": "node", "id": 282491564, "lat": 67.1003378, "lon": 15.4001191, "tags": {"admin_level": "5", "name": "Rognan", "name:ru": "\u0420\u043e\u0433\u043d\u0430\u043d", "name:sje": "R\u00e5gno", "name:smj": "R\u00e5gno", "place": "town", "population": "2603", "population:date": "2020-01-01", "ref:ssb_tettsted": "7681", "source:population": "SSB - befolkning i tettstedet"}}, {"type": "node", "id": 31264084, "lat": 67.2609773, "lon": 15.398648, "tags": {"admin_level": "5", "name": "Fauske", "name:ru": "\u0424\u0451\u0443\u0441\u043a\u0435", "name:se": "Fuoisku", "name:smj": "Fuossko", "place": "town", "population": "6386", "population:date": "2020-01-01", "ref:ssb_tettsted": "7692", "source:population": "SSB - befolkning i tettstedet"}}, {"type": "node", "id": 31264146, "lat": 68.5619325, "lon": 14.9077614, "tags": {"name": "Stokmarknes", "name:ru": "\u0421\u0442\u043e\u043a\u043c\u0430\u0440\u043a\u043d\u0435\u0441", "place": "town", "population": "3445", "population:date": "2020-01-01", "ref:ssb_tettsted": "7821", "source:population": "SSB - befolkning i tettstedet"}}, {"type": "node", "id": 31264141, "lat": 68.705422, "lon": 15.4143625, "tags": {"name": "Sortland", "name:ru": "\u0421\u043e\u0440\u0442\u043b\u0430\u043d\u0434", "name:sma": "Suorta", "place": "town", "population": "5487", "population:date": "2020-01-01", "ref:ssb_tettsted": "7851", "source:population": "SSB - befolkning i tettstedet"}}, {"type": "node", "id": 21518370, "lat": 68.8012505, "lon": 16.5201176, "tags": {"name": "Harstad", "name:ru": "\u0425\u0430\u0440\u0441\u0442\u0430\u0434", "name:se": "H\u00e1rstt\u00e1k", "place": "town", "population": "20920", "population:date": "2020-01-01", "ref:ssb_tettsted": "8003", "source:population": "SSB - befolkning i tettstedet", "wikidata": "Q1034159"}}, {"type": "node", "id": 20981180, "lat": 68.4396792, "lon": 17.426652, "tags": {"name": "Narvik", "name:fkv": "Victorianhamina", "name:ru": "\u041d\u0430\u0440\u0432\u0438\u043a", "name:se": "\u00c1hk\u00e1nj\u00e1rga", "name:smj": "\u00c1hk\u00e1nj\u00e1rgga", "old_name": "Victoriahavn", "place": "town", "population": "14092", "population:date": "2020-01-01", "ref:ssb_tettsted": "7512", "source:population": "SSB - befolkning i tettstedet", "wikidata": "Q59101"}}, {"type": "node", "id": 31264085, "lat": 69.2322815, "lon": 17.9805425, "tags": {"name": "Finnsnes", "name:ru": "\u0424\u0438\u043d\u043d\u0441\u043d\u0435\u0441", "place": "town", "population": "4782", "population:date": "2020-01-01", "ref:ssb_tettsted": "8121", "source": "earth-info.nga.mil", "source:population": "SSB - befolkning i tettstedet", "wikidata": "Q1015949"}}, {"type": "node", "id": 3554636995, "lat": 69.649208, "lon": 18.9543434, "tags": {"name": "Troms\u00f8", "name:de": "Troms\u00f6", "name:fi": "Tromssa", "name:hu": "Troms\u00f8", "name:lt": "Trums\u0117", "name:lv": "Tromse", "name:ru": "\u0422\u0440\u043e\u043c\u0441\u0451", "name:se": "Romsa", "name:tr": "Tromso", "name:zh": "\u7279\u7f85\u59c6\u745f", "place": "city", "population": "40926", "population:date": "2020-01-01", "ref:ssb_tettsted": "8011", "source:population": "SSB - befolkning i tettstedet", "wikidata": "Q26087", "wikipedia": "en:Troms\u00f8"}}, {"type": "node", "id": 21302548, "lat": 69.7681817, "lon": 21.0245482, "tags": {"name": "Storslett", "name:ru": "\u0421\u0442\u043e\u0440\u0441\u043b\u0435\u0442", "place": "town", "population": "1802", "population:date": "2020-01-01", "ref:ssb_tettsted": "8182", "source:population": "SSB - befolkning i tettstedet"}}, {"type": "node", "id": 198296889, "lat": 69.9669551, "lon": 23.2725462, "tags": {"name": "Alta", "name:fi": "Alattio", "name:fkv": "Alattio", "name:ru": "\u0410\u043b\u044c\u0442\u0430", "name:se": "\u00c1lt\u00e1", "place": "town", "population": "15484", "population:date": "2020-01-01", "ref:ssb_tettsted": "8542", "source:population": "SSB - befolkning i tettstedet", "wikidata": "Q3366952", "wikipedia": "en:Alta (town)"}}, {"type": "node", "id": 27129690, "lat": 69.7271478, "lon": 30.0448971, "tags": {"name": "Kirkenes", "name:fi": "Kirkkoniemi", "name:ru": "\u041a\u0438\u0440\u043a\u0435\u043d\u0435\u0441", "name:se": "Girkonj\u00e1rga", "name:zh": "\u5e0c\u5c14\u514b\u5185\u65af", "place": "town", "population": "3492", "population:date": "2020-01-01", "ref:ssb_tettsted": "8684", "source:population": "SSB - befolkning i tettstedet", "wikidata": "Q209423"}}, {"type": "node", "id": 31264092, "lat": 70.6636329, "lon": 23.6791211, "tags": {"name": "Hammerfest", "name:ckb": "\u0647\u0627\u0645\u06d5\u0631\u0641\u06ce\u0633\u062a", "name:he": "\u05d4\u05de\u05e8\u05e4\u05e1\u05d8", "name:ru": "\u0425\u0430\u043c\u043c\u0435\u0440\u0444\u0435\u0441\u0442", "name:se": "H\u00e1mmerfeasta", "place": "town", "population": "8016", "population:date": "2020-01-01", "ref:ssb_tettsted": "8501", "source": "earth-info.nga.mil", "source:population": "SSB - befolkning i tettstedet", "wikidata": "Q721374", "wikipedia": "en:Hammerfest (town)"}}, {"type": "node", "id": 31264096, "lat": 70.9827154, "lon": 25.9743779, "tags": {"name": "Honningsv\u00e5g", "name:ru": "\u0425\u043e\u043d\u043d\u0438\u043d\u0433\u0441\u0432\u043e\u0433", "note": "Moved closer to the actual town", "place": "town", "population": "2419", "population:date": "2020-01-01", "ref:ssb_tettsted": "8602", "source": "earth-info.nga.mil", "source:population": "SSB - befolkning i tettstedet"}}, {"type": "node", "id": 302081475, "lat": 78.065362, "lon": 14.2172367, "tags": {"description": "Russian settlement", "gns_classification": "PPL", "gns_uni": "-3387737", "name": "Barentsburg", "name:ar": "\u0628\u0627\u0631\u0646\u062a\u0633\u0628\u0648\u0631\u063a", "name:nl": "Barentszburg", "name:ru": "\u0411\u0430\u0440\u0435\u043d\u0446\u0431\u0443\u0440\u0433", "place": "town", "population": "477", "ssr:stedsnr": "830997", "wikidata": "Q690333", "wikipedia": "en:Barentsburg", "wikipedia:ru": "\u0411\u0430\u0440\u0435\u043d\u0446\u0431\u0443\u0440\u0433"}}, {"type": "node", "id": 7952474442, "lat": 78.3818823, "lon": 14.660228, "tags": {"name": "Rijpsburg", "name:ru": "\u0420\u0438\u0439\u043f\u0441\u0431\u0443\u0440\u0433", "place": "town"}}, {"type": "node", "id": 269194842, "lat": 78.2231558, "lon": 15.6463656, "tags": {"capital": "4", "name": "Longyearbyen", "name:ar": "\u0644\u0648\u0646\u0642\u064a\u064a\u0631\u0628\u064a\u0646", "name:ps": "\u0644\u0627\u0646\u06ab\u06cc\u0631\u0628\u06cc\u0646", "name:ru": "\u041b\u043e\u043d\u0433\u0439\u0438\u0440", "name:uk": "\u041b\u043e\u043d\u0433'\u0457\u0440", "place": "town", "population": "2144", "population:date": "2013", "source:name": "Kartverket SSR2", "ssr:stedsnr": "966478", "wikidata": "Q25923", "wikipedia": "no:Longyearbyen"}}, {"type": "node", "id": 1997308009, "lat": 70.0745265, "lon": 29.7525051, "tags": {"name": "Vads\u00f8", "name:ckb": "\u06a4\u0627\u062f\u0633\u06c6", "name:fi": "Vesisaari", "name:ru": "\u0412\u0430\u0434\u0441\u0451", "name:se": "\u010c\u00e1hcesuolu", "place": "town", "population": "4784", "population:date": "2020-01-01", "ref:ssb_tettsted": "8521", "source:population": "SSB - befolkning i tettstedet", "wikidata": "Q7908355"}}, {"type": "node", "id": 31264165, "lat": 70.3677049, "lon": 31.0997854, "tags": {"name": "Vard\u00f8", "name:ckb": "\u06a4\u0627\u0631\u062f\u06c6", "name:fi": "Vuoreija", "name:ru": "\u0412\u0430\u0440\u0434\u0451", "old_name:sv": "Vardohus", "place": "town", "population": "1800", "population:date": "2020-01-01", "ref:ssb_tettsted": "8511", "source": "earth-info.nga.mil", "source:population": "SSB - befolkning i tettstedet"}}]}