{"version": 0.6, "generator": "Overpass API 0.7.56.7 b85c4387", "osm3s": {"timestamp_osm_base": "2021-03-01T18:49:22Z", "timestamp_areas_base": "2021-03-01T18:09:42Z", "copyright": "The data included in this document is from www.openstreetmap.org. The data is made available under ODbL."}, "elements": [{"type": "node", "id": 2246343232, "lat": 39.0648291, "lon": 8.4562962, "tags": {"is_in:continent": "Europe", "is_in:country_code": "IT", "name": "Santu Antiogu/Sant'Antioco", "name:de": "Sant\u2019Antioco", "name:en": "Sant\u2019Antioco", "name:es": "Sant\u2019Antioco", "name:fr": "Sant\u2019Antioco", "name:it": "Sant'Antioco", "name:sc": "Santu Antiogu", "place": "town", "population": "11390", "postal_code": "09017", "ref:LOCODE": "ITNTA", "website": "http://www.comune.santantioco.ca.it", "wikidata": "Q286709", "wikipedia": "it:Sant'Antioco (Italia)", "wikipedia:sc": "Santu Antiogu"}}, {"type": "node", "id": 72990702, "lat": 39.165332, "lon": 8.527834, "tags": {"alt_name": "Carb\u00f2nia", "capital": "6", "gfoss_id": "7409", "name": "Carbonia", "name:el": "\u039a\u03b1\u03c1\u03bc\u03c0\u03cc\u03bd\u03b9\u03b1", "name:it": "Carbonia", "name:sc": "Carb\u00f2nia", "name:zh": "\u5361\u5c14\u535a\u5c3c\u4e9a", "note": "secondo la wiki italiana, i capoluoghi di provincia vanno taggati con place=city solo se superano 50mila abitanti. According to the italian wiki, the provincial capitals need to be tagged as place=city regardless of population (only over 50k)", "place": "town", "population": "30447", "postal_code": "09013", "source": "geodati.gfoss.it", "website": "http://www.comune.carbonia.ci.it/urbiportal/home.html", "wikidata": "Q13660", "wikipedia": "it:Carbonia"}}, {"type": "node", "id": 72990716, "lat": 39.3125402, "lon": 8.5341109, "tags": {"capital": "8", "gfoss_id": "7430", "is_in": "Sud Sardegna, Sardegna, Italy", "name": "Igr\u00e8sias/Iglesias", "name:fr": "Iglesias", "name:it": "Iglesias", "name:sc": "Igresias", "name:zh": "\u4f0a\u683c\u83b1\u590f\u65af", "place": "town", "population": "28170", "postal_code": "09016", "source": "geodati.gfoss.it", "wikidata": "Q13661", "wikipedia": "sc:Igr\u00e8sias", "wikipedia:it": "Iglesias"}}, {"type": "node", "id": 72990822, "lat": 39.175313, "lon": 8.9719503, "tags": {"name": "Cabuderra/Capoterra", "name:it": "Capoterra", "name:sc": "Cabuderra", "place": "town", "population": "21391", "postal_code": "09012", "source": "geodati.gfoss.it", "website": "https://www.comune.capoterra.ca.it/", "wikidata": "Q283723", "wikipedia": "sc:Cabuderra"}}, {"type": "node", "id": 72990657, "lat": 39.2169525, "lon": 9.1128513, "tags": {"alt_name": "Casteddu", "capital": "4", "ele": "23", "gfoss_id": "7406", "name": "Casteddu/Cagliari", "name:ar": "\u0643\u0627\u0644\u064a\u0627\u0631\u064a", "name:be": "\u041a\u0430\u043b\u044c\u044f\u0440\u044b", "name:ca": "C\u00e0ller", "name:de": "Cagliari", "name:el": "\u039a\u03ac\u03bb\u03b9\u03b1\u03c1\u03b9", "name:en": "Cagliari", "name:es": "Cagliari", "name:et": "Cagliari", "name:fa": "\u06a9\u0627\u0644\u06cc\u0627\u0631\u06cc", "name:fr": "Cagliari", "name:it": "Cagliari", "name:prefix": "city", "name:ru": "\u041a\u0430\u043b\u044c\u044f\u0440\u0438", "name:sc": "Casteddu", "name:uk": "\u041a\u0430\u043b\u044c\u044f\u0440\u0456", "name:zh": "\u5361\u5229\u4e9a\u91cc", "place": "city", "population": "154478", "postal_code": "09121-09131, 09134", "ref:LOCODE": "ITCAG", "source": "geodati.gfoss.it", "website": "http://www.comune.cagliari.it/portale/", "wikidata": "Q1897", "wikipedia": "it:Cagliari"}}, {"type": "node", "id": 72990791, "lat": 39.291538, "lon": 9.001542, "tags": {"gfoss_id": "7400", "int_name": "Assemini", "is_in": "Cagliari, Sardegna, Italy", "name": "Ass\u00e8mini/Assemini", "name:it": "Assemini", "name:sc": "Ass\u00e8mini", "place": "town", "population": "23973", "postal_code": "09032", "source": "geodati.gfoss.it", "website": "http://www.comune.assemini.ca.it/", "wikidata": "Q283609", "wikipedia": "sc:Ass\u00e8mini", "wikipedia:it": "Assemini"}}, {"type": "node", "id": 72991529, "lat": 39.2942475, "lon": 9.0929717, "tags": {"gfoss_id": "7471", "is_in": "Cagliari, Sardegna, Italy", "name": "Sestu", "name:it": "Sestu", "name:sc": "Sestu", "place": "town", "population": "15233", "postal_code": "09028", "source": "geodati.gfoss.it", "website": "http://www.comune.sestu.ca.it/", "wikidata": "Q285089", "wikipedia": "it:Sestu", "wikipedia:sc": "Sestu"}}, {"type": "node", "id": 410769879, "lat": 39.2457848, "lon": 9.1288165, "tags": {"is_in:city": "Cagliari", "name": "Pirri", "place": "town", "population": "29406", "wikidata": "Q3905664", "wikipedia": "it:Pirri"}}, {"type": "node", "id": 72991065, "lat": 39.2569504, "lon": 9.1675535, "tags": {"gfoss_id": "7465", "name": "Ceraxus/Selargius", "name:it": "Selargius", "name:sc": "Ceraxus", "official_name": "Ceraxius/Selargius", "official_name:sc": "Ceraxius", "place": "town", "population": "28911", "postal_code": "09047", "ref:LOCODE": "ITZTD", "source": "geodati.gfoss.it", "website": "http://www.comune.selargius.ca.it/", "wikidata": "Q145856", "wikipedia": "sc:Ceraxius"}}, {"type": "node", "id": 72991192, "lat": 39.25951, "lon": 9.1458562, "tags": {"alt_name": "Paulli", "gfoss_id": "7506", "name": "Pa\u00f9li/Monserrato", "name:it": "Monserrato", "name:sc": "Pa\u00f9li", "place": "town", "population": "20829", "postal_code": "09042", "ref:LOCODE": "ITONS", "source": "geodati.gfoss.it", "website": "https://www.comune.monserrato.ca.it/", "wikidata": "Q284342", "wikipedia": "sc:Pa\u00f9li"}}, {"type": "node", "id": 72990954, "lat": 39.2399728, "lon": 9.1880967, "tags": {"alt_name": "Cuartu Sant'Aleni", "gfoss_id": "7448", "is_in": "Cagliari, Sardegna, Italy", "name": "Cuartu Sant'Aleni/Quartu Sant'Elena", "name:it": "Quartu Sant'Elena", "name:sc": "Cuartu Sant'Aleni", "place": "town", "population": "70343", "postal_code": "09045", "postal_code_1": "09046", "source": "geodati.gfoss.it", "website": "http://www.comune.quartusantelena.ca.it/", "wikidata": "Q284516", "wikipedia": "it:Quartu Sant'Elena", "wikipedia:sc": "Quartu Sant'Aleni"}}, {"type": "node", "id": 72991806, "lat": 39.254139, "lon": 9.178846, "tags": {"alt_name": "Cuartuciu", "gfoss_id": "7502", "int_name": "Quartucciu", "is_in": "Cagliari, Sardegna, Italy", "name": "Cuart\u00f9ciu/Quartucciu", "name:it": "Quartucciu", "name:sc": "Cuart\u00f9ciu", "place": "town", "population": "10766", "postal_code": "09044", "source": "geodati.gfoss.it", "website": "http://www.comune.quartucciu.ca.it/", "wikidata": "Q284501", "wikipedia": "it:Quartucciu", "wikipedia:sc": "Quart\u00f9cciu"}}, {"type": "node", "id": 72991602, "lat": 39.3042403, "lon": 9.2035381, "tags": {"gfoss_id": "7477", "int_name": "Sinnai", "name": "S\u00ecnnia/Sinnai", "name:it": "Sinnai", "name:sc": "S\u00ecnnia", "place": "town", "population": "15235", "postal_code": "09048", "source": "geodati.gfoss.it", "website": "http://www.comune.sinnai.ca.it/", "wikidata": "Q285172", "wikipedia": "it:Sinnai", "wikipedia:sc": "S\u00ecnnia"}}, {"type": "node", "id": 72990899, "lat": 39.54134, "lon": 8.633131, "tags": {"gfoss_id": "7429", "int_name": "Guspini", "name": "G\u00f9spini/Guspini", "name:it": "Guspini", "name:sc": "G\u00f9spini", "place": "town", "population": "12695", "postal_code": "09036", "ref:LOCODE": "ITZKC", "source": "geodati.gfoss.it", "website": "http://www.comune.guspini.vs.it/", "wikidata": "Q287739", "wikipedia": "it:Guspini", "wikipedia:sc": "G\u00f9spini"}}, {"type": "node", "id": 72990733, "lat": 39.4569925, "lon": 8.7367219, "tags": {"alt_name": "Bidda de Cidru", "alt_name_1": "Biddexidru", "capital": "8", "gfoss_id": "7489", "int_name": "Villacidro", "name": "Biddacidru/Villacidro", "name:it": "Villacidro", "name:sc": "Biddacidru", "place": "town", "population": "13846", "postal_code": "09039", "ref:LOCODE": "ITVCD", "source": "geodati.gfoss.it", "website": "http://www.comune.villacidro.vs.it/", "wikidata": "Q13654", "wikipedia": "sc:Biddacidru"}}, {"type": "node", "id": 72993423, "lat": 39.7203011, "lon": 8.6361253, "tags": {"alt_name": "Terrarba", "gfoss_id": "7674", "int_name": "Terralba", "is_in": "Oristano, Sardegna, Italy", "name": "Terraba/Terralba", "name:it": "Terralba", "name:sc": "Terraba", "place": "town", "population": "10259", "postal_code": "09098", "source": "geodati.gfoss.it", "website": "https://www.comune.terralba.or.it/", "wikidata": "Q389264", "wikipedia": "it:Terralba"}}, {"type": "node", "id": 861110459, "lat": 37.7979221, "lon": 12.4342091, "tags": {"alt_name:ar": "\u0645\u0627\u0631\u0633\u0627\u0644\u0627", "name": "Marsala", "name:ar": "\u0645\u0631\u0633\u0649 \u0639\u0644\u064a", "name:be": "\u041c\u0430\u0440\u0441\u0430\u043b\u0430", "name:bg": "\u041c\u0430\u0440\u0441\u0430\u043b\u0430", "name:fa": "\u0645\u0627\u0631\u0633\u0627\u0644\u0627", "name:ja": "\u30de\u30eb\u30b5\u30fc\u30e9", "name:ko": "\ub9c8\ub974\uc0b4\ub77c", "name:la": "Lilybaeum", "name:ru": "\u041c\u0430\u0440\u0441\u0430\u043b\u0430", "name:scn": "Maissala", "name:sr": "\u041c\u0430\u0440\u0441\u0430\u043b\u0430", "name:uk": "\u041c\u0430\u0440\u0441\u0430\u043b\u0430", "name:zh": "\u99ac\u723e\u85a9\u62c9", "place": "town", "population": "82355", "source": "Istat novembre 2019"}}, {"type": "node", "id": 67253724, "lat": 38.0174321, "lon": 12.515992, "tags": {"capital": "6", "name": "Trapani", "name:an": "Tr\u00e0pani", "name:ar": "\u062a\u0631\u0627\u0628\u0627\u0646\u064a", "name:bg": "\u0422\u0440\u0430\u043f\u0430\u043d\u0438", "name:el": "\u0394\u03c1\u03ad\u03c0\u03b1\u03bd\u03bf\u03bd", "name:en": "Trapani", "name:fa": "\u062a\u0631\u0627\u067e\u0627\u0646\u06cc", "name:he": "\u05d8\u05e8\u05e4\u05d0\u05e0\u05d9", "name:ja": "\u30c8\u30e9\u30fc\u30d1\u30cb", "name:la": "Drepanum", "name:pms": "Tr\u00e0pani", "name:pt": "Tr\u00e1pani", "name:roa-tara": "Trapane", "name:ru": "\u0422\u0440\u0430\u043f\u0430\u043d\u0438", "name:scn": "Tr\u00e0pani", "name:sr": "\u0422\u0440\u0430\u043f\u0430\u043d\u0438", "name:uk": "\u0422\u0440\u0430\u043f\u0430\u043d\u0456", "name:zh": "\u7279\u62c9\u5e15\u5c3c", "note": "popolazione ottenuta sottraendo dal dato istat di novembre 2019 gli 8669 abitanti di Misiliscemi (L.R. 3/2021)", "place": "city", "population": "58438", "source": "Istat novembre 2019", "wikidata": "Q13664"}}, {"type": "node", "id": 67257015, "lat": 37.9812974, "lon": 12.5573091, "tags": {"alt_name:scn": "Paceca", "name": "Paceco", "name:ja": "\u30d1\u30c1\u30a7\u30fc\u30b3", "name:ru": "\u041f\u0430\u0447\u0435\u043a\u043e", "name:scn": "Paceca", "name:uk": "\u041f\u0430\u0447\u0435\u043a\u043e", "place": "town", "population": "11110", "source": "Istat novembre 2019"}}, {"type": "node", "id": 1431606135, "lat": 38.019841, "lon": 12.5494005, "tags": {"name": "Casa Santa", "place": "town", "population": "23980", "wikidata": "Q3661163", "wikipedia": "it:Casa Santa"}}, {"type": "node", "id": 67257047, "lat": 37.6537292, "lon": 12.5886912, "tags": {"alt_name:la": "Masaris", "name": "Mazara del Vallo", "name:ar": "\u0645\u0627\u0632\u0631", "name:eo": "Mazaradelvalo", "name:it": "Mazara del Vallo", "name:ja": "\u30de\u30c4\u30a1\u30fc\u30e9\u30fb\u30c7\u30eb\u30fb\u30f4\u30a1\u30c3\u30ed", "name:la": "Mazaria", "name:ru": "\u041c\u0430\u0434\u0437\u0430\u0440\u0430-\u0434\u0435\u043b\u044c-\u0412\u0430\u043b\u043b\u043e", "name:scn": "Mazzara", "name:sr": "\u041c\u0430\u0446\u0430\u0440\u0430 \u0434\u0435\u043b \u0412\u0430\u043b\u043e", "name:uk": "\u041c\u0430\u0446\u0430\u0440\u0430-\u0434\u0435\u043b\u044c-\u0412\u0430\u043b\u043b\u043e", "place": "town", "population": "51365", "source": "Istat novembre 2019"}}, {"type": "node", "id": 67257074, "lat": 37.635838, "lon": 12.744338, "tags": {"name": "Campobello di Mazara", "name:scn": "Campube\u0256\u0256u", "place": "town", "population": "11609", "source": "Istat novembre 2019"}}, {"type": "node", "id": 67253776, "lat": 37.606639, "lon": 12.967843, "tags": {"name": "Menfi", "name:scn": "M\u00e8nfrici", "place": "town", "population": "12307", "source": "Istat novembre 2019"}}, {"type": "node", "id": 67257091, "lat": 37.6828513, "lon": 12.7955336, "tags": {"name": "Castelvetrano", "name:scn": "Castedduvitranu", "place": "town", "population": "30893", "source": "Istat novembre 2019"}}, {"type": "node", "id": 67257007, "lat": 37.727841, "lon": 12.88854, "tags": {"name": "Partanna", "place": "town", "population": "10244", "source": "Istat novembre 2019"}}, {"type": "node", "id": 67254001, "lat": 37.5064786, "lon": 13.0823323, "tags": {"name": "Sciacca", "name:ru": "\u0428\u0430\u043a\u043a\u0430", "place": "town", "population": "40148", "source": "Istat novembre 2019"}}, {"type": "node", "id": 67253941, "lat": 37.5027873, "lon": 13.2661885, "tags": {"name": "Ribera", "name:scn": "Rivela", "place": "town", "population": "18613", "source": "Istat novembre 2019"}}, {"type": "node", "id": 67257020, "lat": 37.8173706, "lon": 12.800945, "tags": {"name": "Salemi", "place": "town", "population": "10401", "source": "Istat novembre 2019"}}, {"type": "node", "id": 67257082, "lat": 38.0382301, "lon": 12.5871823, "tags": {"alt_name:scn": "U Munti", "name": "Erice", "name:scn": "\u00c8rici", "place": "town", "population": "27317", "source": "Istat novembre 2019"}}, {"type": "node", "id": 67257299, "lat": 38.038984, "lon": 12.6169791, "tags": {"name": "Valderice", "name:scn": "Vald\u00e8rici", "place": "town", "population": "12097", "source": "Istat novembre 2019"}}, {"type": "node", "id": 67257067, "lat": 38.018846, "lon": 12.885837, "tags": {"name": "Castellammare del Golfo", "name:scn": "Casteddammari", "place": "town", "population": "15104", "source": "Istat novembre 2019"}}, {"type": "node", "id": 67257138, "lat": 37.9766497, "lon": 12.9626735, "tags": {"name": "Alcamo", "name:ru": "\u0410\u043b\u044c\u043a\u0430\u043c\u043e", "name:scn": "\u00c0rcamu", "place": "town", "population": "45032", "source": "Istat novembre 2019"}}, {"type": "node", "id": 67256254, "lat": 37.8120779, "lon": 13.3014383, "tags": {"name": "Corleone", "name:scn": "Cunigghi\u00f9ni", "place": "town", "population": "10884", "source": "Istat novembre 2019"}}, {"type": "node", "id": 67256343, "lat": 38.0438957, "lon": 13.1198211, "tags": {"name": "Partinico", "name:scn": "Partinicu", "place": "town", "population": "31667", "source": "Istat novembre 2019"}}, {"type": "node", "id": 67256360, "lat": 38.1528221, "lon": 13.0821216, "tags": {"name": "Terrasini", "name:ru": "\u0422\u0435\u0440\u0440\u0430\u0437\u0438\u043d\u0438", "place": "town", "population": "12717", "source": "Istat novembre 2019"}}, {"type": "node", "id": 67256778, "lat": 38.131172, "lon": 13.1818847, "tags": {"name": "Carini", "place": "town", "population": "38957", "source": "Istat novembre 2019"}}, {"type": "node", "id": 67256521, "lat": 38.1549428, "lon": 13.1098412, "tags": {"name": "Cinisi", "name:ru": "\u0427\u0438\u043d\u0438\u0437\u0438", "place": "town", "population": "12288", "source": "Istat novembre 2019"}}, {"type": "node", "id": 67256403, "lat": 38.0445669, "lon": 13.2987019, "tags": {"name": "Altofonte", "name:scn": "Parcu", "place": "town", "population": "10067", "source": "Istat novembre 2019"}}, {"type": "node", "id": 67256482, "lat": 38.0484487, "lon": 13.3905539, "tags": {"name": "Belmonte Mezzagno", "name:scn": "Bilmunti Minzagnu", "place": "town", "population": "11164", "source": "Istat novembre 2019"}}, {"type": "node", "id": 67256666, "lat": 38.0826321, "lon": 13.2919931, "tags": {"name": "Monreale", "name:it": "Monreale", "name:ru": "\u041c\u043e\u043d\u0440\u0435\u0430\u043b\u0435", "name:scn": "Murriali", "place": "town", "population": "38885", "source": "Istat novembre 2019"}}, {"type": "node", "id": 67256503, "lat": 38.1707175, "lon": 13.2391699, "tags": {"name": "Capaci", "place": "town", "population": "11562", "source": "Istat novembre 2019"}}, {"type": "node", "id": 67253662, "lat": 38.1112268, "lon": 13.3524434, "tags": {"alt_name:ar": "\u0628\u0644\u0631\u0645\u0629;\u0628\u0627\u0644\u064a\u0631\u0645\u0648", "capital": "4", "name": "Palermo", "name:ar": "\u0628\u0644\u0631\u0645", "name:be": "\u041f\u0430\u043b\u0435\u0440\u043c\u0430", "name:ca": "Palerm", "name:de": "Palermo", "name:el": "\u03a0\u03b1\u03bb\u03ad\u03c1\u03bc\u03bf", "name:en": "Palermo", "name:eo": "Palermo", "name:es": "Palermo", "name:fa": "\u067e\u0627\u0644\u0631\u0645\u0648", "name:fi": "Palermo", "name:fr": "Palerme", "name:he": "\u05e4\u05dc\u05e8\u05de\u05d5", "name:it": "Palermo", "name:kn": "\u0caa\u0cb2\u0cc7\u0cb0\u0ccd\u0cae\u0ccb", "name:la": "Panormus", "name:lt": "Palermas", "name:pl": "Palermo", "name:pt": "Palermo", "name:ru": "\u041f\u0430\u043b\u0435\u0440\u043c\u043e", "name:scn": "Palermu", "name:uk": "\u041f\u0430\u043b\u0435\u0440\u043c\u043e", "name:zh": "\u5df4\u52d2\u83ab", "old_name:el": "\u03a0\u03ac\u03bd\u03bf\u03c1\u03bc\u03bf\u03c2", "place": "city", "population": "658071", "source": "Istat novembre 2019", "wikidata": "Q2656"}}, {"type": "node", "id": 72994199, "lat": 40.5600205, "lon": 8.3151473, "tags": {"alt_name": "L'Alguer", "gfoss_id": "7210", "int_name": "Alghero", "is_in:continent": "Europe", "is_in:country_code": "IT", "name": "L'Alguer/Alghero", "name:ar": "\u0623\u0644\u063a\u064a\u0631\u0648", "name:be": "\u0410\u043b\u044c\u0433\u0435\u0440\u0430", "name:ca": "L'Alguer", "name:de": "Alghero", "name:en": "Alghero", "name:es": "Alguer", "name:fr": "Alghero", "name:it": "Alghero", "name:ru": "\u0410\u043b\u044c\u0433\u0435\u0440\u043e", "name:sc": "S'Alighera", "place": "city", "population": "43845", "postal_code": "07041", "ref:LOCODE": "ITAHO", "source": "geodati.gfoss.it", "website": "http://www.comune.alghero.ss.it/", "wikidata": "Q166282", "wikipedia": "it:Alghero"}}, {"type": "node", "id": 2615891333, "lat": 39.9059497, "lon": 8.5916112, "tags": {"capital": "6", "gfoss_id": "7647", "name": "Aristanis/Oristano", "name:ca": "Oristany", "name:el": "\u039f\u03c1\u03b9\u03c3\u03c4\u03ac\u03bd\u03bf", "name:fr": "Oristano", "name:it": "Oristano", "name:ru": "\u041e\u0440\u0438\u0441\u0442\u0430\u043d\u043e", "name:sc": "Aristanis", "name:zh": "\u5965\u91cc\u65af\u5854\u8bfa", "note": "secondo la wiki italiana, i capoluoghi di provincia vanno taggati con place=city solo se superano 50mila abitanti. According to the italian wiki, the provincial capitals need to be tagged as place=city regardless of population (only over 50k)", "place": "town", "population": "32156", "postal_code": "09170", "ref:ISTAT": "095038", "ref:LOCODE": "ITQOS", "ref:catasto": "G113", "source": "geodati.gfoss.it", "website": "http://www.comune.oristano.it/", "wikidata": "Q13652", "wikipedia": "it:Oristano", "wikipedia:sc": "Aristanis"}}, {"type": "node", "id": 72993222, "lat": 39.9303142, "lon": 8.5320543, "tags": {"gfoss_id": "7627", "is_in": "Oristano, Sardegna, Italy", "is_in:continent": "Europe", "is_in:country_code": "IT", "name": "Crabas/Cabras", "name:de": "Cabras", "name:en": "Cabras", "name:es": "Cabras", "name:fr": "Cabras", "name:it": "Cabras", "name:sc": "Crabas", "place": "town", "population": "8804", "postal_code": "09072", "source": "geodati.gfoss.it", "website": "http://www.comunedicabras.it/", "wikidata": "Q385624", "wikipedia": "sc:Crabas", "wikipedia:it": "Cabras"}}, {"type": "node", "id": 72992684, "lat": 40.2651904, "lon": 8.7813868, "tags": {"gfoss_id": "7340", "int_name": "Macomer", "name": "Macumere/Macom\u00e8r", "name:it": "Macom\u00e8r", "name:sc": "Macumere", "place": "town", "population": "11116", "postal_code": "08015", "ref:LOCODE": "ITMCM", "source": "geodati.gfoss.it", "website": "http://www.comunedimacomer.it/index.asp", "wikidata": "Q295248", "wikipedia": "it:Macomer", "wikipedia:sc": "Macumere"}}, {"type": "node", "id": 72994836, "lat": 40.5859373, "lon": 9.0010431, "tags": {"alt_name:sc": "Othieri", "gfoss_id": "7259", "int_name": "Ozieri", "name": "Otieri/Ozieri", "name:be": "\u0410\u0441\u0456\u0435\u0440\u044b", "name:it": "Ozieri", "name:ru": "\u041e\u0441\u0438\u0435\u0440\u0438", "name:sc": "Otieri", "place": "town", "population": "11334", "postal_code": "07014", "source": "geodati.gfoss.it", "website": "http://www.comune.ozieri.ss.it/", "wikidata": "Q391167", "wikipedia": "it:Ozieri", "wikipedia:sc": "Otieri"}}, {"type": "node", "id": 72990741, "lat": 39.8785705, "lon": 9.5410772, "tags": {"alt_name": "Lanus\u00e8", "capital": "8", "gfoss_id": "7333", "int_name": "Lanusei", "name": "Lanus\u00e8i/Lanusei", "name:it": "Lanusei", "name:sc": "Lanus\u00e8i", "name:zh": "\u62c9\u52aa\u585e\u4f0a", "note": "ha meno di 10000 abitanti (requisito formale per place=town in Italia), ma \u00e8 un il centro pi\u00f9 importante nella regione geografica (Ogliastra) insieme a Tortol\u00ec", "place": "town", "population": "5841", "postal_code": "08045", "source": "geodati.gfoss.it", "website": "https://www.comunedilanusei.it/", "wikidata": "Q13657", "wikipedia": "it:Lanusei", "wikipedia:sc": "Lanus\u00e8i"}}, {"type": "node", "id": 72990751, "lat": 39.9266045, "lon": 9.6591551, "tags": {"alt_name": "Tortuelie", "capital": "8", "gfoss_id": "7389", "name": "Tortol\u00ec", "name:it": "Tortol\u00ec", "name:sc": "Tortol\u00ec", "name:zh": "\u6258\u5c14\u6258\u5229", "place": "town", "population": "10609", "population:date": "2009-01-01", "postal_code": "08048", "ref:LOCODE": "ITTTB", "source": "geodati.gfoss.it", "source:population": "http://demo.istat.it/pop2009/index.html", "website": "http://www.comuneditortoli.it/", "wikidata": "Q13659", "wikipedia": "it:Tortol\u00ec"}}, {"type": "node", "id": 72990672, "lat": 40.3210601, "lon": 9.3297339, "tags": {"alt_name:el": "\u039d\u03bf\u03c5\u03b3\u03cc\u03c1\u03bf", "capital": "6", "gfoss_id": "7347", "is_in:continent": "Europe", "is_in:country_code": "IT", "name": "N\u00f9goro/Nuoro", "name:ar": "\u0646\u0648\u0648\u0631\u0648", "name:de": "Nuoro", "name:el": "\u039d\u03bf\u03c5\u03cc\u03c1\u03bf", "name:en": "Nuoro", "name:es": "Nuoro", "name:fr": "Nuoro", "name:it": "Nuoro", "name:ru": "\u041d\u0443\u043e\u0440\u043e", "name:sc": "N\u00f9goro", "name:zh": "\u52aa\u5965\u7f57", "note": "secondo la wiki italiana, i capoluoghi di provincia vanno taggati con place=city solo se superano 50mila abitanti. According to the italian wiki, the provincial capitals need to be tagged as place=city regardless of population (only over 50k)", "place": "town", "population": "36678", "postal_code": "08100", "ref:LOCODE": "ITQNU", "source": "geodati.gfoss.it", "wikidata": "Q13649", "wikipedia": "it:Nuoro", "wikipedia:sc": "N\u00f9goro"}}, {"type": "node", "id": 72992343, "lat": 40.571868, "lon": 9.692238, "tags": {"gfoss_id": "7379", "int_name": "Siniscola", "name": "Thiniscole/Siniscola", "name:it": "Siniscola", "name:sc": "Thiniscole", "place": "town", "population": "10954", "postal_code": "08029", "ref:LOCODE": "ITSIA", "source": "geodati.gfoss.it", "website": "http://www.comune.siniscola.nu.it/index.asp", "wikidata": "Q295613", "wikipedia": "it:Siniscola", "wikipedia:sc": "Thiniscole"}}, {"type": "node", "id": 2615891334, "lat": 40.7232643, "lon": 8.5610074, "tags": {"alt_name:sc": "T\u00e0ttari", "capital": "6", "gfoss_id": "7271", "name": "Sassari", "name:ar": "\u0633\u0627\u0633\u0627\u0631\u064a", "name:be": "\u0421\u0430\u0441\u0430\u0440\u044b", "name:ca": "S\u00e0sser", "name:co": "Sassari", "name:el": "\u03a3\u03ac\u03c3\u03c3\u03b1\u03c1\u03b9", "name:fa": "\u0633\u0627\u0633\u0627\u0631\u06cc", "name:fr": "Sassari", "name:hu": "Sassari", "name:it": "Sassari", "name:ru": "\u0421\u0430\u0441\u0441\u0430\u0440\u0438", "name:sc": "T\u00e0tari", "name:sdc": "Sassari", "name:uk": "\u0421\u0430\u0441\u0441\u0430\u0440\u0456", "name:ur": "\u0633\u0627\u0633\u0627\u0631\u06cc", "name:zh": "\u85a9\u85a9\u91cc", "place": "city", "population": "126576", "postal_code": "07100, 07040", "ref:ISTAT": "090064", "ref:LOCODE": "ITQSS", "ref:catasto": "I452", "source": "geodati.gfoss.it", "website": "http://www.comune.sassari.it/", "wikidata": "Q13629", "wikipedia": "it:Sassari", "wikipedia:sc": "T\u00e0tari"}}, {"type": "node", "id": 72994422, "lat": 40.7965949, "lon": 8.5778501, "tags": {"gfoss_id": "7276", "int_name": "Sorso", "name": "S\u00f2ssu/Sorso", "name:co": "Sossu", "name:it": "Sorso", "name:sc": "S\u00f2ssu", "name:sdc": "S\u00f2ssu", "place": "town", "population": "14457", "postal_code": "07037", "source": "geodati.gfoss.it", "website": "http://www.comune.sorso.ss.it/"}}, {"type": "node", "id": 72994004, "lat": 40.8344403, "lon": 8.4031462, "tags": {"gfoss_id": "7265", "int_name": "Porto Torres", "name": "Posthudorra/Porto Torres", "name:be": "\u041f\u043e\u0440\u0442\u0430-\u0422\u043e\u0440\u044d\u0441", "name:it": "Porto Torres", "name:sc": "Portu Turre", "name:sdc": "Posthudorra", "place": "town", "population": "21064", "postal_code": "07046", "source": "geodati.gfoss.it", "website": "https://www.comune.porto-torres.ss.it/", "wikidata": "Q391316", "wikipedia": "it:Porto Torres", "wikipedia:sc": "Portu Turre"}}, {"type": "node", "id": 72990773, "lat": 40.8973821, "lon": 9.1035159, "tags": {"capital": "8", "gfoss_id": "7277", "int_name": "Tempio Pausania", "name": "T\u00e8mpiu/Tempio Pausania", "name:co": "T\u00e8mpiu", "name:it": "Tempio Pausania", "name:ru": "\u0422\u0435\u043c\u043f\u0438\u043e \u041f\u0430\u0443\u0441\u0430\u043d\u0438\u044f", "name:sc": "T\u00e8mpiu", "name:zh": "\u5766\u76ae\u5967\u888d\u6c99\u5c3c\u4e9e", "place": "town", "population": "13992", "ref:LOCODE": "ITZVH", "source": "geodati.gfoss.it", "website": "http://www.comune.tempiopausania.ot.it/index.php", "wikidata": "Q13645", "wikipedia": "it:Tempio Pausania", "wikipedia:sc": "T\u00e8mpiu"}}, {"type": "node", "id": 72994513, "lat": 41.079898, "lon": 9.3876122, "tags": {"gfoss_id": "7213", "int_name": "Arzachena", "name": "Alzachena/Arzachena", "name:co": "Alzachena", "name:it": "Arzachena", "name:sc": "Altzagh\u00e8na", "place": "town", "population": "10730", "ref:LOCODE": "ITAZC", "source": "geodati.gfoss.it", "website": "http://www.comunearzachena.gov.it/", "wikidata": "Q186538", "wikipedia": "it:Arzachena"}}, {"type": "node", "id": 2615891332, "lat": 40.9232659, "lon": 9.5027442, "tags": {"addr:postcode": "07026", "capital": "8", "gfoss_id": "7254", "name": "Terranoa/Olbia", "name:co": "Tarranoa", "name:it": "Olbia", "name:ru": "\u041e\u043b\u044c\u0431\u0438\u044f", "name:sc": "Terranoa", "name:sdn": "Tarranoa", "name:zh": "\u5967\u723e\u6bd4\u4e9e", "place": "town", "population": "56512", "ref:ISTAT": "104017", "ref:LOCODE": "ITOLB", "ref:catasto": "G015", "source": "geodati.gfoss.it", "website": "http://www.comune.olbia.ss.it/", "wikidata": "Q13630", "wikipedia": "it:Olbia", "wikipedia:sc": "Terranoa"}}, {"type": "node", "id": 72994737, "lat": 41.2127826, "lon": 9.4066598, "tags": {"gfoss_id": "7242", "int_name": "La Maddalena", "name": "Madalena - La Maddalena", "name:co": "Madalena", "name:it": "La Maddalena", "name:sc": "Sa Madalena", "place": "town", "population": "11369", "ref:LOCODE": "ITMDA", "source": "geodati.gfoss.it", "website": "http://www.comune.lamaddalena.ot.it/site/home.html", "wikidata": "Q340757", "wikipedia": "it:La Maddalena", "wikipedia:sc": "Sa Madalena"}}, {"type": "node", "id": 72963081, "lat": 41.4471008, "lon": 12.6285618, "tags": {"gfoss_id": "4918", "name": "Anzio", "name:ru": "\u0410\u043d\u0446\u0438\u043e", "place": "town", "population": "54211", "postal_code": "00042", "source": "geodati.gfoss.it", "wikidata": "Q241717"}}, {"type": "node", "id": 72962975, "lat": 41.4575382, "lon": 12.661425, "tags": {"gfoss_id": "4983", "name": "Nettuno", "name:ru": "\u041d\u0435\u0442\u0442\u0443\u043d\u043e", "place": "town", "population": "49167", "postal_code": "00048", "source": "geodati.gfoss.it", "wikidata": "Q243116"}}, {"type": "node", "id": 72959682, "lat": 41.4672589, "lon": 12.9035737, "tags": {"capital": "6", "gfoss_id": "5043", "name": "Latina", "name:el": "\u039b\u03b1\u03c4\u03af\u03bd\u03b1", "name:en": "Latina", "name:ru": "\u041b\u0430\u0442\u0438\u043d\u0430", "name:uk": "\u041b\u0430\u0442\u0438\u043d\u0430", "name:zh": "\u62c9\u8482\u7eb3", "place": "city", "population": "126161", "postal_code": "04100", "source": "geodati.gfoss.it", "wikidata": "Q13410", "wikipedia": "it:Latina"}}, {"type": "node", "id": 72961005, "lat": 41.2326171, "lon": 13.0893977, "tags": {"gfoss_id": "5057", "name": "San Felice Circeo", "place": "town", "population": "10032", "source": "geodati.gfoss.it"}}, {"type": "node", "id": 72961167, "lat": 41.3015672, "lon": 13.0258726, "tags": {"gfoss_id": "5056", "name": "Sabaudia", "name:ru": "\u0421\u0430\u0431\u0430\u0443\u0434\u0438\u044f", "place": "town", "population": "20432", "source": "geodati.gfoss.it", "wikidata": "Q128165"}}, {"type": "node", "id": 72961118, "lat": 41.2871196, "lon": 13.2492009, "tags": {"gfoss_id": "5064", "name": "Terracina", "name:ru": "\u0422\u0435\u0440\u0440\u0430\u0447\u0438\u043d\u0430", "place": "town", "population": "46033", "source": "geodati.gfoss.it", "wikidata": "Q128226", "wikipedia": "it:Terracina"}}, {"type": "node", "id": 5754062172, "lat": 41.4084557, "lon": 13.0443366, "tags": {"gfoss_id": "5049", "name": "Pontinia", "name:ru": "\u041f\u043e\u043d\u0442\u0438\u043d\u0438\u044f", "place": "town", "population": "14920", "source": "geodati.gfoss.it"}}, {"type": "node", "id": 72961138, "lat": 41.4984145, "lon": 13.0592171, "tags": {"gfoss_id": "5060", "name": "Sezze", "place": "town", "population": "24894", "source": "geodati.gfoss.it", "wikidata": "Q128206"}}, {"type": "node", "id": 72960869, "lat": 41.4726165, "lon": 13.1798388, "tags": {"gfoss_id": "5051", "name": "Priverno", "place": "town", "population": "14525", "source": "geodati.gfoss.it"}}, {"type": "node", "id": 72960995, "lat": 41.4142717, "lon": 13.2415295, "tags": {"gfoss_id": "5061", "name": "Sonnino", "place": "town", "population": "7543", "source": "geodati.gfoss.it", "wikidata": "Q128211", "wikipedia": "it:Sonnino"}}, {"type": "node", "id": 61753525, "lat": 42.8115816, "lon": 10.3130532, "tags": {"gfoss_id": "4538", "is_in": "Livorno, Toscana, Italy", "name": "Portoferraio", "name:mk": "\u041f\u043e\u0440\u0442\u043e\u0444\u0435\u0440\u0430\u0458\u043e", "name:ru": "\u041f\u043e\u0440\u0442\u043e\u0444\u0435\u0440\u0440\u0430\u0439\u043e", "place": "town", "population": "11992", "source": "geodati.gfoss.it"}}, {"type": "node", "id": 61753526, "lat": 42.9231662, "lon": 10.5268192, "tags": {"ele": "21", "gfoss_id": "4536", "is_in": "Livorno, Toscana, Italy", "name": "Piombino", "name:mk": "\u041f\u0458\u043e\u043c\u0431\u0438\u043d\u043e", "name:ru": "\u041f\u044c\u043e\u043c\u0431\u0438\u043d\u043e", "place": "town", "population": "34060", "source": "geodati.gfoss.it", "wikidata": "Q157824", "wikipedia": "it:Piombino"}}, {"type": "node", "id": 61753503, "lat": 42.926326, "lon": 10.761625, "tags": {"gfoss_id": "4667", "name": "Follonica", "name:ru": "\u0424\u043e\u043b\u043b\u043e\u043d\u0438\u043a\u0430", "place": "town", "population": "21605", "source": "geodati.gfoss.it", "wikidata": "Q188587"}}, {"type": "node", "id": 2813475279, "lat": 43.0606283, "lon": 10.6154958, "tags": {"ele": "231", "gfoss_id": "46338", "istat_id": "4900210002", "name": "Campiglia Marittima", "place": "town", "population": "13218", "source": "Istat 2001 - geodati.gfoss.it", "wikidata": "Q157686", "wikipedia": "it:Campiglia Marittima"}}, {"type": "node", "id": 61753520, "lat": 42.4380944, "lon": 11.2107429, "tags": {"gfoss_id": "4676", "name": "Orbetello", "place": "town", "population": "14878", "source": "geodati.gfoss.it"}}, {"type": "node", "id": 61753364, "lat": 42.7597261, "lon": 11.1137389, "tags": {"capital": "6", "gfoss_id": "4669", "name": "Grosseto", "name:el": "\u0393\u03ba\u03c1\u03bf\u03c3\u03ad\u03c4\u03bf", "name:en": "Grosseto", "name:eo": "Groseto", "name:ru": "\u0413\u0440\u043e\u0441\u0441\u0435\u0442\u043e", "name:zh": "\u683c\u7f57\u585e\u6258", "place": "city", "population": "82087", "source": "geodati.gfoss.it", "wikidata": "Q6716"}}, {"type": "node", "id": 61753740, "lat": 43.2121236, "lon": 11.7364829, "tags": {"gfoss_id": "4655", "name": "Sinalunga", "place": "town", "population": "12764", "source": "geodati.gfoss.it"}}, {"type": "node", "id": 72963042, "lat": 41.9537219, "lon": 12.0734646, "tags": {"gfoss_id": "5027", "name": "Ladispoli", "name:ru": "\u041b\u0430\u0434\u0438\u0441\u043f\u043e\u043b\u0438", "place": "town", "population": "41078", "source": "geodati.gfoss.it", "wikidata": "Q242784", "wikipedia": "it:Ladispoli"}}, {"type": "node", "id": 1742688170, "lat": 41.7325672, "lon": 12.2787587, "tags": {"name": "Lido di Ostia", "place": "town", "population": "79400", "wikidata": "Q11171297", "wikipedia": "it:Ostia (Roma)"}}, {"type": "node", "id": 72963520, "lat": 41.608712, "lon": 12.519382, "tags": {"gfoss_id": "5028", "name": "Ardea", "name:ru": "\u0410\u0440\u0434\u0435\u0430", "place": "town", "population": "49183", "source": "geodati.gfoss.it", "wikidata": "Q241733"}}, {"type": "node", "id": 72962885, "lat": 41.667529, "lon": 12.5047863, "tags": {"gfoss_id": "4990", "name": "Pomezia", "name:ru": "\u041f\u043e\u043c\u0435\u0446\u0438\u044f", "place": "town", "population": "62966", "source": "geodati.gfoss.it", "wikidata": "Q243172"}}, {"type": "node", "id": 72962224, "lat": 41.7675656, "lon": 12.2339473, "tags": {"gfoss_id": "5031", "name": "Fiumicino", "name:ru": "\u0424\u044c\u044e\u043c\u0438\u0447\u0438\u043d\u043e", "place": "town", "population": "78395", "source": "geodati.gfoss.it", "wikidata": "Q19326"}}, {"type": "node", "id": 289686098, "lat": 41.7827205, "lon": 12.3653115, "tags": {"name": "Acilia", "place": "town", "population": "54378", "wikidata": "Q3604570", "wikipedia": "it:Acilia"}}, {"type": "node", "id": 72959652, "lat": 41.8933203, "lon": 12.4829321, "tags": {"admin_level": "2", "alt_name:vi": "La M\u00e3", "capital": "yes", "capital_ISO3166-1": "yes", "ele": "21", "gfoss_id": "5002", "is_capital": "country", "name": "Roma", "name:ace": "Roma", "name:af": "Rome", "name:am": "\u122e\u121b", "name:an": "Roma", "name:ang": "R\u014dm", "name:ar": "\u0631\u0648\u0645\u0627", "name:arc": "\u072a\u0717\u0718\u0721\u0710", "name:arz": "\u0631\u0648\u0645\u0627", "name:ast": "Roma", "name:ay": "Roma", "name:az": "Roma", "name:ba": "\u0420\u0438\u043c", "name:bat-smg": "Ruoma", "name:bcl": "Roma", "name:be": "\u0420\u044b\u043c", "name:be-tarask": "\u0420\u044b\u043c", "name:bg": "\u0420\u0438\u043c", "name:bi": "Rome", "name:bn": "\u09b0\u09cb\u09ae", "name:bo": "\u0f62\u0f7c\u0f0b\u0f58\u0f0d", "name:br": "Roma", "name:bs": "Rim", "name:ca": "Roma", "name:cbk-zam": "Roma", "name:ceb": "Roma", "name:chy": "Roma", "name:ckb": "\u0695\u06c6\u0645", "name:co": "Roma", "name:cr": "\u158c\u14aa", "name:crh": "Roma", "name:cs": "\u0158\u00edm", "name:csb": "Rzim", "name:cu": "\u0420\u0438\u043c\u044a", "name:cv": "\u0420\u0438\u043c", "name:cy": "Rhufain", "name:da": "Rom", "name:de": "Rom", "name:diq": "Roma", "name:ee": "Rome", "name:el": "\u03a1\u03ce\u03bc\u03b7", "name:eml": "R\u00e5mma", "name:en": "Rome", "name:eo": "Romo", "name:es": "Roma", "name:et": "Rooma", "name:eu": "Erroma", "name:ext": "Roma", "name:fa": "\u0631\u0645", "name:fi": "Rooma", "name:fiu-vro": "Rooma", "name:fo": "R\u00f3m", "name:fr": "Rome", "name:frp": "Roma", "name:fur": "Rome", "name:fy": "Rome", "name:ga": "An R\u00f3imh", "name:gag": "Roma", "name:gan": "\u7f85\u99ac", "name:gd": "An R\u00f2imh", "name:gl": "Roma", "name:gn": "R\u00f3ma", "name:gv": "Yn Raue", "name:he": "\u05e8\u05d5\u05de\u05d0", "name:hi": "\u0930\u094b\u092e", "name:hif": "Rome", "name:hr": "Rim", "name:ht": "R\u00f2m", "name:hu": "R\u00f3ma", "name:hy": "\u0540\u057c\u0578\u0574", "name:ia": "Roma", "name:id": "Roma", "name:ie": "Roma", "name:ilo": "Roma", "name:io": "Roma", "name:is": "R\u00f3m", "name:it": "Roma", "name:ja": "\u30ed\u30fc\u30de", "name:jbo": "romas", "name:jv": "Roma", "name:ka": "\u10e0\u10dd\u10db\u10d8", "name:kaa": "Rome", "name:kk": "\u0420\u0438\u043c", "name:kl": "Roma", "name:kn": "\u0cb0\u0ccb\u0cae", "name:ko": "\ub85c\ub9c8", "name:krc": "\u0420\u0438\u043c", "name:ku": "Roma", "name:kv": "\u0420\u0438\u043c", "name:la": "Roma", "name:lad": "Roma", "name:lb": "Roum", "name:lez": "\u0420\u0438\u043c", "name:li": "Roeme", "name:lij": "Romma", "name:lmo": "Roma", "name:ln": "Roma", "name:lt": "Roma", "name:lv": "Roma", "name:lzh": "\u7f85\u99ac", "name:mdf": "\u0420\u0438\u043c", "name:mg": "Roma", "name:mhr": "\u0420\u0438\u043c", "name:mi": "R\u014dma", "name:mk": "\u0420\u0438\u043c", "name:ml": "\u0d31\u0d4b\u0d02", "name:mn": "\u0420\u043e\u043c", "name:mr": "\u0930\u094b\u092e", "name:mt": "Ruma", "name:mwl": "Roma", "name:my": "\u101b\u1031\u102c\u1019\u1019\u103c\u102d\u102f\u1037", "name:na": "Roma", "name:nah": "Roma", "name:nan": "L\u00f4-m\u00e1", "name:nap": "Romma", "name:nds": "Rom", "name:nds-nl": "Rome", "name:ne": "\u0930\u094b\u092e", "name:nl": "Rome", "name:nn": "Roma", "name:no": "Roma", "name:nov": "Roma", "name:nrm": "Rome", "name:oc": "Roma", "name:os": "\u0420\u043e\u043c", "name:pap": "Roma", "name:pcd": "Rome", "name:pl": "Rzym", "name:pms": "Roma", "name:pnb": "\u0631\u0648\u0645", "name:pnt": "\u03a1\u03ce\u03bc\u03b7", "name:pt": "Roma", "name:qu": "Roma", "name:rm": "Roma", "name:rn": "Roma", "name:ro": "Roma", "name:roa-rup": "Roma", "name:roa-tara": "Rome", "name:ru": "\u0420\u0438\u043c", "name:rue": "\u0420\u0438\u043c", "name:rw": "Roma", "name:sa": "\u0930\u094b\u092e\u093e", "name:sah": "\u0420\u043e\u043c", "name:sc": "Roma", "name:scn": "Roma", "name:sco": "Roum", "name:se": "Roma", "name:sg": "Rome", "name:sh": "Rim", "name:si": "\u0dbb\u0ddd\u0db8\u0dba", "name:sk": "R\u00edm", "name:sl": "Rim", "name:so": "Roma", "name:sq": "Roma", "name:sr": "\u0420\u0438\u043c", "name:stq": "Room", "name:su": "Roma", "name:sv": "Rom", "name:sw": "Roma", "name:szl": "Rzim", "name:ta": "\u0b89\u0bb0\u0bcb\u0bae\u0bc8 \u0ba8\u0b95\u0bb0\u0bae\u0bcd", "name:te": "\u0c30\u0c4b\u0c2e\u0c4d", "name:tg": "\u0420\u0438\u043c", "name:th": "\u0e42\u0e23\u0e21", "name:tk": "Rim", "name:tl": "Roma", "name:tr": "Roma", "name:tt": "\u0420\u0438\u043c", "name:ty": "Roma", "name:udm": "\u0420\u0438\u043c", "name:ug": "Rim", "name:uk": "\u0420\u0438\u043c", "name:ur": "\u0631\u0648\u0645", "name:uz": "Rim", "name:vec": "Roma", "name:vep": "Rim", "name:vi": "R\u00f4-ma", "name:vls": "Rome", "name:vo": "Roma", "name:war": "Roma", "name:wuu": "\u7f57\u9a6c", "name:xmf": "\u10e0\u10dd\u10db\u10d8", "name:yi": "\u05e8\u05d5\u05d9\u05dd", "name:yo": "R\u00f3m\u00f9", "name:yue": "\u7f85\u99ac", "name:zh": "\u7f85\u99ac", "name:zh_pinyin": "Lu\u00f3m\u01ce", "place": "city", "population": "2864731", "postal_code": "00100", "rank": "0", "source:population": "31.01.2013, http://www.demo.istat.it/bilmens2013gen/query.php?lingua", "website": "https://www.comune.roma.it/", "wikidata": "Q220", "wikipedia": "it:Roma"}}, {"type": "node", "id": 72963447, "lat": 42.0353397, "lon": 11.8683083, "tags": {"gfoss_id": "5008", "name": "Santa Marinella", "name:ru": "\u0421\u0430\u043d\u0442\u0430-\u041c\u0430\u0440\u0438\u043d\u0435\u043b\u043b\u0430", "place": "town", "population": "18783", "source": "geodati.gfoss.it", "wikidata": "Q243425"}}, {"type": "node", "id": 72962401, "lat": 42.0937524, "lon": 11.7922462, "tags": {"gfoss_id": "4943", "name": "Civitavecchia", "name:ar": "\u062c\u0628\u062a \u0628\u0643\u0629", "name:ru": "\u0427\u0438\u0432\u0438\u0442\u0430\u0432\u0435\u043a\u043a\u044c\u044f", "name:zh": "\u5947\u7ef4\u5854\u97e6\u57fa\u4e9a", "place": "town", "population": "52991", "source": "geodati.gfoss.it", "wikidata": "Q242533"}}, {"type": "node", "id": 72962473, "lat": 41.9983601, "lon": 12.0988512, "tags": {"gfoss_id": "4940", "name": "Cerveteri", "name:ru": "\u0427\u0435\u0440\u0432\u0435\u0442\u0435\u0440\u0435", "place": "town", "population": "37441", "source": "geodati.gfoss.it", "wikidata": "Q242505"}}, {"type": "node", "id": 72963903, "lat": 42.2532394, "lon": 11.7591747, "tags": {"gfoss_id": "4828", "name": "Tarquinia", "name:ru": "\u0422\u0430\u0440\u043a\u0432\u0438\u043d\u0438\u044f", "place": "town", "population": "16475", "website": "http://www.tarquinia.net/", "wikidata": "Q179999", "wikipedia": "it:Tarquinia"}}, {"type": "node", "id": 72964295, "lat": 42.3205336, "lon": 12.0575, "tags": {"gfoss_id": "4835", "name": "Vetralla", "place": "town", "population": "14037", "source": "geodati.gfoss.it", "wikidata": "Q180271", "wikipedia": "it:Vetralla"}}, {"type": "node", "id": 72962565, "lat": 42.1010951, "lon": 12.1738573, "tags": {"gfoss_id": "4924", "name": "Bracciano", "place": "town", "population": "19384", "source": "geodati.gfoss.it", "wikidata": "Q241791"}}, {"type": "node", "id": 72963008, "lat": 42.0837087, "lon": 12.2829819, "tags": {"gfoss_id": "4916", "name": "Anguillara Sabazia", "place": "town", "population": "19414", "postal_code": "00061", "source": "geodati.gfoss.it", "website": "http://www.comune.anguillara-sabazia.roma.it/", "wikidata": "Q241693"}}, {"type": "node", "id": 72962733, "lat": 42.082521, "lon": 12.400273, "tags": {"gfoss_id": "4949", "name": "Formello", "place": "town", "population": "12918", "source": "geodati.gfoss.it", "wikidata": "Q242645"}}, {"type": "node", "id": 2673845419, "lat": 42.141078, "lon": 12.3836686, "tags": {"name": "Campagnano di Roma", "place": "town", "population": "11571", "wikidata": "Q241911"}}, {"type": "node", "id": 72962862, "lat": 42.100122, "lon": 12.505675, "tags": {"gfoss_id": "4992", "name": "Riano", "place": "town", "population": "10466", "source": "geodati.gfoss.it"}}, {"type": "node", "id": 72963163, "lat": 42.1401497, "lon": 12.540201, "tags": {"gfoss_id": "4929", "name": "Capena", "place": "town", "population": "10592", "source": "geodati.gfoss.it"}}, {"type": "node", "id": 72962846, "lat": 42.2100141, "lon": 12.4811223, "tags": {"gfoss_id": "4993", "name": "Rignano Flaminio", "place": "town", "population": "10277", "source": "geodati.gfoss.it"}}, {"type": "node", "id": 72964340, "lat": 42.295226, "lon": 12.40917, "tags": {"gfoss_id": "4799", "name": "Civita Castellana", "place": "town", "population": "16491", "source": "geodati.gfoss.it", "website": "http://www.comune.civitacastellana.vt.it/", "wikidata": "Q160954"}}, {"type": "node", "id": 72960983, "lat": 41.5942016, "lon": 12.6485765, "tags": {"gfoss_id": "5033", "name": "Aprilia", "name:ru": "\u0410\u043f\u0440\u0438\u043b\u0438\u044f", "place": "town", "population": "73446", "postal_code": "04011", "source": "geodati.gfoss.it", "wikidata": "Q128052"}}, {"type": "node", "id": 262150796, "lat": 41.6958137, "lon": 12.6496192, "tags": {"is_in": "Lazio", "name": "Cecchina", "place": "town", "population": "9141", "wikidata": "Q2276094", "wikipedia": "it:Cecchina"}}, {"type": "node", "id": 72963067, "lat": 41.720709, "lon": 12.6713481, "tags": {"gfoss_id": "4920", "name": "Ariccia", "place": "town", "population": "19407", "source": "geodati.gfoss.it", "wikidata": "Q241744", "wikipedia": "it:Ariccia"}}, {"type": "node", "id": 72962254, "lat": 41.7288894, "lon": 12.6582689, "tags": {"gfoss_id": "4914", "name": "Albano Laziale", "place": "town", "population": "41715", "source": "geodati.gfoss.it", "wikidata": "Q191115"}}, {"type": "node", "id": 72963587, "lat": 41.6745277, "lon": 12.6972435, "tags": {"gfoss_id": "4961", "name": "Lanuvio", "place": "town", "population": "13632", "source": "ISTAT"}}, {"type": "node", "id": 72963458, "lat": 41.6867015, "lon": 12.7770433, "tags": {"gfoss_id": "5022", "name": "Velletri", "place": "town", "population": "53303", "source": "geodati.gfoss.it", "wikidata": "Q189236"}}, {"type": "node", "id": 72963183, "lat": 41.706989, "lon": 12.6911183, "tags": {"gfoss_id": "4954", "name": "Genzano di Roma", "place": "town", "population": "23970", "postal_code": "00045", "source": "geodati.gfoss.it", "wikidata": "Q242683"}}, {"type": "node", "id": 72960924, "lat": 41.590639, "lon": 12.829048, "tags": {"gfoss_id": "5037", "name": "Cisterna di Latina", "place": "town", "population": "36868", "source": "geodati.gfoss.it", "wikidata": "Q128065", "wikipedia": "it:Cisterna Di Latina"}}, {"type": "node", "id": 72961052, "lat": 41.6431038, "lon": 12.9158514, "tags": {"gfoss_id": "5038", "name": "Cori", "place": "town", "population": "11065", "source": "geodati.gfoss.it", "wikidata": "Q128081", "wikipedia": "it:Cori"}}, {"type": "node", "id": 72963364, "lat": 41.7251135, "lon": 12.8312761, "tags": {"gfoss_id": "5026", "name": "Lariano", "place": "town", "population": "13432", "source": "geodati.gfoss.it"}}, {"type": "node", "id": 72962206, "lat": 41.7419154, "lon": 12.9121745, "tags": {"gfoss_id": "4922", "name": "Artena", "place": "town", "population": "14276", "source": "geodati.gfoss.it"}}, {"type": "node", "id": 72963500, "lat": 41.8002891, "lon": 12.6004706, "tags": {"gfoss_id": "5029", "name": "Ciampino", "place": "town", "population": "38412", "source": "geodati.gfoss.it", "wikidata": "Q242513"}}, {"type": "node", "id": 72962626, "lat": 41.7697883, "lon": 12.6586082, "tags": {"gfoss_id": "4968", "name": "Marino", "place": "town", "population": "43026", "wikidata": "Q242926"}}, {"type": "node", "id": 72962676, "lat": 41.788616, "lon": 12.6667408, "tags": {"gfoss_id": "4957", "name": "Grottaferrata", "place": "town", "population": "20327", "source": "geodati.gfoss.it", "wikidata": "Q242703"}}, {"type": "node", "id": 2855824382, "lat": 41.8082452, "lon": 12.6803684, "tags": {"gfoss_id": "4950", "name": "Frascati", "place": "town", "population": "22087", "source": "geodati.gfoss.it", "wikidata": "Q190963"}}, {"type": "node", "id": 72962821, "lat": 41.7607608, "lon": 12.7096141, "tags": {"gfoss_id": "4997", "name": "Rocca di Papa", "place": "town", "population": "17034", "source": "geodati.gfoss.it", "wikidata": "Q243228"}}, {"type": "node", "id": 72963405, "lat": 41.791089, "lon": 12.761993, "tags": {"gfoss_id": "4999", "name": "Rocca Priora", "place": "town", "population": "11962", "source": "geodati.gfoss.it", "wikidata": "Q243210", "wikipedia": "it:Rocca Priora"}}, {"type": "node", "id": 72962241, "lat": 41.808918, "lon": 12.737784, "tags": {"gfoss_id": "4971", "name": "Monte Compatri", "place": "town", "population": "11978", "source": "geodati.gfoss.it", "wikidata": "Q242954", "wikipedia": "it:Monte Compatri"}}, {"type": "node", "id": 72963554, "lat": 41.819196, "lon": 12.8003335, "tags": {"gfoss_id": "5030", "name": "San Cesareo", "place": "town", "population": "15153", "source": "geodati.gfoss.it", "wikidata": "Q243346"}}, {"type": "node", "id": 72963353, "lat": 41.8383835, "lon": 12.83105, "tags": {"addr:country": "IT", "gfoss_id": "5025", "name": "Zagarolo", "place": "town", "population": "17843", "source": "geodati.gfoss.it", "wikidata": "Q140255"}}, {"type": "node", "id": 72962941, "lat": 41.8389656, "lon": 12.8912487, "tags": {"addr:city": "Palestrina", "addr:country": "IT", "addr:postcode": "00036", "gfoss_id": "4985", "name": "Palestrina", "old_name": "Preneste", "place": "town", "population": "21672", "source": "geodati.gfoss.it", "website": "http://www.comune.palestrina.rm.it", "wikidata": "Q243133", "wikipedia": "it:Palestrina"}}, {"type": "node", "id": 72963393, "lat": 41.778819, "lon": 12.917489, "tags": {"gfoss_id": "5021", "name": "Valmontone", "place": "town", "population": "15959", "source": "geodati.gfoss.it", "wikidata": "Q243514", "wikipedia": "it:Valmontone"}}, {"type": "node", "id": 72962439, "lat": 41.8179234, "lon": 12.9283673, "tags": {"gfoss_id": "4937", "name": "Cave", "place": "town", "population": "11287", "source": "geodati.gfoss.it"}}, {"type": "node", "id": 72962426, "lat": 41.727033, "lon": 13.0041576, "tags": {"gfoss_id": "4945", "name": "Colleferro", "place": "town", "population": "21595", "source": "geodati.gfoss.it", "wikidata": "Q242553"}}, {"type": "node", "id": 72959765, "lat": 41.74472, "lon": 13.152694, "tags": {"gfoss_id": "5071", "name": "Anagni", "place": "town", "population": "21464", "source": "geodati.gfoss.it", "source:population": "wikipedia:it", "wikidata": "Q116404", "wikipedia": "it:Anagni"}}, {"type": "node", "id": 72960584, "lat": 41.567717, "lon": 13.333301, "tags": {"gfoss_id": "5089", "name": "Ceccano", "place": "town", "population": "23565", "source": "geodati.gfoss.it", "wikidata": "Q116706"}}, {"type": "node", "id": 72959669, "lat": 41.6419807, "lon": 13.3469287, "tags": {"capital": "6", "gfoss_id": "5103", "name": "Frosinone", "name:ru": "\u0424\u0440\u043e\u0437\u0438\u043d\u043e\u043d\u0435", "name:zh": "\u5f17\u7f57\u897f\u8bfa\u5185", "place": "city", "population": "46323", "source": "geodati.gfoss.it", "wikidata": "Q13413", "wikipedia": "fr:Frosinone"}}, {"type": "node", "id": 72959900, "lat": 41.692932, "lon": 13.2534215, "tags": {"gfoss_id": "5098", "name": "Ferentino", "place": "town", "population": "21213", "source": "geodati.gfoss.it", "source:population": "wikipedia:it, 31.12.2010", "website": "http://www.comune.ferentino.fr.it/", "wikidata": "Q50197", "wikipedia": "it:Ferentino"}}, {"type": "node", "id": 72960196, "lat": 41.6912723, "lon": 13.4176316, "tags": {"gfoss_id": "5150", "name": "Veroli", "place": "town", "population": "19818", "website": "http://www.comune.veroli.fr.it/veroli/", "wikidata": "Q42466", "wikipedia": "it:Veroli"}}, {"type": "node", "id": 72960231, "lat": 41.7265029, "lon": 13.3423028, "tags": {"gfoss_id": "5068", "name": "Alatri", "place": "town", "population": "28952", "source:population": "Wikipedia:it, 2010-12-31", "wikidata": "Q18400", "wikipedia": "it:Alatri"}}, {"type": "node", "id": 72960511, "lat": 41.7985608, "lon": 13.2204887, "tags": {"gfoss_id": "5100", "name": "Fiuggi", "place": "town", "population": "10536", "source": "geodati.gfoss.it"}}, {"type": "node", "id": 72963535, "lat": 41.9962545, "lon": 12.6236212, "tags": {"gfoss_id": "5032", "name": "Fonte Nuova", "place": "town", "population": "32562", "source": "geodati.gfoss.it", "wikidata": "Q242637"}}, {"type": "node", "id": 72962984, "lat": 42.0517987, "lon": 12.6183967, "tags": {"gfoss_id": "4976", "name": "Monterotondo", "place": "town", "population": "40830", "source": "geodati.gfoss.it", "wikidata": "Q242998"}}, {"type": "node", "id": 72963651, "lat": 42.0350216, "lon": 12.6422717, "tags": {"gfoss_id": "4970", "name": "Mentana", "place": "town", "population": "22921", "source": "geodati.gfoss.it", "wikidata": "Q242942"}}, {"type": "node", "id": 72962305, "lat": 41.9972039, "lon": 12.7263446, "tags": {"addr:postcode": "00012", "gfoss_id": "4958", "name": "Guidonia", "place": "town", "population": "15673", "source": "geodati.gfoss.it"}}, {"type": "node", "id": 1419115460, "lat": 41.9635429, "lon": 12.7542709, "tags": {"name": "Villanova", "place": "town", "population": "15117", "wikidata": "Q2526072", "wikipedia": "it:Villanova (Guidonia Montecelio)"}}, {"type": "node", "id": 72962891, "lat": 42.066633, "lon": 12.7658115, "tags": {"gfoss_id": "4986", "name": "Palombara Sabina", "place": "town", "population": "13269", "source": "geodati.gfoss.it"}}, {"type": "node", "id": 72963337, "lat": 41.960922, "lon": 12.798884, "tags": {"gfoss_id": "5015", "name": "Tivoli", "name:ru": "\u0422\u0438\u0432\u043e\u043b\u0438", "place": "town", "population": "56533", "source": "geodati.gfoss.it", "wikidata": "Q159605"}}, {"type": "node", "id": 72962768, "lat": 42.1719129, "lon": 12.5927265, "tags": {"gfoss_id": "4947", "name": "Fiano Romano", "place": "town", "population": "15360", "source": "geodati.gfoss.it", "wikidata": "Q242618"}}, {"type": "node", "id": 72961250, "lat": 42.2095582, "lon": 12.7293703, "tags": {"alt_name": "Fara Sabina", "gfoss_id": "4865", "name": "Fara in Sabina", "place": "town", "population": "13742", "source": "geodati.gfoss.it", "uri:filas": "http://193.178.216.227/ontoir-web/getRDF?fqName=urn:turismoculturale.itdc.filas-1.0.0-RC1%23turismoCulturale_POI_192", "wikidata": "Q224131", "wikipedia": "it:Fara in Sabina"}}, {"type": "node", "id": 70992371, "lat": 42.098927, "lon": 13.084888, "tags": {"gfoss_id": "5732", "name": "Carsoli", "place": "town", "population": "5086", "source": "geodati.gfoss.it"}}, {"type": "node", "id": 70992933, "lat": 42.069327, "lon": 13.254692, "tags": {"gfoss_id": "5806", "name": "Tagliacozzo", "place": "town", "population": "6532", "source": "geodati.gfoss.it"}}, {"type": "node", "id": 72961883, "lat": 42.1933543, "lon": 13.2338183, "tags": {"gfoss_id": "4845", "name": "Borgorose", "old_name": "Borgocollefegato", "place": "town", "population": "4524", "source": "geodati.gfoss.it"}}, {"type": "node", "id": 70990193, "lat": 42.3489203, "lon": 13.3979672, "tags": {"capital": "4", "gfoss_id": "5756", "name": "L'Aquila", "name:ar": "\u0644\u0627\u0643\u0648\u064a\u0644\u0627", "name:el": "\u039b' \u0386\u03ba\u03bf\u03c5\u03b9\u03bb\u03b1", "name:en": "L'Aquila", "name:eo": "La-Aglo", "name:fa": "\u0644\u0627\u06a9\u0648\u0626\u06cc\u0644\u0627", "name:ru": "\u041b'\u0410\u043a\u0443\u0438\u043b\u0430", "name:uk": "\u041b'\u0410\u043a\u0443\u0457\u043b\u0430", "name:zh": "\u62c9\u594e\u62c9", "old_name": "Aquila degli Abruzzi", "place": "city", "population": "69753", "source": "geodati.gfoss.it", "wikidata": "Q3476", "wikipedia": "it:L'Aquila"}}, {"type": "node", "id": 72959715, "lat": 42.4168441, "lon": 12.1051148, "tags": {"capital": "6", "gfoss_id": "4837", "name": "Viterbo", "name:el": "\u0392\u03b9\u03c4\u03ad\u03c1\u03bc\u03c0\u03bf", "name:en": "Viterbo", "name:fr": "Viterbe", "name:lt": "Viterbas", "name:ru": "\u0412\u0438\u0442\u0435\u0440\u0431\u043e", "name:uk": "\u0412\u0456\u0442\u0435\u0440\u0431\u043e", "name:zh": "\u7dad\u6cf0\u535a", "place": "city", "population": "67173", "source": "geodati.gfoss.it", "wikidata": "Q13395", "wikipedia": "it:Viterbo"}}, {"type": "node", "id": 72964427, "lat": 42.5379248, "lon": 12.0309974, "tags": {"gfoss_id": "4814", "name": "Montefiascone", "place": "town", "population": "13432", "source": "geodati.gfoss.it", "wikidata": "Q176142", "wikipedia": "it:Montefiascone"}}, {"type": "node", "id": 1419995900, "lat": 42.7186152, "lon": 12.1087907, "tags": {"ele": "325", "gfoss_id": "50705", "istat_id": "5502310008", "name": "Orvieto", "place": "town", "population": "20253", "population:date": "2017-12-31", "population:note": "Popolazione del centro abitato. La popolazione dell'intero comune \u00e8 inserita nella relazione amministrativa", "population:note:en": "Urban centre population. The municipality population is in the boundary relation", "source:population": "Istat 2017 census", "website": "http://www.comune.orvieto.tr.it/", "wikidata": "Q541", "wikipedia": "it:Orvieto"}}, {"type": "node", "id": 68507820, "lat": 42.5535279, "lon": 12.4167756, "tags": {"ele": "405", "gfoss_id": "50452", "istat_id": "5500410001", "name": "Amelia", "name:ar": "\u0623\u0645\u064a\u0644\u064a\u0627", "name:bg": "\u0410\u043c\u0435\u043b\u0438\u044f", "name:ja": "\u30a2\u30e1\u30fc\u30ea\u30a2", "name:kk": "\u0410\u043c\u0435\u043b\u0438\u0430", "name:ko": "\uc544\uba5c\ub9ac\uc544", "name:la": "Ameria", "name:ru": "\u0410\u043c\u0435\u043b\u0438\u044f", "name:sr": "\u0410\u043c\u0435\u043b\u0438\u0458\u0430", "name:uk": "\u0410\u043c\u0435\u043b\u0456\u044f", "place": "town", "population": "5537", "population:date": "2011-10-09", "population:note": "Popolazione del centro abitato. La popolazione dell'intero comune \u00e8 inserita nella relazione amministrativa", "population:note:en": "Urban centre population. The municipality population is in the boundary relation", "ref:LOCODE": "ITAME", "source:population": "Istat 2011 census", "website": "http://www.comune.amelia.tr.it/", "wikidata": "Q6238", "wikipedia": "it:Amelia (Italia)"}}, {"type": "node", "id": 68507902, "lat": 42.5195891, "lon": 12.5152257, "tags": {"ele": "240", "gfoss_id": "50637", "istat_id": "5502210008", "name": "Narni", "name:la": "Narnia", "place": "town", "population": "5279", "population:date": "2011-10-09", "population:note": "Popolazione del centro abitato. La popolazione dell'intero comune \u00e8 inserita nella relazione amministrativa", "population:note:en": "Urban centre population. The municipality population is in the boundary relation", "ref:LOCODE": "ITNAR", "source:population": "Istat 2011 census", "website": "http://www.comune.narni.tr.it/", "wikidata": "Q10866", "wikipedia": "it:Narni"}}, {"type": "node", "id": 68507649, "lat": 42.7824434, "lon": 12.4062554, "tags": {"ele": "400", "gfoss_id": "50282", "istat_id": "5405210020", "name": "Todi", "place": "town", "population": "5620", "population:date": "2011-10-09", "population:note": "Popolazione del centro abitato. La popolazione dell'intero comune \u00e8 inserita nella relazione amministrativa", "population:note:en": "Urban centre population. The municipality population is in the boundary relation", "source:population": "Istat 2011 census", "website": "https://www.comune.todi.pg.it/", "wikidata": "Q20579", "wikipedia": "it:Todi"}}, {"type": "node", "id": 61753726, "lat": 43.0927229, "lon": 11.780972, "tags": {"gfoss_id": "4637", "name": "Montepulciano", "name:be": "\u041c\u0430\u043d\u0442\u044d\u043f\u0443\u043b\u044c\u0447\u0430\u043d\u0430", "name:he": "\u05de\u05d5\u05e0\u05d8\u05e4\u05d5\u05dc\u05e6'\u05d0\u05e0\u05d5", "name:ja": "\u30e2\u30f3\u30c6\u30d7\u30eb\u30c1\u30e3\u30fc\u30ce", "name:kk": "\u041c\u043e\u043d\u0442\u0435\u043f\u0443\u043b\u044c\u0447\u0430\u043d\u043e", "name:la": "Mons Politianus", "name:ru": "\u041c\u043e\u043d\u0442\u0435\u043f\u0443\u043b\u044c\u0447\u0430\u043d\u043e", "name:uk": "\u041c\u043e\u043d\u0442\u0435\u043f\u0443\u043b\u044c\u0447\u0456\u0430\u043d\u043e", "name:zh": "\u8499\u7279\u666e\u9f50\u4e9a\u8bfa", "place": "town", "population": "14097", "source": "geodati.gfoss.it", "source:population": "http://dati-censimentopopolazione.istat.it/#", "wikidata": "Q91217", "wikipedia": "it:Montepulciano"}}, {"type": "node", "id": 68507707, "lat": 43.127141, "lon": 12.04525, "tags": {"ele": "304", "gfoss_id": "49163", "istat_id": "5400910004", "name": "Castiglione del Lago", "place": "town", "population": "5344", "population:date": "2011-10-09", "population:note": "Popolazione del centro abitato. La popolazione dell'intero comune \u00e8 inserita nella relazione amministrativa", "population:note:en": "Urban centre population. The municipality population is in the boundary relation", "source:population": "Istat 2011 census", "website": "http://www.comune.castiglione-del-lago.pg.it/", "wikidata": "Q20390", "wikipedia": "it:Castiglione del Lago"}}, {"type": "node", "id": 3687249567, "lat": 42.9100282, "lon": 12.3370419, "tags": {"ele": "184", "gfoss_id": "49727", "istat_id": "5402710006", "name": "Marsciano", "place": "town", "population": "9631", "population:date": "2011-10-09", "population:note": "Popolazione del centro abitato. La popolazione dell'intero comune \u00e8 inserita nella relazione amministrativa", "population:note:en": "Urban centre population. The municipality population is in the boundary relation", "source:population": "Istat 2011 census", "website": "http://www.comune.marsciano.pg.it/", "wikidata": "Q20467", "wikipedia": "it:Marsciano"}}, {"type": "node", "id": 3980125027, "lat": 43.1042279, "lon": 12.3118446, "tags": {"comment": ", including places Chiugiana, Ellera and San Mariano", "name": "Chiugiana", "place": "town", "population": "10604", "wikidata": "Q2586177", "wikipedia": "it:Ellera-Chiugiana"}}, {"type": "node", "id": 1817726665, "lat": 43.0850342, "lon": 12.3463549, "tags": {"name": "San Sisto", "place": "town", "wikidata": "Q2287984", "wikipedia": "it:San Sisto (Perugia)"}}, {"type": "node", "id": 68507573, "lat": 43.1427366, "lon": 12.2034965, "tags": {"ele": "299", "gfoss_id": "49683", "istat_id": "5402610003", "name": "Magione", "place": "town", "population": "6363", "population:date": "2011-10-09", "population:note": "Popolazione del centro abitato. La popolazione dell'intero comune \u00e8 inserita nella relazione amministrativa", "population:note:en": "Urban centre population. The municipality population is in the boundary relation", "source:population": "Istat 2011 census", "website": "http://www.comune.magione.pg.it/", "wikidata": "Q20462", "wikipedia": "it:Magione (Italia)"}}, {"type": "node", "id": 68507505, "lat": 43.1119613, "lon": 12.3890104, "tags": {"capital": "4", "ele": "493", "gfoss_id": "49955", "istat_id": "5403910021", "name": "Perugia", "name:ar": "\u0628\u064a\u0631\u0648\u062c\u064a\u0627", "name:be": "\u041f\u044f\u0440\u0443\u0434\u0436\u0430", "name:ca": "Perusa", "name:el": "\u03a0\u03b5\u03c1\u03bf\u03cd\u03c4\u03b6\u03b9\u03b1", "name:en": "Perugia", "name:eo": "Peru\u011do", "name:fa": "\u067e\u0631\u0648\u062c\u0627", "name:fr": "P\u00e9rouse", "name:he": "\u05e4\u05e8\u05d5\u05d2'\u05d4", "name:lt": "Perud\u017ea", "name:pt": "Per\u00fagia", "name:ru": "\u041f\u0435\u0440\u0443\u0434\u0436\u0430", "name:uk": "\u041f\u0435\u0440\u0443\u0434\u0436\u0430", "name:zh": "\u7fc1\u5e03\u91cc\u4e9a", "place": "city", "population": "120137", "population:date": "2011-10-09", "population:note": "Popolazione del centro abitato. La popolazione dell'intero comune \u00e8 inserita nella relazione amministrativa", "population:note:en": "Urban centre population. The municipality population is in the boundary relation", "source:population": "Istat 2011 census", "website": "https://www.comune.perugia.it/", "wikidata": "Q3437", "wikipedia": "it:Perugia"}}, {"type": "node", "id": 68507516, "lat": 43.0677554, "lon": 12.5495816, "tags": {"ele": "202", "gfoss_id": "49047", "istat_id": "5400210001", "name": "Bastia Umbra", "place": "town", "population": "17831", "population:date": "2011-10-09", "population:note": "Popolazione del centro abitato. La popolazione dell'intero comune \u00e8 inserita nella relazione amministrativa", "population:note:en": "Urban centre population. The municipality population is in the boundary relation", "source:population": "Istat 2011 census", "website": "www.comune.bastia.pg.it", "wikidata": "Q20126", "wikipedia": "en:Bastia Umbra"}}, {"type": "node", "id": 68507510, "lat": 42.5641417, "lon": 12.6405466, "tags": {"capital": "6", "ele": "130", "gfoss_id": "50806", "istat_id": "5503210016", "name": "Terni", "name:el": "\u03a4\u03ad\u03c1\u03bd\u03b9", "name:ru": "\u0422\u0435\u0440\u043d\u0438", "name:zh": "\u7279\u723e\u5c3c", "place": "city", "population": "97050", "population:date": "2011-10-09", "population:note": "Popolazione del centro abitato. La popolazione dell'intero comune \u00e8 inserita nella relazione amministrativa", "population:note:en": "Urban centre population. The municipality population is in the boundary relation", "source:population": "Istat 2011 census", "website": "http://www.comune.terni.it/", "wikidata": "Q8621", "wikipedia": "it:Terni"}}, {"type": "node", "id": 72959697, "lat": 42.4016906, "lon": 12.8629993, "tags": {"capital": "6", "gfoss_id": "4897", "name": "Rieti", "name:el": "\u03a1\u03b9\u03ad\u03c4\u03b9", "name:ru": "\u0420\u0438\u0435\u0442\u0438", "name:zh": "\u5217\u8482", "place": "town", "population": "47751", "source:population": "wikipedia:it 2010-11-31", "wikidata": "Q13396", "wikipedia": "it:Rieti"}}, {"type": "node", "id": 72962064, "lat": 42.3868338, "lon": 12.9483413, "tags": {"gfoss_id": "4854", "name": "Cittaducale", "place": "town", "population": "6542", "source": "geodati.gfoss.it"}}, {"type": "node", "id": 68507812, "lat": 42.7355124, "lon": 12.7363357, "tags": {"ele": "396", "gfoss_id": "50193", "istat_id": "5405110022", "name": "Spoleto", "name:fr": "Spol\u00e8te", "name:la": "Spoletium", "place": "town", "population": "19266", "population:date": "2011-10-09", "population:note": "Popolazione del centro abitato. La popolazione dell'intero comune \u00e8 inserita nella relazione amministrativa", "population:note:en": "Urban centre population. The municipality population is in the boundary relation", "source:population": "Istat 2011 census", "website": "http://www.comunespoleto.gov.it/", "wikidata": "Q20571", "wikipedia": "it:Spoleto"}}, {"type": "node", "id": 68507585, "lat": 42.7924117, "lon": 13.0929279, "tags": {"ele": "604", "gfoss_id": "49866", "istat_id": "5403510010", "name": "Norcia", "name:ru": "\u041d\u043e\u0440\u0447\u0430", "place": "town", "population": "2964", "population:date": "2011-10-09", "population:note": "Popolazione del centro abitato. La popolazione dell'intero comune \u00e8 inserita nella relazione amministrativa", "population:note:en": "Urban centre population. The municipality population is in the boundary relation", "source:population": "Istat 2011 census", "website": "http://www.comune.norcia.pg.it/", "wikidata": "Q20494", "wikipedia": "it:Norcia"}}, {"type": "node", "id": 72961383, "lat": 42.6292367, "lon": 13.2891755, "tags": {"gfoss_id": "4840", "name": "Amatrice", "name:el": "\u0391\u03bc\u03b1\u03c4\u03c1\u03af\u03c4\u03c3\u03b5", "place": "town", "population": "2657", "source": "geodati.gfoss.it"}}, {"type": "node", "id": 68507685, "lat": 42.9561825, "lon": 12.703334, "tags": {"ele": "234", "gfoss_id": "49424", "istat_id": "5401810008", "name": "Foligno", "name:it": "Foligno", "name:ru": "\u0424\u043e\u043b\u0438\u043d\u044c\u043e", "place": "town", "population": "47747", "population:date": "2011-10-09", "population:note": "Popolazione del centro abitato. La popolazione dell'intero comune \u00e8 inserita nella relazione amministrativa", "population:note:en": "Urban centre population. The municipality population is in the boundary relation", "source:population": "Istat 2011 census", "website": "http://www.comune.foligno.pg.it/", "wikidata": "Q20436", "wikipedia": "it:Foligno"}}, {"type": "node", "id": 68507678, "lat": 43.0711952, "lon": 12.6146669, "tags": {"ele": "424", "gfoss_id": "49026", "heritage": "1", "heritage:operator": "whc", "istat_id": "5400110002", "name": "Assisi", "name:ar": "\u0623\u0633\u064a\u0632\u064a", "name:es": "As\u00eds", "name:fr": "Assise", "name:he": "\u05d0\u05e1\u05d9\u05d6\u05d9", "name:hr": "Asiz", "name:la": "Asisium", "name:pl": "Asy\u017c", "name:ru": "\u0410\u0441\u0441\u0438\u0437\u0438", "place": "town", "population": "3732", "population:date": "2011-10-09", "population:note": "Popolazione del centro abitato. La popolazione dell'intero comune \u00e8 inserita nella relazione amministrativa", "population:note:en": "Urban centre population. The municipality population is in the boundary relation", "source:population": "Istat 2011 census", "website": "http://www.comune.assisi.pg.it/", "wikidata": "Q20103", "wikipedia": "it:Assisi"}}, {"type": "node", "id": 70980552, "lat": 42.979965, "lon": 13.3560847, "tags": {"gfoss_id": "4337", "name": "Amandola", "place": "town", "population": "3969", "source": "geodati.gfoss.it"}}, {"type": "node", "id": 368970390, "lat": 43.1357641, "lon": 13.0683092, "tags": {"gfoss_id": "4283", "name": "Camerino", "place": "town", "population": "6974", "postal_code": "62032"}}, {"type": "node", "id": 735120823, "lat": 43.2087546, "lon": 13.2844096, "tags": {"name": "Tolentino", "place": "town", "population": "20069", "postal_code": "62029", "website": "http://www.comune.tolentino.mc.it", "wikidata": "Q94978", "wikipedia": "it:Tolentino"}}, {"type": "node", "id": 67253910, "lat": 37.2883127, "lon": 13.52755, "tags": {"name": "Porto Empedocle", "name:scn": "'a Marina", "old_name": "Marina di Girgenti", "place": "town", "population": "16344", "source": "Istat novembre 2019"}}, {"type": "node", "id": 67253674, "lat": 37.3122991, "lon": 13.57465, "tags": {"alt_name:ar": "\u0643\u0631\u0643\u0646\u062a;\u0623\u063a\u0631\u064a\u062c\u0646\u062a\u0648", "alt_name:el": "\u0391\u03ba\u03c1\u03ac\u03b3\u03b1\u03c2", "capital": "6", "name": "Agrigento", "name:ar": "\u062c\u0631\u062c\u0646\u062a", "name:de": "Agrigent", "name:el": "\u0391\u03b3\u03ba\u03c1\u03b9\u03c4\u03b6\u03ad\u03bd\u03c4\u03bf", "name:en": "Agrigento", "name:fr": "Agrigente", "name:he": "\u05d0\u05d2\u05e8\u05d9\u05d2'\u05e0\u05d8\u05d5", "name:it": "Agrigento", "name:la": "Agrigentum", "name:lt": "Agrid\u017eentas", "name:ru": "\u0410\u0433\u0440\u0438\u0434\u0436\u0435\u043d\u0442\u043e", "name:scn": "Girgenti", "name:uk": "\u0410\u0433\u0440\u0456\u0434\u0436\u0435\u043d\u0442\u043e", "name:zh": "\u963f\u683c\u91cc\u771f\u6258", "old_name:el": "\u1f08\u03ba\u03c1\u03ac\u03b3\u03b1\u03c2", "place": "city", "population": "58545", "source": "Istat novembre 2019", "wikidata": "Q13678"}}, {"type": "node", "id": 67253796, "lat": 37.192638, "lon": 13.764964, "tags": {"alt_name:scn": "Donnafugata", "name": "Palma di Montechiaro", "name:ru": "\u041f\u0430\u043b\u044c\u043c\u0430-\u0434\u0438-\u041c\u043e\u043d\u0442\u0435\u043a\u044c\u044f\u0440\u043e", "name:scn": "Parma di Muntichiaru", "name:uk": "\u041f\u0430\u043b\u044c\u043c\u0430-\u0434\u0456-\u041c\u043e\u043d\u0442\u0435\u043a'\u044f\u0440\u043e", "place": "town", "population": "22320", "source": "Istat novembre 2019"}}, {"type": "node", "id": 67253896, "lat": 37.3161967, "lon": 13.6624175, "tags": {"name": "Favara", "place": "town", "population": "31747", "source": "Istat novembre 2019"}}, {"type": "node", "id": 67253924, "lat": 37.1016361, "lon": 13.9376147, "tags": {"name": "Licata", "place": "town", "population": "36181", "source": "Istat novembre 2019"}}, {"type": "node", "id": 2175182737, "lat": 37.0664363, "lon": 14.2502445, "tags": {"name": "Gela", "name:el": "\u0393\u03ad\u03bb\u03b1", "name:grc": "\u0393\u03ad\u03bb\u03b1\u03c2", "name:it": "Gela", "name:scn": "Gela", "old_name": "Terranova", "place": "town", "population": "73348", "source": "Istat novembre 2019"}}, {"type": "node", "id": 67253804, "lat": 37.2679139, "lon": 13.9732545, "tags": {"name": "Ravanusa", "name:scn": "Rivinusa", "place": "town", "population": "11163", "source": "Istat novembre 2019"}}, {"type": "node", "id": 67254193, "lat": 37.2819611, "lon": 14.0824138, "tags": {"name": "Riesi", "place": "town", "population": "11111", "source": "Istat novembre 2019"}}, {"type": "node", "id": 67254156, "lat": 37.3050236, "lon": 14.2140779, "tags": {"name": "Mazzarino", "name:scn": "Mazzarinu", "place": "town", "population": "11400", "source": "Istat novembre 2019"}}, {"type": "node", "id": 67256820, "lat": 36.827897, "lon": 14.5255384, "tags": {"name": "Santa Croce Camerina", "name:scn": "Santa Cruci Camarina", "place": "town", "population": "11083", "source": "Istat novembre 2019"}}, {"type": "node", "id": 67257275, "lat": 36.7152093, "lon": 15.0914773, "tags": {"name": "Pachino", "place": "town", "population": "22114", "source": "Istat novembre 2019"}}, {"type": "node", "id": 67256807, "lat": 36.7935701, "lon": 14.7069644, "tags": {"heritage": "1", "heritage:operator": "whc", "name": "Scicli", "place": "town", "population": "26918", "source": "Istat novembre 2019"}}, {"type": "node", "id": 67256916, "lat": 36.7263298, "lon": 14.8463434, "tags": {"name": "Pozzallo", "name:scn": "Puzza\u0256\u0256u", "place": "town", "population": "19442", "source": "Istat novembre 2019"}}, {"type": "node", "id": 67256924, "lat": 36.8589209, "lon": 14.7613018, "tags": {"heritage": "1", "heritage:operator": "whc", "name": "Modica", "name:it": "Modica", "name:ru": "\u041c\u043e\u0434\u0438\u043a\u0430", "name:scn": "Mu\u00f2rica", "place": "town", "population": "54107", "source": "Istat novembre 2019"}}, {"type": "node", "id": 67253706, "lat": 36.9219828, "lon": 14.7213455, "tags": {"alt_name:ar": "\u0631\u063a\u0648\u0635;\u0631\u0627\u063a\u0648\u0632\u0627;\u0631\u0627\u062c\u0648\u0633\u0627", "capital": "6", "heritage": "1", "heritage:operator": "whc", "name": "Ragusa", "name:ar": "\u0631\u063a\u0648\u0633", "name:el": "\u03a1\u03b1\u03b3\u03ba\u03bf\u03cd\u03b6\u03b1", "name:en": "Ragusa", "name:fr": "Raguse", "name:it": "Ragusa", "name:lt": "Rag\u016bza", "name:ru": "\u0420\u0430\u0433\u0443\u0437\u0430", "name:scn": "Ra\u00f9sa", "name:uk": "\u0420\u0430\u0433\u0443\u0437\u0430", "name:zh": "\u62c9\u53e4\u8428", "place": "city", "population": "73492", "source": "Istat novembre 2019", "wikidata": "Q13674"}}, {"type": "node", "id": 67256794, "lat": 36.7858319, "lon": 14.907637, "tags": {"name": "Ispica", "name:scn": "Spaccafurnu", "place": "town", "population": "16323", "source": "Istat novembre 2019"}}, {"type": "node", "id": 67257281, "lat": 36.8204988, "lon": 14.9526283, "tags": {"name": "Rosolini", "place": "town", "population": "21123", "source": "Istat novembre 2019"}}, {"type": "node", "id": 67257265, "lat": 36.8908864, "lon": 15.0706454, "tags": {"heritage": "1", "heritage:operator": "whc", "name": "Noto", "name:ru": "\u041d\u043e\u0442\u043e", "place": "town", "population": "24153", "source": "Istat novembre 2019"}}, {"type": "node", "id": 67256910, "lat": 36.9514957, "lon": 14.5304867, "tags": {"name": "Vittoria", "place": "town", "population": "63703", "source": "Istat novembre 2019"}}, {"type": "node", "id": 67256798, "lat": 37.02504, "lon": 14.492981, "tags": {"name": "Acate", "name:scn": "Vischiri", "old_name:-1938": "Biscari", "place": "town", "population": "11557", "population:1593": "620", "population:1861": "2543", "population:1871": "2780", "population:1881": "4077", "population:1901": "3854", "source": "Istat novembre 2019"}}, {"type": "node", "id": 67256855, "lat": 36.9507336, "lon": 14.6074553, "tags": {"name": "Comiso", "name:scn": "U C\u00f2misu", "place": "town", "population": "30318", "source": "Istat novembre 2019"}}, {"type": "node", "id": 67254175, "lat": 37.1464505, "lon": 14.3941802, "tags": {"name": "Niscemi", "place": "town", "population": "26233", "source": "Istat novembre 2019"}}, {"type": "node", "id": 67254633, "lat": 37.2372009, "lon": 14.5132023, "tags": {"heritage": "1", "heritage:operator": "whc", "name": "Caltagirone", "name:scn": "Cartaggiruni", "place": "town", "population": "37332", "source": "Istat novembre 2019"}}, {"type": "node", "id": 67254558, "lat": 37.2146821, "lon": 14.6365417, "tags": {"name": "Grammichele", "name:scn": "Grammicheli", "place": "town", "population": "13235", "source": "Istat novembre 2019"}}, {"type": "node", "id": 67257163, "lat": 37.2265821, "lon": 14.8818808, "tags": {"name": "Francofonte", "name:scn": "Francufonti", "place": "town", "population": "12297", "source": "Istat novembre 2019"}}, {"type": "node", "id": 67254673, "lat": 37.3273551, "lon": 14.7453315, "tags": {"alt_name:scn": "Palaunia", "name": "Palagonia", "name:scn": "Palag\u00f9nia", "place": "town", "population": "16338", "source": "Istat novembre 2019"}}, {"type": "node", "id": 67254452, "lat": 37.2964289, "lon": 14.8462387, "tags": {"name": "Scordia", "name:scn": "Scurd\u00eca", "place": "town", "population": "16746", "source": "Istat novembre 2019"}}, {"type": "node", "id": 67257225, "lat": 37.2758806, "lon": 15.0149783, "tags": {"name": "Carlentini", "name:scn": "Carruntini", "place": "town", "population": "17498", "source": "Istat novembre 2019"}}, {"type": "node", "id": 67257172, "lat": 37.284685, "lon": 14.9987779, "tags": {"name": "Lentini", "place": "town", "population": "22883", "source": "Istat novembre 2019"}}, {"type": "node", "id": 67253920, "lat": 37.4040529, "lon": 13.5320758, "tags": {"name": "Raffadali", "place": "town", "population": "12550", "source": "Istat novembre 2019"}}, {"type": "node", "id": 7316188556, "lat": 37.4089397, "lon": 13.7324019, "tags": {"name": "Racalmuto", "place": "town", "population": "7956", "source": "Istat novembre 2019"}}, {"type": "node", "id": 67254085, "lat": 37.577845, "lon": 13.751259, "tags": {"name": "Mussomeli", "name:scn": "Mussumeli", "place": "town", "population": "10279", "source": "Istat novembre 2019"}}, {"type": "node", "id": 67253888, "lat": 37.358942, "lon": 13.850364, "tags": {"name": "Canicatt\u00ec", "name:scn": "Caniatt\u00ec", "place": "town", "population": "35598", "source": "Istat novembre 2019"}}, {"type": "node", "id": 67254114, "lat": 37.4914458, "lon": 13.9935156, "tags": {"name": "San Cataldo", "place": "town", "population": "22098", "source": "Istat novembre 2019"}}, {"type": "node", "id": 67254886, "lat": 37.3728434, "lon": 14.2033133, "tags": {"name": "Barrafranca", "place": "town", "population": "12609", "source": "Istat novembre 2019"}}, {"type": "node", "id": 67253682, "lat": 37.4899412, "lon": 14.0631618, "tags": {"alt_name:ar": "\u0643\u0627\u0644\u062a\u0627\u0646\u064a\u0633\u064a\u062a\u0627", "alt_name:scn": "Cartanisetta", "capital": "6", "name": "Caltanissetta", "name:ar": "\u0642\u0644\u0639\u0629 \u0627\u0644\u0646\u0633\u0627\u0621", "name:el": "\u039a\u03b1\u03bb\u03c4\u03b1\u03bd\u03b9\u03c3\u03ad\u03c4\u03c4\u03b1", "name:en": "Caltanissetta", "name:ru": "\u041a\u0430\u043b\u044c\u0442\u0430\u043d\u0438\u0441\u0441\u0435\u0442\u0442\u0430", "name:scn": "Nissa", "name:zh": "\u5361\u723e\u5854\u5c3c\u585e\u5854", "place": "city", "population": "60213", "source": "Istat novembre 2019"}}, {"type": "node", "id": 67256646, "lat": 38.0352205, "lon": 13.4514041, "tags": {"name": "Misilmeri", "name:scn": "Mussulumeri", "place": "town", "population": "29311", "source": "Istat novembre 2019"}}, {"type": "node", "id": 67256699, "lat": 38.0765278, "lon": 13.4436674, "tags": {"name": "Villabate", "name:scn": "Villabbati", "place": "town", "population": "19835", "source": "Istat novembre 2019"}}, {"type": "node", "id": 67256415, "lat": 38.079351, "lon": 13.509349, "tags": {"name": "Bagheria", "name:scn": "Baar\u00eca", "place": "town", "population": "54438", "source": "Istat novembre 2019"}}, {"type": "node", "id": 67256513, "lat": 38.0541181, "lon": 13.5302261, "tags": {"name": "Casteldaccia", "name:scn": "Casti\u0256\u0256azzu", "place": "town", "population": "11689", "source": "Istat novembre 2019"}}, {"type": "node", "id": 67256609, "lat": 38.0884578, "lon": 13.4637863, "tags": {"name": "Ficarazzi", "place": "town", "population": "13021", "source": "Istat novembre 2019"}}, {"type": "node", "id": 67256942, "lat": 38.0813306, "lon": 13.5254399, "tags": {"name": "Santa Flavia", "place": "town", "population": "11220", "source": "Istat novembre 2019"}}, {"type": "node", "id": 67256998, "lat": 37.9943863, "lon": 13.6565095, "tags": {"name": "Trabia", "name:scn": "Trabb\u00eca", "place": "town", "population": "10475", "source": "Istat novembre 2019"}}, {"type": "node", "id": 67256928, "lat": 37.983651, "lon": 13.695554, "tags": {"name": "Termini Imerese", "name:scn": "T\u00e8rmini", "place": "town", "population": "25702", "source": "Istat novembre 2019"}}, {"type": "node", "id": 67256494, "lat": 38.034957, "lon": 14.0244562, "tags": {"name": "Cefal\u00f9", "name:scn": "Cifal\u00f9", "place": "town", "population": "14265", "source": "Istat novembre 2019"}}, {"type": "node", "id": 67254910, "lat": 37.385946, "lon": 14.367174, "tags": {"alt_name:scn": "Ciazza", "name": "Piazza Armerina", "name:scn": "Piazza", "place": "town", "population": "21547", "source": "Istat novembre 2019"}}, {"type": "node", "id": 5061439582, "lat": 37.5667573, "lon": 14.2807473, "tags": {"capital": "6", "name": "Enna", "name:it": "Enna", "name:ru": "\u042d\u043d\u043d\u0430", "name:scn": "Castrugiuvanni", "name:zh": "\u6069\u7eb3", "place": "town", "population": "26638", "source": "Istat novembre 2019"}}, {"type": "node", "id": 67254861, "lat": 37.6392121, "lon": 14.3924267, "tags": {"name": "Leonforte", "name:scn": "Liunforti", "place": "town", "population": "12824", "source": "Istat novembre 2019"}}, {"type": "node", "id": 67254855, "lat": 37.747452, "lon": 14.397271, "tags": {"name": "Nicosia", "name:scn": "Nicus\u00eca", "place": "town", "population": "13241", "source": "Istat novembre 2019"}}, {"type": "node", "id": 67254462, "lat": 37.388048, "lon": 14.692681, "tags": {"name": "Ramacca", "place": "town", "population": "10797", "source": "Istat novembre 2019"}}, {"type": "node", "id": 2195104829, "lat": 37.5133908, "lon": 14.9670716, "tags": {"name": "Motta Sant'Anastasia", "place": "town", "population": "12237", "source": "Istat novembre 2019"}}, {"type": "node", "id": 67253693, "lat": 37.5022355, "lon": 15.08738, "tags": {"alt_name:el": "\u039a\u03b1\u03c4\u03ac\u03bd\u03b7", "capital": "6", "heritage": "1", "heritage:operator": "whc", "name": "Catania", "name:ar": "\u0643\u0627\u062a\u0627\u0646\u064a\u0627", "name:be": "\u041a\u0430\u0442\u0430\u043d\u0456\u044f", "name:ca": "Cat\u00e0nia", "name:el": "\u039a\u03b1\u03c4\u03ac\u03bd\u03b9\u03b1", "name:en": "Catania", "name:eo": "Katanio", "name:es": "Catania", "name:fi": "Catania", "name:fr": "Catane", "name:he": "\u05e7\u05d8\u05e0\u05d9\u05d4", "name:it": "Catania", "name:la": "Catina", "name:pl": "Katania", "name:pt": "Cat\u00e2nia", "name:ru": "\u041a\u0430\u0442\u0430\u043d\u0438\u044f", "name:uk": "\u041a\u0430\u0442\u0430\u043d\u0456\u044f", "name:zh": "\u5361\u5854\u5c3c\u4e9e", "place": "city", "population": "310247", "source": "Istat novembre 2019", "wikidata": "Q1903"}}, {"type": "node", "id": 67254688, "lat": 37.5191722, "lon": 15.0079363, "tags": {"name": "Misterbianco", "name:scn": "Mustarjancu", "place": "town", "population": "50158", "source": "Istat novembre 2019"}}, {"type": "node", "id": 67254490, "lat": 37.6462764, "lon": 14.8614108, "tags": {"name": "Biancavilla", "place": "town", "population": "23693", "source": "Istat novembre 2019"}}, {"type": "node", "id": 67254318, "lat": 37.661777, "lon": 14.833099, "tags": {"name": "Adrano", "name:scn": "Adranu", "old_name": "Adern\u00f2", "place": "town", "population": "35228", "source": "Istat novembre 2019"}}, {"type": "node", "id": 67254403, "lat": 37.5670695, "lon": 14.9053521, "tags": {"name": "Patern\u00f2", "name:scn": "Patenn\u00f2", "place": "town", "population": "47152", "source": "Istat novembre 2019"}}, {"type": "node", "id": 67254514, "lat": 37.5891869, "lon": 14.9782386, "tags": {"alt_name:scn": "Malpassu", "name": "Belpasso", "name:scn": "Belpassu", "place": "town", "population": "27994", "source": "Istat novembre 2019"}}, {"type": "node", "id": 67254567, "lat": 37.5603691, "lon": 15.0617632, "tags": {"name": "Gravina di Catania", "name:scn": "Gravina", "place": "town", "population": "25390", "source": "Istat novembre 2019"}}, {"type": "node", "id": 67254426, "lat": 37.5736052, "lon": 15.0517267, "tags": {"name": "Mascalucia", "place": "town", "population": "32039", "source": "Istat novembre 2019"}}, {"type": "node", "id": 67254537, "lat": 37.5764878, "lon": 15.0732205, "tags": {"name": "Tremestieri Etneo", "name:scn": "Trimmisteri", "place": "town", "population": "20032", "source": "Istat novembre 2019"}}, {"type": "node", "id": 67254774, "lat": 37.5774071, "lon": 15.094215, "tags": {"name": "San Giovanni la Punta", "name:scn": "San Giuvanni \u00e0 Punta", "place": "town", "population": "23664", "source": "Istat novembre 2019"}}, {"type": "node", "id": 67254468, "lat": 37.6168095, "lon": 15.0602114, "tags": {"name": "Pedara", "name:scn": "Pirara", "place": "town", "population": "14806", "source": "Istat novembre 2019"}}, {"type": "node", "id": 283889021, "lat": 37.6161157, "lon": 15.0792308, "tags": {"name": "Trecastagni", "name:scn": "Triccastagni", "place": "town", "population": "11146", "source": "Istat novembre 2019"}}, {"type": "node", "id": 67255232, "lat": 38.0680617, "lon": 14.6333345, "tags": {"alt_name:scn": "Sant'\u00c0ita di Militie\u0256\u0256u", "name": "Sant'Agata di Militello", "name:scn": "Sant'\u00c0ita di Milite\u1e0d\u1e0du", "place": "town", "population": "12312", "source": "Istat novembre 2019"}}, {"type": "node", "id": 67254505, "lat": 37.7871598, "lon": 14.8338448, "tags": {"name": "Bronte", "name:scn": "Bronti", "place": "town", "population": "18710", "source": "Istat novembre 2019"}}, {"type": "node", "id": 67254815, "lat": 37.8779338, "lon": 14.9462478, "tags": {"name": "Randazzo", "name:scn": "Rannazzu", "place": "town", "population": "10599", "source": "Istat novembre 2019"}}, {"type": "node", "id": 67255370, "lat": 38.1595733, "lon": 14.7450733, "tags": {"name": "Capo d'Orlando", "name:scn": "Capu d'Orlando", "place": "town", "population": "13286", "source": "Istat novembre 2019"}}, {"type": "node", "id": 67255926, "lat": 38.1389007, "lon": 14.9648163, "tags": {"name": "Patti", "place": "town", "population": "13121", "source": "Istat novembre 2019"}}, {"type": "node", "id": 67256900, "lat": 36.9095158, "lon": 15.1350006, "tags": {"name": "Avola", "name:scn": "Avula", "place": "town", "population": "31163", "source": "Istat novembre 2019"}}, {"type": "node", "id": 67257149, "lat": 37.086946, "lon": 15.151894, "tags": {"name": "Floridia", "name:scn": "Ciuriddia", "place": "town", "population": "22513", "source": "Istat novembre 2019"}}, {"type": "node", "id": 1932675079, "lat": 37.0646139, "lon": 15.2907196, "tags": {"alt_name:ar": "\u0633\u064a\u0631\u0627\u0642\u0648\u0633\u0629;\u0633\u064a\u0631\u0627\u0643\u0648\u0632", "capital": "6", "heritage": "1", "heritage:operator": "whc", "name": "Siracusa", "name:ar": "\u0633\u0631\u0642\u0648\u0633\u0629", "name:cs": "Syrakusy", "name:de": "Syrakus", "name:el": "\u03a3\u03c5\u03c1\u03b1\u03ba\u03bf\u03cd\u03c3\u03b5\u03c2", "name:en": "Syracuse", "name:fi": "Syrakusa", "name:fr": "Syracuse", "name:it": "Siracusa", "name:la": "Syracusae", "name:lt": "Sirak\u016bzai", "name:pl": "Syrakuzy", "name:ru": "\u0421\u0438\u0440\u0430\u043a\u0443\u0437\u0430", "name:scn": "Sarausa", "name:sk": "Syrak\u00fazy", "name:sv": "Syrakusa", "name:uk": "\u0421\u0456\u0440\u0430\u043a\u0443\u0437\u0430", "name:zh": "\u53d9\u62c9\u53e4", "place": "city", "population": "120533", "ref:whc": "N", "source": "Istat novembre 2019", "website": "http://www.comune.siracusa.it", "whc:criteria": "ii,iii,iv,vi", "whc:inscription_date": "2005", "wikidata": "Q13670", "wikipedia": "it:Siracusa"}}, {"type": "node", "id": 67257184, "lat": 37.1782878, "lon": 15.1266212, "tags": {"name": "Melilli", "name:scn": "Miliddi", "place": "town", "population": "13501", "source": "Istat novembre 2019"}}, {"type": "node", "id": 67257241, "lat": 37.1579298, "lon": 15.1860285, "tags": {"name": "Priolo Gargallo", "name:scn": "Priolu", "place": "town", "population": "11700", "source": "Istat novembre 2019"}}, {"type": "node", "id": 67256904, "lat": 37.2369363, "lon": 15.2196575, "tags": {"name": "Augusta", "name:scn": "A\u00f9sta", "place": "town", "population": "35642", "source": "Istat novembre 2019"}}, {"type": "node", "id": 67254388, "lat": 37.5542111, "lon": 15.14856, "tags": {"name": "Aci Castello", "name:scn": "Jaci Caste\u0256\u0256u", "place": "town", "population": "18371", "source": "Istat novembre 2019"}}, {"type": "node", "id": 67254481, "lat": 37.565254, "lon": 15.111788, "tags": {"name": "San Gregorio di Catania", "name:ar": "\u0633\u0627\u0646 \u062c\u0631\u064a\u062c\u0648\u0631\u064a\u0648 \u062f\u064a \u0643\u0627\u062a\u0627\u0646\u064a\u0627", "name:ru": "\u0421\u0430\u043d-\u0413\u0440\u0438\u0433\u043e\u0440\u0438\u043e-\u0434\u0435\u043b\u044c-\u041a\u0430\u0442\u0430\u043d\u0438\u0438", "name:scn": "San Grigoriu", "name:uk": "\u0421\u0430\u043d-\u0413\u0440\u0435\u0433\u043e\u0440\u0456\u043e-\u0434\u0456-\u041a\u0430\u0442\u0430\u043d\u0456\u044f", "place": "town", "population": "11846", "source": "Istat novembre 2019"}}, {"type": "node", "id": 67254289, "lat": 37.6063923, "lon": 15.1268948, "tags": {"name": "Aci Sant'Antonio", "name:scn": "Sant'Antoni", "place": "town", "population": "18159", "source": "Istat novembre 2019"}}, {"type": "node", "id": 67254216, "lat": 37.60257, "lon": 15.1419604, "tags": {"name": "Aci Catena", "name:scn": "Jaci Catina", "place": "town", "population": "28821", "source": "Istat novembre 2019"}}, {"type": "node", "id": 67254247, "lat": 37.6127773, "lon": 15.1658804, "tags": {"alt_name:scn": "Jaci", "name": "Acireale", "name:scn": "Jaciriali", "place": "town", "population": "51899", "source": "Istat novembre 2019"}}, {"type": "node", "id": 67254592, "lat": 37.726857, "lon": 15.187688, "tags": {"name": "Giarre", "name:scn": "Giarri", "place": "town", "population": "27352", "source": "Istat novembre 2019"}}, {"type": "node", "id": 67254806, "lat": 37.7318901, "lon": 15.2042214, "tags": {"name": "Riposto", "name:scn": "Ripostu", "place": "town", "population": "14560", "source": "Istat novembre 2019"}}, {"type": "node", "id": 67254716, "lat": 37.7602846, "lon": 15.1974313, "tags": {"name": "Mascali", "place": "town", "population": "14372", "source": "Istat novembre 2019"}}, {"type": "node", "id": 67255598, "lat": 37.8517921, "lon": 15.2856523, "tags": {"name": "Taormina", "name:el": "\u03a4\u03b1\u03bf\u03c1\u03bc\u03af\u03bd\u03b1", "name:fr": "Taormine", "name:it": "Taormina", "name:la": "Tauromenium", "name:ru": "\u0422\u0430\u043e\u0440\u043c\u0438\u043d\u0430", "name:scn": "Taurmina", "old_name:el": "\u03a4\u03b1\u03c5\u03c1\u03bf\u03bc\u03ad\u03bd\u03b9\u03bf\u03bd", "place": "town", "population": "10815", "source": "Istat novembre 2019"}}, {"type": "node", "id": 67254944, "lat": 38.1483059, "lon": 15.2175523, "tags": {"name": "Barcellona Pozzo di Gotto", "name:scn": "Baccialona Pizzaottu", "place": "town", "population": "41155", "short_name": "Barcellona", "source": "Istat novembre 2019"}}, {"type": "node", "id": 67275514, "lat": 37.9203843, "lon": 15.7778568, "tags": {"gfoss_id": "6770", "name": "Melito di Porto Salvo", "place": "town", "population": "11355", "source": "geodati.gfoss.it"}}, {"type": "node", "id": 1773198626, "lat": 38.0245653, "lon": 15.6509647, "tags": {"name": "Pellaro", "place": "town", "population": "13111", "wikidata": "Q3898899", "wikipedia": "it:Pellaro"}}, {"type": "node", "id": 67273280, "lat": 38.1035389, "lon": 15.6397556, "tags": {"alt_name": "Reggio Calabria", "capital": "6", "gfoss_id": "6783", "name": "Reggio di Calabria", "name:ar": "\u0631\u064a\u062f\u062c\u0648 \u0643\u0627\u0644\u0627\u0628\u0631\u064a\u0627", "name:ca": "Reggio de Cal\u00e0bria", "name:el": "\u03a1\u03ae\u03b3\u03b9\u03bf", "name:en": "Reggio Calabria", "name:es": "Regio de Calabria", "name:fa": "\u0631\u062c\u06cc\u0648 \u06a9\u0627\u0644\u0627\u0628\u0631\u06cc\u0627", "name:fr": "Reggio de Calabre", "name:he": "\u05e8\u05d2'\u05d5 \u05d3\u05d9 \u05e7\u05dc\u05d1\u05e8\u05d9\u05d4", "name:ja": "\u30ec\u30c3\u30b8\u30e7\u30fb\u30c7\u30a3\u30fb\u30ab\u30e9\u30d6\u30ea\u30a2", "name:ko": "\ub808\uc870\ub514\uce7c\ub77c\ube0c\ub9ac\uc544", "name:la": "Rhegium", "name:lt": "Kalabrijos Red\u017eas", "name:pt": "R\u00e9gio da Cal\u00e1bria", "name:ru": "\u0420\u0435\u0434\u0436\u043e-\u0434\u0438-\u041a\u0430\u043b\u0430\u0431\u0440\u0438\u044f", "name:scn": "Riggiu Calabbria", "name:uk": "\u0420\u0435\u0434\u0436\u043e-\u041a\u0430\u043b\u0430\u0431\u0440\u0456\u044f", "name:zh": "\u96f7\u7126\u5361\u62c9\u5e03\u91cc\u4e9a", "place": "city", "population": "183035", "source": "geodati.gfoss.it", "wikidata": "Q8471", "wikipedia": "it:Reggio Calabria"}}, {"type": "node", "id": 67256057, "lat": 38.4681846, "lon": 14.9547202, "tags": {"name": "Lipari", "name:mk": "\u041b\u0438\u043f\u0430\u0440\u0438", "place": "town", "population": "12815", "source": "Istat novembre 2019"}}, {"type": "node", "id": 1819880627, "lat": 38.2208049, "lon": 15.2415129, "tags": {"name": "Milazzo", "name:scn": "Milazzu", "place": "town", "population": "29935", "source": "Istat gennaio 2020"}}, {"type": "node", "id": 67253701, "lat": 38.1937571, "lon": 15.5542082, "tags": {"capital": "6", "name": "Messina", "name:an": "Mecina", "name:ar": "\u0645\u0633\u064a\u0646\u0629", "name:be": "\u041c\u0435\u0441\u0456\u043d\u0430", "name:el": "\u039c\u03b5\u03c3\u03c3\u03ae\u03bd\u03b7", "name:en": "Messina", "name:eo": "Mesino", "name:es": "Mesina", "name:fr": "Messine", "name:he": "\u05de\u05e1\u05d9\u05e0\u05d4", "name:it": "Messina", "name:ja": "\u30e1\u30c3\u30b7\u30fc\u30ca", "name:la": "Messana", "name:lt": "Mesina", "name:pl": "Mesyna", "name:ru": "\u041c\u0435\u0441\u0441\u0438\u043d\u0430", "name:scn": "Missina", "name:uk": "\u041c\u0435\u0441\u0441\u0456\u043d\u0430", "name:zh": "\u58a8\u897f\u62ff", "old_name:el": "\u0396\u03ac\u03b3\u03ba\u03bb\u03b7", "place": "city", "population": "230282", "source": "Istat novembre 2019", "wikidata": "Q13666"}}, {"type": "node", "id": 67275353, "lat": 38.2201116, "lon": 15.6373809, "tags": {"gfoss_id": "6816", "name": "Villa San Giovanni", "place": "town", "population": "13784", "source": "geodati.gfoss.it"}}, {"type": "node", "id": 67275672, "lat": 38.288471, "lon": 15.807795, "tags": {"gfoss_id": "6727", "name": "Bagnara Calabra", "place": "town", "population": "10255", "source": "geodati.gfoss.it"}}, {"type": "node", "id": 67275435, "lat": 38.3574488, "lon": 15.8465649, "tags": {"gfoss_id": "6777", "name": "Palmi", "place": "town", "population": "18930", "source": "geodati.gfoss.it", "wikidata": "Q54633"}}, {"type": "node", "id": 67275363, "lat": 38.423974, "lon": 15.898995, "tags": {"gfoss_id": "6758", "name": "Gioia Tauro", "place": "town", "population": "19864", "short_name": "Gioia", "source": "geodati.gfoss.it", "wikidata": "Q54614"}}, {"type": "node", "id": 67275336, "lat": 38.3550541, "lon": 16.0147781, "tags": {"gfoss_id": "6813", "name": "Taurianova", "place": "town", "population": "15636", "source": "geodati.gfoss.it", "wikidata": "Q54682"}}, {"type": "node", "id": 67275734, "lat": 38.353949, "lon": 16.0806025, "tags": {"gfoss_id": "6748", "name": "Cittanova", "place": "town", "population": "10410", "source": "geodati.gfoss.it"}}, {"type": "node", "id": 67275687, "lat": 38.2385368, "lon": 16.2655092, "tags": {"gfoss_id": "6763", "name": "Locri", "place": "town", "population": "12504", "source": "geodati.gfoss.it"}}, {"type": "node", "id": 67275296, "lat": 38.2761626, "lon": 16.2981599, "tags": {"gfoss_id": "6808", "name": "Siderno", "place": "town", "population": "18191", "source": "geodati.gfoss.it", "wikidata": "Q54672"}}, {"type": "node", "id": 67275478, "lat": 38.4872833, "lon": 15.9764948, "tags": {"gfoss_id": "6789", "name": "Rosarno", "place": "town", "population": "14841", "source": "geodati.gfoss.it"}}, {"type": "node", "id": 67275626, "lat": 38.4065094, "lon": 16.0774549, "tags": {"gfoss_id": "6781", "name": "Polistena", "place": "town", "population": "10496", "source": "geodati.gfoss.it"}}, {"type": "node", "id": 3799851043, "lat": 38.6759329, "lon": 16.0998186, "tags": {"capital": "6", "name": "Vibo Valentia", "place": "city", "population": "33941", "wikidata": "Q13625"}}, {"type": "node", "id": 3617512148, "lat": 38.9645069, "lon": 16.3021451, "tags": {"addr:city": "Lamezia Terme", "addr:postcode": "88046", "addr:street": "Corso Giovanni Nicotera", "gfoss_id": "6720", "name": "Lamezia Terme", "name:ru": "\u041b\u0430\u043c\u0435\u0446\u0438\u044f-\u0422\u0435\u0440\u043c\u0435", "place": "town", "population": "70714", "source": "geodati.gfoss.it", "wikidata": "Q53643"}}, {"type": "node", "id": 6368932264, "lat": 38.687717, "lon": 16.5500442, "tags": {"name": "Soverato", "place": "town", "population": "9095"}}, {"type": "node", "id": 7757111115, "lat": 38.8233552, "lon": 16.4263838, "tags": {"name": "Girifalco", "place": "town"}}, {"type": "node", "id": 8138169658, "lat": 38.8216667, "lon": 16.6163211, "tags": {"name": "Catanzaro Lido", "place": "town", "population": "12.385"}}, {"type": "node", "id": 67273291, "lat": 38.9076353, "lon": 16.5960465, "tags": {"alt_name:ar": "\u0643\u062a\u0646\u0632\u0627\u0631\u0648;\u0643\u0627\u062a\u0627\u0646\u0632\u0627\u0631\u0648", "capital": "4", "gfoss_id": "6653", "name": "Catanzaro", "name:ar": "\u0642\u0637\u0646\u0635\u0627\u0631", "name:el": "\u039a\u03b1\u03c4\u03b1\u03bd\u03c4\u03b6\u03ac\u03c1\u03bf", "name:fa": "\u0642\u0637\u0646\u0635\u0627\u0631", "name:mk": "\u041a\u0430\u0442\u0430\u043d\u0455\u0430\u0440\u043e", "name:ru": "\u041a\u0430\u0442\u0430\u043d\u0434\u0437\u0430\u0440\u043e", "name:scn": "Catanzaru", "name:uk": "\u041a\u0430\u0442\u0430\u043d\u0434\u0437\u0430\u0440\u043e", "name:ur": "\u0642\u0637\u0646\u0635\u0627\u0631", "name:zh": "\u5361\u5766\u624e\u7f85", "official_name": "Provincia di Catanzaro", "official_name:ar": "\u0645\u0642\u0627\u0637\u0639\u0629 \u0642\u0637\u0646\u0635\u0627\u0631", "place": "city", "population": "90610", "source": "geodati.gfoss.it", "wikidata": "Q3883", "wikipedia": "it:Catanzaro"}}, {"type": "node", "id": 8190697694, "lat": 38.9574089, "lon": 16.5873088, "tags": {"place": "city", "wikidata": "Q3948819", "wikipedia": "it:Sant'Elia"}}, {"type": "node", "id": 67274923, "lat": 39.8166598, "lon": 15.7905473, "tags": {"gfoss_id": "6623", "name": "Scalea", "place": "town", "population": "10913", "source": "geodati.gfoss.it"}}, {"type": "node", "id": 67273882, "lat": 39.133189, "lon": 16.074591, "tags": {"gfoss_id": "6495", "name": "Amantea", "place": "town", "population": "13975", "source": "geodati.gfoss.it"}}, {"type": "node", "id": 67274578, "lat": 39.359893, "lon": 16.039588, "tags": {"gfoss_id": "6576", "name": "Paola", "place": "town", "population": "16013", "source": "geodati.gfoss.it", "wikidata": "Q53928"}}, {"type": "node", "id": 67274764, "lat": 39.3319934, "lon": 16.1843828, "tags": {"gfoss_id": "6587", "name": "Rende", "place": "town", "population": "35338", "source": "geodati.gfoss.it", "wikidata": "Q53946"}}, {"type": "node", "id": 7940035888, "lat": 39.3073994, "lon": 16.2182423, "tags": {"name": "Andreotta", "place": "town", "postal_code": "87040"}}, {"type": "node", "id": 67273302, "lat": 39.3099931, "lon": 16.2501929, "tags": {"alt_name:ar": "\u0643\u0648\u0632\u0646\u0633\u0627;\u0643\u0648\u0633\u0646\u0632\u0627", "capital": "6", "gfoss_id": "6530", "name": "Cosenza", "name:ar": "\u0643\u0634\u0646\u062a\u0629", "name:el": "\u039a\u03bf\u03b6\u03ad\u03bd\u03c4\u03c3\u03b1", "name:fa": "\u06a9\u0632\u0646\u062a\u0632\u0627", "name:ru": "\u041a\u043e\u0437\u0435\u043d\u0446\u0430", "name:scn": "Cusenza", "name:sr": "\u041a\u043e\u0437\u0435\u043d\u0446\u0430", "name:ur": "\u06a9\u0648\u0632\u06cc\u0646\u062a\u0633\u0627", "name:zh": "\u79d1\u68ee\u624e", "place": "city", "population": "67546", "source": "geodati.gfoss.it", "wikidata": "Q13619"}}, {"type": "node", "id": 67274585, "lat": 39.404795, "lon": 16.15799, "tags": {"gfoss_id": "6566", "name": "Montalto Uffugo", "place": "town", "population": "19669", "source": "geodati.gfoss.it", "wikidata": "Q53917"}}, {"type": "node", "id": 67274323, "lat": 39.2529756, "lon": 16.6973766, "tags": {"gfoss_id": "6604", "name": "San Giovanni in Fiore", "place": "town", "population": "17372", "source": "geodati.gfoss.it", "wikidata": "Q53969"}}, {"type": "node", "id": 67273970, "lat": 39.516595, "lon": 15.941584, "tags": {"gfoss_id": "6525", "name": "Cetraro", "place": "town", "population": "10128", "source": "geodati.gfoss.it"}}, {"type": "node", "id": 4365635924, "lat": 39.5001974, "lon": 16.2744614, "tags": {"name": "Bisignano", "place": "town", "population": "10203"}}, {"type": "node", "id": 4245096015, "lat": 39.8154937, "lon": 16.202772, "tags": {"gfoss_id": "6518", "name": "Castrovillari", "place": "town", "population": "22240", "source": "geodati.gfoss.it", "wikidata": "Q53857"}}, {"type": "node", "id": 67273919, "lat": 39.7850225, "lon": 16.3159275, "tags": {"alt_name": "Cassano allo Ionio", "gfoss_id": "6514", "name": "Cassano all'Ionio", "place": "town", "population": "18495", "source": "geodati.gfoss.it"}}, {"type": "node", "id": 67273894, "lat": 39.493005, "lon": 16.3849498, "tags": {"gfoss_id": "6488", "name": "Acri", "place": "town", "population": "20858", "source": "geodati.gfoss.it", "wikidata": "Q53819", "wikipedia": "it:Acri (Italia)"}}, {"type": "node", "id": 4867931083, "lat": 39.6265898, "lon": 16.5119684, "tags": {"name": "Corigliano Scalo", "place": "town", "population": "15136"}}, {"type": "node", "id": 67274165, "lat": 39.5746821, "lon": 16.6348647, "tags": {"gfoss_id": "6593", "name": "Rossano", "place": "town", "population": "5194", "source": "geodati.gfoss.it", "wikidata": "Q53952", "wikipedia": "it:Rossano (Italia)"}}, {"type": "node", "id": 5517351647, "lat": 39.599538, "lon": 16.6329574, "tags": {"name": "Rossano Scalo", "place": "town", "population": "23824"}},