{"type": "FeatureCollection", "features": [{"type": "Feature", "properties": {"type": "node", "id": 5970431386, "tags": {"name": "Ljubu\u0161ki", "name:sr": "\u0409\u0443\u0431\u0443\u0448\u043a\u0438", "place": "town", "population": "4387", "postal_code": "88 320", "wikidata": "Q1018016", "wikipedia": "en:Ljubu\u0161ki"}}, "geometry": {"type": "Point", "coordinates": [17.540558, 43.1904758]}}, {"type": "Feature", "properties": {"type": "node", "id": 253020205, "tags": {"name": "Trebinje", "name:de": "Trebing", "name:en": "Trebinje", "name:hr": "Trebinje", "name:it": "Trebigne", "name:lt": "Trebin\u0117", "name:ru": "\u0422\u0440\u0435\u0431\u0438\u043d\u0435", "name:sr": "\u0422\u0440\u0435\u0431\u0438\u045a\u0435", "place": "city", "population": "25589", "wikidata": "Q690052", "wikipedia": "bs:Trebinje"}}, "geometry": {"type": "Point", "coordinates": [18.3457261, 42.7098295]}}, {"type": "Feature", "properties": {"type": "node", "id": 255533266, "tags": {"name": "Neum", "name:lt": "Neumas", "name:mk": "\u041d\u0435\u0443\u043c", "name:ru": "\u041d\u0435\u0443\u043c", "name:sr": "\u041d\u0435\u0443\u043c", "place": "town", "population": "4960", "wikidata": "Q320623", "wikipedia": "bs:Neum"}}, "geometry": {"type": "Point", "coordinates": [17.6186086, 42.9248897]}}, {"type": "Feature", "properties": {"type": "node", "id": 7289659797, "tags": {"name": "\u010capljina", "name:bs": "\u010capljina", "name:hr": "\u010capljina", "name:sr": "\u0427\u0430\u043f\u0459\u0438\u043d\u0430", "name:sr-Latn": "\u010capljina", "place": "town", "population": "6340", "wikidata": "Q337683", "wikipedia": "bs:\u010capljina"}}, "geometry": {"type": "Point", "coordinates": [17.7051128, 43.113417]}}, {"type": "Feature", "properties": {"type": "node", "id": 448756226, "tags": {"name": "Stolac", "name:ru": "\u0421\u0442\u043e\u043b\u0430\u0446", "name:sr": "\u0421\u0442\u043e\u043b\u0430\u0446", "place": "town", "wikidata": "Q1026587", "wikipedia": "bs:Stolac"}}, "geometry": {"type": "Point", "coordinates": [17.9583759, 43.082778]}}, {"type": "Feature", "properties": {"type": "node", "id": 842336618, "tags": {"int_name": "Ljubinje", "name": "Ljubinje", "name:hr": "Ljubinje", "name:ru": "\u041b\u044e\u0431\u0438\u043d\u0435", "name:sr": "\u0409\u0443\u0431\u0438\u045a\u0435", "place": "town", "population": "2595", "wikidata": "Q936404", "wikipedia": "bs:Ljubinje"}}, "geometry": {"type": "Point", "coordinates": [18.0897048, 42.9509792]}}, {"type": "Feature", "properties": {"type": "node", "id": 254037328, "tags": {"name": "Bile\u0107a", "name:ru": "\u0411\u0438\u043b\u0435\u0447\u0430", "name:sr": "\u0411\u0438\u043b\u0435\u045b\u0430", "name:sr-Latn": "Bile\u0107a", "place": "town", "population": "8332", "wikidata": "Q861772", "wikipedia": "bs:Bile\u0107a"}}, "geometry": {"type": "Point", "coordinates": [18.4284847, 42.87207]}}, {"type": "Feature", "properties": {"type": "node", "id": 254037311, "tags": {"name": "Gacko", "name:ru": "\u0413\u0430\u0446\u043a\u043e", "name:sr": "\u0413\u0430\u0446\u043a\u043e", "place": "town", "population": "8990", "wikidata": "Q168991", "wikipedia": "bs:Gacko"}}, "geometry": {"type": "Point", "coordinates": [18.5356534, 43.1667595]}}, {"type": "Feature", "properties": {"type": "node", "id": 1596886537, "tags": {"ele": "222", "name": "Biha\u0107", "name:bs": "Biha\u0107", "name:en": "Biha\u0107", "name:hr": "Biha\u0107", "name:hu": "Bih\u00e1cs", "name:ru": "\u0411\u0438\u0445\u0430\u0447", "name:sr": "\u0411\u0438\u0445\u0430\u045b", "name:sr-Latn": "Biha\u0107", "place": "city", "population": "39690", "website": "http://www.bihac.org", "wikidata": "Q204434", "wikipedia": "bs:Biha\u0107"}}, "geometry": {"type": "Point", "coordinates": [15.8690863, 44.8146409]}}, {"type": "Feature", "properties": {"type": "node", "id": 593889025, "tags": {"name": "Bosansko Grahovo", "name:ru": "\u0411\u043e\u0441\u0430\u043d\u0441\u043a\u043e-\u0413\u0440\u0430\u0445\u043e\u0432\u043e", "name:sr": "\u0411\u043e\u0441\u0430\u043d\u0441\u043a\u043e \u0413\u0440\u0430\u0445\u043e\u0432\u043e", "place": "town", "population": "651", "wikidata": "Q894349", "wikipedia": "bs:Bosansko Grahovo"}}, "geometry": {"type": "Point", "coordinates": [16.36568, 44.1808174]}}, {"type": "Feature", "properties": {"type": "node", "id": 135291488, "tags": {"name": "Drvar", "name:ru": "\u0414\u0440\u0432\u0430\u0440", "name:sr": "\u0414\u0440\u0432\u0430\u0440", "place": "town", "population": "3703", "wikidata": "Q762884", "wikipedia": "bs:Drvar"}}, "geometry": {"type": "Point", "coordinates": [16.3827291, 44.374769]}}, {"type": "Feature", "properties": {"type": "node", "id": 841364318, "tags": {"name": "Bosanska Krupa", "name:ru": "\u0411\u043e\u0441\u0430\u043d\u0441\u043a\u0430-\u041a\u0440\u0443\u043f\u0430", "name:sr": "\u0411\u043e\u0441\u0430\u043d\u0441\u043a\u0430 \u041a\u0440\u0443\u043f\u0430", "place": "town", "population": "10196", "wikidata": "Q841411", "wikipedia": "bs:Bosanska Krupa"}}, "geometry": {"type": "Point", "coordinates": [16.1577, 44.8824428]}}, {"type": "Feature", "properties": {"type": "node", "id": 631985677, "tags": {"name": "Bosanski Petrovac", "name:ru": "\u0411\u043e\u0441\u0430\u043d\u0441\u043a\u0438-\u041f\u0435\u0442\u0440\u043e\u0432\u0430\u0446", "name:sr": "\u0411\u043e\u0441\u0430\u043d\u0441\u043a\u0438 \u041f\u0435\u0442\u0440\u043e\u0432\u0430\u0446", "place": "town", "wikidata": "Q894348", "wikipedia": "bs:Bosanski Petrovac"}}, "geometry": {"type": "Point", "coordinates": [16.369403, 44.5560108]}}, {"type": "Feature", "properties": {"type": "node", "id": 492129871, "tags": {"name": "Klju\u010d", "name:sr": "\u041a\u0459\u0443\u0447", "place": "town", "population": "4898", "wikidata": "Q279995", "wikipedia": "bs:Klju\u010d (op\u0107ina)"}}, "geometry": {"type": "Point", "coordinates": [16.7752127, 44.5333028]}}, {"type": "Feature", "properties": {"type": "node", "id": 248400862, "tags": {"ele": "158", "name": "Sanski Most", "name:ru": "\u0421\u0430\u043d\u0441\u043a\u0438-\u041c\u043e\u0441\u0442", "name:sr": "\u0421\u0430\u043d\u0441\u043a\u0438 \u041c\u043e\u0441\u0442", "place": "town", "population": "16913", "telephone_area_code": "+387 37", "wikidata": "Q2189505", "wikipedia": "en:Sanski Most"}}, "geometry": {"type": "Point", "coordinates": [16.6656827, 44.7651882]}}, {"type": "Feature", "properties": {"type": "node", "id": 765199709, "tags": {"name": "Velika Kladu\u0161a", "name:pl": "Wielka Kladusza", "name:sr": "\u0412\u0435\u043b\u0438\u043a\u0430 \u041a\u043b\u0430\u0434\u0443\u0448\u0430", "old_name:de": "Gro\u00df-Kladu\u00df", "place": "town", "population": "4520", "wikidata": "Q994287", "wikipedia": "bs:Velika Kladu\u0161a"}}, "geometry": {"type": "Point", "coordinates": [15.8070634, 45.1854105]}}, {"type": "Feature", "properties": {"type": "node", "id": 538061083, "tags": {"name": "Cazin", "name:ru": "\u0426\u0430\u0437\u0438\u043d", "name:sr": "\u0426\u0430\u0437\u0438\u043d", "place": "town", "population": "13863", "wikidata": "Q994203", "wikipedia": "bs:Cazin"}}, "geometry": {"type": "Point", "coordinates": [15.9422388, 44.9665348]}}, {"type": "Feature", "properties": {"type": "node", "id": 765262476, "tags": {"name": "Bu\u017eim", "name:ru": "\u0411\u0443\u0436\u0438\u043c", "name:sr": "\u0411\u0443\u0436\u0438\u043c", "place": "town", "population": "2191", "wikidata": "Q1017912", "wikipedia": "bs:Bu\u017eim"}}, "geometry": {"type": "Point", "coordinates": [16.0316808, 45.0625034]}}, {"type": "Feature", "properties": {"type": "node", "id": 2178914245, "tags": {"alt_name": "Bosanski Novi", "int_name": "Novi Grad", "name": "Novi Grad", "name:bs": "Bosanski Novi", "name:hr": "Bosanski Novi", "name:sr": "\u041d\u043e\u0432\u0438 \u0413\u0440\u0430\u0434", "old_name": "Bosanski Novi", "place": "town", "population": "11063", "wikidata": "Q194948", "wikipedia": "bs:Bosanski Novi"}}, "geometry": {"type": "Point", "coordinates": [16.3760681, 45.0492984]}}, {"type": "Feature", "properties": {"type": "node", "id": 1217207082, "tags": {"name": "Prijedor", "name:bg": "\u041f\u0440\u0438\u0458\u0435\u0434\u043e\u0440", "name:bs": "Prijedor", "name:de": "Prijedor", "name:en": "Prijedor", "name:fr": "Prijedor", "name:hr": "Prijedor", "name:ru": "\u041f\u0440\u0438\u0435\u0434\u043e\u0440", "name:sr": "\u041f\u0440\u0438\u0458\u0435\u0434\u043e\u0440", "name:sr-Latn": "Prijedor", "place": "city", "population": "32342", "wikidata": "Q323986", "wikipedia": "bs:Prijedor"}}, "geometry": {"type": "Point", "coordinates": [16.7131197, 44.9805039]}}, {"type": "Feature", "properties": {"type": "node", "id": 621515666, "tags": {"alt_name": "Kostajnica", "int_name": "Kostajnica", "name": "Kostajnica", "name:bs": "Bosanska Kostajnica", "name:hr": "Bosanska Kostajnica", "name:it": "Bosanska Kostajnica", "name:ru": "\u041a\u043e\u0441\u0442\u0430\u0439\u043d\u0438\u0446\u0430", "name:sr": "\u041a\u043e\u0441\u0442\u0430\u0458\u043d\u0438\u0446\u0430", "name:sr-Latn": "Kostajnica", "name:tr": "Kostani\u00e7e", "old_name": "Bosanska Kostajnica", "place": "town", "population": "4047", "wikidata": "Q1017897", "wikipedia": "bs:Bosanska Kostajnica"}}, "geometry": {"type": "Point", "coordinates": [16.5455599, 45.2187395]}}, {"type": "Feature", "properties": {"type": "node", "id": 2371640762, "tags": {"name": "Grude", "name:sr": "\u0413\u0440\u0443\u0434\u0435", "place": "town", "population": "4347", "wikidata": "Q1017931", "wikipedia": "bs:Grude"}}, "geometry": {"type": "Point", "coordinates": [17.4141836, 43.3723256]}}, {"type": "Feature", "properties": {"type": "node", "id": 1222091911, "tags": {"name": "\u0160iroki Brijeg", "name:sr": "\u0428\u0438\u0440\u043e\u043a\u0438 \u0411\u0440\u0438\u0458\u0435\u0433", "place": "town", "population": "6426", "wikidata": "Q391729", "wikipedia": "bs:\u0160iroki Brijeg"}}, "geometry": {"type": "Point", "coordinates": [17.5929153, 43.3831944]}}, {"type": "Feature", "properties": {"type": "node", "id": 1667495623, "tags": {"name": "Posu\u0161je", "name:sr": "\u041f\u043e\u0441\u0443\u0448\u0458\u0435", "place": "town", "population": "6386", "wikidata": "Q932478", "wikipedia": "bs:Posu\u0161je"}}, "geometry": {"type": "Point", "coordinates": [17.3271281, 43.4712288]}}, {"type": "Feature", "properties": {"type": "node", "id": 1049890686, "tags": {"capital": "5", "default_language": "hr", "ele": "724", "name": "Livno", "name:ar": "\u0644\u064a\u0641\u0646\u0648", "name:hr": "Livno", "name:ja": "\u30ea\u30f4\u30ce", "name:ko": "\ub9ac\ube0c\ub178", "name:ru": "\u041b\u0438\u0432\u043d\u043e", "name:sr": "\u041b\u0438\u0432\u043d\u043e", "name:uk": "\u041b\u0438\u0432\u043d\u043e", "name:ur": "\u0644\u06cc\u0648\u0646\u0648", "name:zh": "\u5229\u592b\u8afe", "old_name": "Hlivno", "place": "town", "population": "7927", "population:date": "2013", "postal_code": "80101", "website": "http://www.livno.ba/", "wikidata": "Q746073", "wikipedia": "en:Livno"}}, "geometry": {"type": "Point", "coordinates": [17.0042416, 43.8259136]}}, {"type": "Feature", "properties": {"type": "node", "id": 1676862214, "tags": {"name": "Glamo\u010d", "name:ru": "\u0413\u043b\u0430\u043c\u043e\u0447", "name:sr": "\u0413\u043b\u0430\u043c\u043e\u0447", "place": "town", "population": "1885", "wikidata": "Q1017615", "wikipedia": "bs:Glamo\u010d"}}, "geometry": {"type": "Point", "coordinates": [16.8499014, 44.0449852]}}, {"type": "Feature", "properties": {"type": "node", "id": 305480587, "tags": {"name": "Tomislavgrad", "name:sr": "\u0422\u043e\u043c\u0438\u0441\u043b\u0430\u0432\u0433\u0440\u0430\u0434", "old_name": "Duvno", "old_name:de": "Dalen", "place": "town", "population": "5760", "wikidata": "Q998961", "wikipedia": "bs:Tomislavgrad"}}, "geometry": {"type": "Point", "coordinates": [17.2303272, 43.7165551]}}, {"type": "Feature", "properties": {"type": "node", "id": 376041069, "tags": {"name": "Prozor", "name:ru": "\u041f\u0440\u043e\u0437\u043e\u0440", "name:sr": "\u041f\u0440\u043e\u0437\u043e\u0440", "old_name:de": "Prosser", "place": "town", "population": "4000", "website": "https://prozor-rama.org", "wikidata": "Q506875", "wikipedia": "bs:Prozor-Rama"}}, "geometry": {"type": "Point", "coordinates": [17.6076793, 43.8230831]}}, {"type": "Feature", "properties": {"type": "node", "id": 1064720325, "tags": {"name": "Kupres", "name:ru": "\u041a\u0443\u043f\u0440\u0435\u0441", "name:sr": "\u041a\u0443\u043f\u0440\u0435\u0441", "place": "town", "population": "3099", "wikidata": "Q583953", "wikipedia": "bs:Kupres"}}, "geometry": {"type": "Point", "coordinates": [17.2784291, 43.9923541]}}, {"type": "Feature", "properties": {"type": "node", "id": 306475380, "tags": {"alt_name": "Uskoplje", "name": "Gornji Vakuf-Uskoplje", "name:hr": "Uskoplje", "name:sr": "\u0413\u043e\u0440\u045a\u0438 \u0412\u0430\u043a\u0443\u0432-\u0423\u0441\u043a\u043e\u043f\u0459\u0435", "place": "town", "population": "4831", "wikidata": "Q924098", "wikipedia": "hr:Uskoplje"}}, "geometry": {"type": "Point", "coordinates": [17.583559, 43.9385698]}}, {"type": "Feature", "properties": {"type": "node", "id": 251285063, "tags": {"name": "Bugojno", "name:ru": "\u0411\u0443\u0433\u043e\u0439\u043d\u043e", "name:sr": "\u0411\u0443\u0433\u043e\u0458\u043d\u043e", "place": "town", "population": "17202", "wikidata": "Q934612", "wikipedia": "bs:Bugojno"}}, "geometry": {"type": "Point", "coordinates": [17.4509043, 44.0558542]}}, {"type": "Feature", "properties": {"type": "node", "id": 1616674588, "tags": {"name": "\u010citluk", "name:ru": "\u0427\u0438\u0442\u043b\u0443\u043a", "name:sr": "\u0427\u0438\u0442\u043b\u0443\u043a", "place": "town", "population": "3312", "wikidata": "Q341585", "wikipedia": "bs:\u010citluk"}}, "geometry": {"type": "Point", "coordinates": [17.6963313, 43.2267192]}}, {"type": "Feature", "properties": {"type": "node", "id": 5715309398, "tags": {"alt_name:la": "Monstarum", "capital": "4", "ele": "60", "int_name": "Mostar", "is_in:country": "Bosnia and Herzegovina", "is_in:country_code": "BA", "name": "Mostar", "name:la": "Mandetrium", "name:sr": "\u041c\u043e\u0441\u0442\u0430\u0440", "openGeoDB:community_identification_number": "09162", "openGeoDB:telephone_area_code": "036", "place": "city", "population": "105797", "wikidata": "Q93347", "wikipedia": "hr:Mostar"}}, "geometry": {"type": "Point", "coordinates": [17.8075104, 43.3424943]}}, {"type": "Feature", "properties": {"type": "node", "id": 791530777, "tags": {"int_name": "Nevesinje", "name": "Nevesinje", "name:alt": "\u041d\u0435\u0432\u0435\u0441\u0438\u045a\u0435", "name:en": "Nevesinje", "name:hr": "Nevesinje", "name:ru": "\u041d\u0435\u0432\u0435\u0441\u0438\u043d\u0435", "name:sr": "\u041d\u0435\u0432\u0435\u0441\u0438\u045a\u0435", "name:sr-Latn": "Nevesinje", "place": "town", "population": "5464", "wikidata": "Q194503", "wikipedia": "bs:Nevesinje"}}, "geometry": {"type": "Point", "coordinates": [18.1130457, 43.2582706]}}, {"type": "Feature", "properties": {"type": "node", "id": 255540961, "tags": {"name": "Kalinovik", "name:ru": "\u041a\u0430\u043b\u0438\u043d\u043e\u0432\u0438\u043a", "name:sr": "\u041a\u0430\u043b\u0438\u043d\u043e\u0432\u0438\u043a", "place": "town", "wikidata": "Q995136", "wikipedia": "bs:Kalinovik"}}, "geometry": {"type": "Point", "coordinates": [18.4467193, 43.5043116]}}, {"type": "Feature", "properties": {"type": "node", "id": 89090688, "tags": {"name": "Jablanica", "name:ru": "\u042f\u0431\u043b\u0430\u043d\u0438\u0446\u0430", "name:sr": "\u0408\u0430\u0431\u043b\u0430\u043d\u0438\u0446\u0430", "place": "town", "population": "4057", "wikidata": "Q994232", "wikipedia": "bs:Jablanica"}}, "geometry": {"type": "Point", "coordinates": [17.7618471, 43.6617485]}}, {"type": "Feature", "properties": {"type": "node", "id": 89089929, "tags": {"name": "Konjic", "name:ru": "\u041a\u043e\u043d\u0438\u0446", "name:sr": "\u041a\u043e\u045a\u0438\u0446", "place": "town", "population": "10732", "wikidata": "Q974745", "wikipedia": "bs:Konjic"}}, "geometry": {"type": "Point", "coordinates": [17.9624801, 43.6534733]}}, {"type": "Feature", "properties": {"type": "node", "id": 315878397, "tags": {"name": "Fojnica", "name:ar": "\u0641\u0648\u064a\u0646\u064a\u062a\u0633\u0627", "name:ru": "\u0424\u043e\u0439\u043d\u0438\u0446\u0430", "name:sr": "\u0424\u043e\u0458\u043d\u0438\u0446\u0430", "place": "town", "population": "3570", "wikidata": "Q1017950", "wikipedia": "bs:Fojnica"}}, "geometry": {"type": "Point", "coordinates": [17.8997641, 43.9631837]}}, {"type": "Feature", "properties": {"type": "node", "id": 258981519, "tags": {"name": "Had\u017ei\u0107i", "name:sr": "\u0425\u0430\u045f\u0438\u045b\u0438", "place": "town", "population": "5323", "wikidata": "Q939528", "wikipedia": "bs:Had\u017ei\u0107i"}}, "geometry": {"type": "Point", "coordinates": [18.2025181, 43.8226456]}}, {"type": "Feature", "properties": {"type": "node", "id": 255540946, "tags": {"name": "Trnovo", "name:ru": "\u0422\u0440\u043d\u043e\u0432\u043e", "name:sr": "\u0422\u0440\u043d\u043e\u0432\u043e", "place": "town", "wikidata": "Q749606", "wikipedia": "bs:Trnovo (RS)"}}, "geometry": {"type": "Point", "coordinates": [18.4457483, 43.6651505]}}, {"type": "Feature", "properties": {"type": "node", "id": 1299306684, "tags": {"name": "Ilid\u017ea", "name:bs": "Ilid\u017ea", "name:sr": "\u0418\u043b\u0438\u045f\u0430", "name:sr-Latn": "Ilid\u017ea", "place": "town", "population": "63528", "wikidata": "Q247962", "wikipedia": "bs:Ilid\u017ea"}}, "geometry": {"type": "Point", "coordinates": [18.3077357, 43.8306182]}}, {"type": "Feature", "properties": {"type": "node", "id": 1697644094, "tags": {"name": "Lukavica", "name:sr": "\u041b\u0443\u043a\u0430\u0432\u0438\u0446\u0430", "name:sr-Latn": "Lukavica", "place": "town", "population": "7597", "wikidata": "Q3181078", "wikipedia": "sr:\u041b\u0443\u043a\u0430\u0432\u0438\u0446\u0430 (\u0418\u0441\u0442\u043e\u0447\u043d\u043e \u041d\u043e\u0432\u043e \u0421\u0430\u0440\u0430\u0458\u0435\u0432\u043e)"}}, "geometry": {"type": "Point", "coordinates": [18.3682429, 43.8219028]}}, {"type": "Feature", "properties": {"type": "node", "id": 601518341, "tags": {"name": "Kre\u0161evo", "name:ru": "\u041a\u0440\u0435\u0448\u0435\u0432\u043e", "name:sr": "\u041a\u0440\u0435\u0448\u0435\u0432\u043e", "place": "town", "population": "1025", "wikidata": "Q972698", "wikipedia": "bs:Kre\u0161evo"}}, "geometry": {"type": "Point", "coordinates": [18.0421665, 43.8657424]}}, {"type": "Feature", "properties": {"type": "node", "id": 83113114, "tags": {"name": "Kiseljak", "name:ru": "\u041a\u0438\u0441\u0435\u043b\u044f\u043a", "name:sr": "\u041a\u0438\u0441\u0435\u0459\u0430\u043a", "place": "town", "population": "24164", "wikidata": "Q1018000", "wikipedia": "hr:Kiseljak"}}, "geometry": {"type": "Point", "coordinates": [18.0782775, 43.9438172]}}, {"type": "Feature", "properties": {"type": "node", "id": 78546823, "tags": {"name": "Visoko", "name:ru": "\u0412\u0438\u0441\u043e\u043a\u043e", "name:sr": "\u0412\u0438\u0441\u043e\u043a\u043e", "old_name:de": "Wissoko", "place": "town", "population": "11552", "wikidata": "Q193229", "wikipedia": "bs:Visoko"}}, "geometry": {"type": "Point", "coordinates": [18.1816434, 43.9894986]}}, {"type": "Feature", "properties": {"type": "node", "id": 83773025, "tags": {"name": "Vogo\u0161\u0107a", "name:sr": "\u0412\u043e\u0433\u043e\u0448\u045b\u0430", "place": "town", "population": "10568", "wikidata": "Q1017946", "wikipedia": "bs:Vogo\u0161\u0107a"}}, "geometry": {"type": "Point", "coordinates": [18.3433749, 43.901488]}}, {"type": "Feature", "properties": {"type": "node", "id": 2021709163, "tags": {"admin_level": "2", "alt_name:gl": "Saraievo", "capital": "yes", "capital_ISO3166-1": "yes", "int_name": "Sarajevo", "name": "Sarajevo", "name:ar": "\u0633\u0631\u0627\u064a\u064a\u0641\u0648", "name:be": "\u0421\u0430\u0440\u0430\u0435\u0432\u0430", "name:bs": "Sarajevo", "name:ckb": "\u0633\u0627\u0631\u0627\u06cc\u06ce\u06a4\u06c6", "name:de": "Sarajevo", "name:en": "Sarajevo", "name:es": "Sarajevo", "name:fa": "\u0633\u0627\u0631\u0627\u06cc\u0648\u0648", "name:fr": "Sarajevo", "name:gl": "Saraxevo", "name:hr": "Sarajevo", "name:hu": "Szarajev\u00f3", "name:it": "Sarajevo", "name:ja": "\u30b5\u30e9\u30a8\u30f4\u30a9", "name:kn": "\u0cb8\u0cbe\u0cb0\u0caf\u0cc7\u0cb5\u0cca", "name:ko": "\uc0ac\ub77c\uc608\ubcf4", "name:ku-Arab": "\u0633\u0627\u0631\u0627\u06cc\u06d5\u06a4\u06c6", "name:lrc": "\u0633\u0627\u0631\u0627\u06cc\u0627\u065b \u06a4\u0648", "name:lt": "Sarajevas", "name:mk": "\u0421\u0430\u0440\u0430\u0435\u0432\u043e", "name:no": "Sarajevo", "name:oc": "Sarajevo", "name:pl": "Sarajewo", "name:pnb": "\u0633\u0631\u0627\u0626\u06cc\u0648\u0648", "name:ru": "\u0421\u0430\u0440\u0430\u0435\u0432\u043e", "name:sl": "Sarajevo", "name:sr": "\u0421\u0430\u0440\u0430\u0458\u0435\u0432\u043e", "name:sr-Latn": "Sarajevo", "name:sv": "Sarajevo", "name:ta": "\u0b9a\u0bb0\u0b9c\u0bc0\u0bb5\u0bcb", "name:tr": "Saraybosna", "name:ug": "\u0633\u0627\u0631\u0627\u064a\u06d0\u06cb\u0648", "name:uk": "\u0421\u0430\u0440\u0430\u0454\u0432\u043e", "name:ur": "\u0633\u0631\u0627\u0626\u06cc\u0648\u0648", "name:zh": "\u585e\u62c9\u8036\u4f5b", "name:zh-HK": "\u85a9\u62c9\u71b1\u7aa9", "name:zh-TW": "\u585e\u62c9\u8036\u4f5b", "old_name:de": "Sarajewo", "place": "city", "population": "271194", "wikidata": "Q11194", "wikipedia": "bs:Sarajevo"}}, "geometry": {"type": "Point", "coordinates": [18.3866868, 43.8519774]}}, {"type": "Feature", "properties": {"type": "node", "id": 89085686, "tags": {"name": "Ilija\u0161", "name:ru": "\u0418\u043b\u0438\u044f\u0448", "name:sr": "\u0418\u043b\u0438\u0458\u0430\u0448", "place": "town", "wikidata": "Q583396", "wikipedia": "bs:Ilija\u0161"}}, "geometry": {"type": "Point", "coordinates": [18.2661553, 43.95645]}}, {"type": "Feature", "properties": {"type": "node", "id": 578046731, "tags": {"name": "Breza", "name:ru": "\u0411\u0440\u0435\u0437\u0430", "name:sr": "\u0411\u0440\u0435\u0437\u0430", "place": "town", "wikidata": "Q911568", "wikipedia": "bs:Breza"}}, "geometry": {"type": "Point", "coordinates": [18.2608208, 44.0183108]}}, {"type": "Feature", "properties": {"type": "node", "id": 2042665680, "tags": {"name": "\u0160ipovo", "name:ru": "\u0428\u0438\u043f\u043e\u0432\u043e", "name:sr": "\u0428\u0438\u043f\u043e\u0432\u043e", "place": "town", "wikidata": "Q185660", "wikipedia": "bs:\u0160ipovo"}}, "geometry": {"type": "Point", "coordinates": [17.0827253, 44.2833682]}}, {"type": "Feature", "properties": {"type": "node", "id": 90250673, "tags": {"name": "Mrkonji\u0107 Grad", "name:bs": "Mrkonji\u0107 Grad", "name:hr": "Mrkonji\u0107 Grad", "name:ru": "\u041c\u0440\u043a\u043e\u043d\u0438\u0447-\u0413\u0440\u0430\u0434", "name:sr": "\u041c\u0440\u043a\u043e\u045a\u0438\u045b \u0413\u0440\u0430\u0434", "old_name": "Varcar Vakuf", "old_name:de": "M\u00e4rkoner", "place": "town", "population": "7915", "population:date": "2013", "website": "https://www.mrkonjic-grad.rs", "wikidata": "Q1000971", "wikipedia": "bs:Mrkonji\u0107 Grad"}}, "geometry": {"type": "Point", "coordinates": [17.0842585, 44.4166023]}}, {"type": "Feature", "properties": {"type": "node", "id": 251285718, "tags": {"name": "Donji Vakuf", "name:ru": "\u0414\u043e\u043d\u0438-\u0412\u0430\u043a\u0443\u0444", "name:sr": "\u0414\u043e\u045a\u0438 \u0412\u0430\u043a\u0443\u0444", "place": "town", "population": "6711", "wikidata": "Q1017938", "wikipedia": "bs:Donji Vakuf"}}, "geometry": {"type": "Point", "coordinates": [17.3984734, 44.1446382]}}, {"type": "Feature", "properties": {"type": "node", "id": 2419009186, "tags": {"name": "Jajce", "name:ru": "\u042f\u0439\u0446\u0435", "name:sr": "\u0408\u0430\u0458\u0446\u0435", "place": "town", "population": "7172", "wikidata": "Q258429", "wikipedia": "en:Jajce"}}, "geometry": {"type": "Point", "coordinates": [17.2705155, 44.3395173]}}, {"type": "Feature", "properties": {"type": "node", "id": 248407024, "tags": {"alt_name": "Banjaluka", "alt_name:sr": "\u0411\u0430\u045a\u0430 \u041b\u0443\u043a\u0430", "alt_name:sr-Latn": "Banja Luka", "int_name": "Banja Luka", "name": "Banja Luka", "name:ar": "\u0628\u0627\u0646\u064a\u0627 \u0644\u0648\u0643\u0627", "name:de": "Banja Luka", "name:en": "Banja Luka", "name:es": "Banja Luka", "name:fr": "Banja Luka", "name:hr": "Banja Luka", "name:ko": "\ubc14\ub0d0\ub8e8\uce74", "name:ru": "\u0411\u0430\u043d\u044f-\u041b\u0443\u043a\u0430", "name:sl": "Banja Luka", "name:sr": "\u0411\u0430\u045a\u0430\u043b\u0443\u043a\u0430", "name:sr-Latn": "Banjaluka", "name:zh": "\u5df4\u5c3c\u4e9a\u5362\u5361", "place": "city", "population": "138963", "population:date": "2013", "source:population": "www.bhas.ba/obavjestenja/Preliminarni_rezultati_bos.pdf", "wikidata": "Q131127", "wikipedia": "bs:Banja Luka"}}, "geometry": {"type": "Point", "coordinates": [17.1917651, 44.7720845]}}, {"type": "Feature", "properties": {"type": "node", "id": 306466679, "tags": {"name": "Kne\u017eevo", "name:bs": "Skender Vakuf", "name:de": "Kne\u017eevo", "name:en": "Kne\u017eevo", "name:hr": "Skender Vakuf", "name:sr": "\u041a\u043d\u0435\u0436\u0435\u0432\u043e", "place": "town", "population": "3749", "wikidata": "Q431305", "wikipedia": "bs:Kne\u017eevo"}}, "geometry": {"type": "Point", "coordinates": [17.3800905, 44.4899319]}}, {"type": "Feature", "properties": {"type": "node", "id": 251276672, "tags": {"name": "Kotor Varo\u0161", "name:bs": "Kotor Varo\u0161", "name:de": "Kotor Varo\u0161", "name:hr": "Kotor Varo\u0161", "name:ru": "\u041a\u043e\u0442\u043e\u0440-\u0412\u0430\u0440\u043e\u0448", "name:sr": "\u041a\u043e\u0442\u043e\u0440 \u0412\u0430\u0440\u043e\u0448", "name:sr-Latn": "Kotor Varo\u0161", "place": "town", "population": "7603", "wikidata": "Q180758", "wikipedia": "bs:Kotor-Varo\u0161"}}, "geometry": {"type": "Point", "coordinates": [17.3698016, 44.6204796]}}, {"type": "Feature", "properties": {"type": "node", "id": 251279658, "tags": {"name": "\u010celinac", "name:sr": "\u0427\u0435\u043b\u0438\u043d\u0430\u0446", "place": "town", "population": "5802", "wikidata": "Q338457", "wikipedia": "sr:\u0427\u0435\u043b\u0438\u043d\u0430\u0446"}}, "geometry": {"type": "Point", "coordinates": [17.319359, 44.7241731]}}, {"type": "Feature", "properties": {"type": "node", "id": 251286005, "tags": {"name": "Vitez", "name:ru": "\u0412\u0438\u0442\u0435\u0437", "name:sr": "\u0412\u0438\u0442\u0435\u0437", "place": "town", "population": "6633", "wikidata": "Q1018006", "wikipedia": "bs:Vitez (grad)"}}, "geometry": {"type": "Point", "coordinates": [17.791462, 44.150409]}}, {"type": "Feature", "properties": {"type": "node", "id": 251905442, "tags": {"name": "Novi Travnik", "name:sr": "\u041f\u0443\u0446\u0430\u0440\u0435\u0432\u043e", "old_name": "Pucarevo", "old_name:sr": "\u041f\u0443\u0446\u0430\u0440\u0435\u0432\u043e", "place": "town", "population": "9008", "wikidata": "Q1017907", "wikipedia": "bs:Novi Travnik"}}, "geometry": {"type": "Point", "coordinates": [17.6576521, 44.1707502]}}, {"type": "Feature", "properties": {"type": "node", "id": 90249576, "tags": {"name": "Travnik", "name:ru": "\u0422\u0440\u0430\u0432\u043d\u0438\u043a", "name:sr": "\u0422\u0440\u0430\u0432\u043d\u0438\u043a", "old_name:de": "Traunik", "place": "town", "population": "15344", "wikidata": "Q159818", "wikipedia": "bs:Travnik"}}, "geometry": {"type": "Point", "coordinates": [17.6661738, 44.2259454]}}, {"type": "Feature", "properties": {"type": "node", "id": 251287340, "tags": {"name": "Busova\u010da", "name:ru": "\u0411\u0443\u0441\u043e\u0432\u0430\u0447\u0430", "name:sr": "\u0411\u0443\u0441\u043e\u0432\u0430\u0447\u0430", "place": "town", "wikidata": "Q612603", "wikipedia": "bs:Busova\u010da"}}, "geometry": {"type": "Point", "coordinates": [17.879696, 44.096806]}}, {"type": "Feature", "properties": {"type": "node", "id": 1966975750, "tags": {"name": "Zenica", "name:ar": "\u0632\u064a\u0646\u064a\u062a\u0633\u0627", "name:de": "Zenica", "name:es": "Zenica", "name:fr": "Zenica", "name:hu": "Zenica", "name:ru": "\u0417\u0435\u043d\u0438\u0446\u0430", "name:sr": "\u0417\u0435\u043d\u0438\u0446\u0430", "old_name:de": "Senitza", "place": "city", "population": "70533", "wikidata": "Q184046", "wikipedia": "en:Zenica"}}, "geometry": {"type": "Point", "coordinates": [17.9055721, 44.2010759]}}, {"type": "Feature", "properties": {"type": "node", "id": 78546824, "tags": {"addr:city": "Kakanj", "name": "Kakanj", "name:ru": "\u041a\u0430\u043a\u0430\u043d\u044c", "name:sr": "\u041a\u0430\u043a\u0430\u045a", "place": "town", "population": "12256", "wikidata": "Q963038", "wikipedia": "bs:Kakanj"}}, "geometry": {"type": "Point", "coordinates": [18.1189478, 44.1301029]}}, {"type": "Feature", "properties": {"type": "node", "id": 578046752, "tags": {"name": "Vare\u0161", "name:ru": "\u0412\u0430\u0440\u0435\u0448", "name:sr": "\u0412\u0430\u0440\u0435\u0448", "place": "town", "wikidata": "Q1017965", "wikipedia": "en:Vare\u0161"}}, "geometry": {"type": "Point", "coordinates": [18.3276571, 44.1619839]}}, {"type": "Feature", "properties": {"type": "node", "id": 251913152, "tags": {"name": "\u017dep\u010de", "name:ru": "\u0416\u0435\u043f\u0447\u0435", "name:sr": "\u0416\u0435\u043f\u0447\u0435", "place": "town", "population": "5460", "population:date": "2013", "wikidata": "Q393860", "wikipedia": "bs:\u017dep\u010de"}}, "geometry": {"type": "Point", "coordinates": [18.037904, 44.4239617]}}, {"type": "Feature", "properties": {"type": "node", "id": 251913153, "tags": {"name": "Zavidovi\u0107i", "name:ru": "\u0417\u0430\u0432\u0438\u0434\u043e\u0432\u0438\u0447\u0438", "name:sr": "\u0417\u0430\u0432\u0438\u0434\u043e\u0432\u0438\u045b\u0438", "place": "town", "population": "8174", "population:date": "2013", "wikidata": "Q994239", "wikipedia": "bs:Zavidovi\u0107i"}}, "geometry": {"type": "Point", "coordinates": [18.1453909, 44.438255]}}, {"type": "Feature", "properties": {"type": "node", "id": 251273093, "tags": {"name": "Tesli\u0107", "name:ru": "\u0422\u0435\u0441\u043b\u0438\u0447", "name:sr": "\u0422\u0435\u0441\u043b\u0438\u045b", "place": "town", "population": "7057", "wikidata": "Q180753", "wikipedia": "bs:Tesli\u0107"}}, "geometry": {"type": "Point", "coordinates": [17.8595061, 44.6065761]}}, {"type": "Feature", "properties": {"type": "node", "id": 251913618, "tags": {"name": "Te\u0161anj", "name:ru": "\u0422\u0435\u0448\u0430\u043d\u044c", "name:sr": "\u0422\u0435\u0448\u0430\u045a", "place": "town", "population": "5531", "wikidata": "Q994179", "wikipedia": "bs:Te\u0161anj"}}, "geometry": {"type": "Point", "coordinates": [17.9862488, 44.6133803]}}, {"type": "Feature", "properties": {"type": "node", "id": 1037420544, "tags": {"name": "Prnjavor", "name:ru": "\u041f\u0440\u043d\u044f\u0432\u043e\u0440", "name:sr": "\u041f\u0440\u045a\u0430\u0432\u043e\u0440", "place": "town", "population": "8484", "source": "GPS", "wikidata": "Q735815", "wikipedia": "bs:Prnjavor"}}, "geometry": {"type": "Point", "coordinates": [17.6631777, 44.8686369]}}, {"type": "Feature", "properties": {"type": "node", "id": 251913617, "tags": {"name": "Maglaj", "name:ru": "\u041c\u0430\u0433\u043b\u0430\u0439", "name:sr": "\u041c\u0430\u0433\u043b\u0430\u0458", "place": "town", "population": "6099", "wikidata": "Q967813", "wikipedia": "bs:Maglaj"}}, "geometry": {"type": "Point", "coordinates": [18.1011571, 44.5468344]}}, {"type": "Feature", "properties": {"type": "node", "id": 1380074129, "tags": {"name": "Petrovo", "name:sr": "\u041f\u0435\u0442\u0440\u043e\u0432\u043e", "place": "town", "wikidata": "Q373068", "wikipedia": "bs:Bosansko Petrovo Selo"}}, "geometry": {"type": "Point", "coordinates": [18.360687, 44.6327005]}}, {"type": "Feature", "properties": {"type": "node", "id": 251913823, "tags": {"name": "Doboj", "name:ar": "\u062f\u0648\u0628\u0648\u064a", "name:bs": "Doboj", "name:de": "Doboj", "name:en": "Doboj", "name:es": "Doboj", "name:fr": "Doboj", "name:hr": "Doboj", "name:lt": "Dobojus", "name:ru": "\u0414\u043e\u0431\u043e\u0439", "name:sr": "\u0414\u043e\u0431\u043e\u0458", "name:sr-Latn": "Doboj", "name:uk": "\u0414\u043e\u0431\u043e\u0439", "old_name:de": "Doblitz", "place": "city", "population": "25132", "wikidata": "Q169247", "wikipedia": "bs:Doboj"}}, "geometry": {"type": "Point", "coordinates": [18.0847183, 44.7313612]}}, {"type": "Feature", "properties": {"type": "node", "id": 251271502, "tags": {"name": "Gra\u010danica", "name:ru": "\u0413\u0440\u0430\u0447\u0430\u043d\u0438\u0446\u0430", "name:sr": "\u0413\u0440\u0430\u0447\u0430\u043d\u0438\u0446\u0430", "place": "town", "population": "13400", "wikidata": "Q1017952", "wikipedia": "bs:Gra\u010danica"}}, "geometry": {"type": "Point", "coordinates": [18.3096681, 44.7082026]}}, {"type": "Feature", "properties": {"type": "node", "id": 571423255, "tags": {"name": "Grada\u010dac", "name:sr": "\u0413\u0440\u0430\u0434\u0430\u0447\u0430\u0446", "place": "town", "population": "13474", "wikidata": "Q994196", "wikipedia": "bs:Grada\u010dac"}}, "geometry": {"type": "Point", "coordinates": [18.4262247, 44.8778264]}}, {"type": "Feature", "properties": {"type": "node", "id": 251856799, "tags": {"name": "Fo\u010da", "name:ru": "\u0424\u043e\u0447\u0430", "name:sr": "\u0424\u043e\u0447\u0430", "place": "town", "population": "12334", "wikidata": "Q180333", "wikipedia": "bs:Fo\u010da"}}, "geometry": {"type": "Point", "coordinates": [18.774393, 43.5058554]}}, {"type": "Feature", "properties": {"type": "node", "id": 2483863642, "tags": {"name": "\u010cajni\u010de", "name:bs": "\u010cajni\u010de", "name:sr": "\u0427\u0430\u0458\u043d\u0438\u0447\u0435", "place": "town", "population": "2401", "wikidata": "Q143601", "wikipedia": "bs:\u010cajni\u010de"}}, "geometry": {"type": "Point", "coordinates": [19.0715447, 43.5568196]}}, {"type": "Feature", "properties": {"type": "node", "id": 82545115, "tags": {"name": "Pale", "name:ru": "\u041f\u0430\u043b\u0435", "name:sh": "Pale", "name:sr": "\u041f\u0430\u043b\u0435", "name:sr-Latn": "Pale", "place": "town", "population": "12w569", "wikidata": "Q222084", "wikipedia": "sr:\u041f\u0430\u043b\u0435"}}, "geometry": {"type": "Point", "coordinates": [18.5692689, 43.814105]}}, {"type": "Feature", "properties": {"type": "node", "id": 251755049, "tags": {"name": "Sokolac", "name:sr": "\u0421\u043e\u043a\u043e\u043b\u0430\u0446", "place": "town", "population": "12000", "wikidata": "Q180755", "wikipedia": "bs:Sokolac"}}, "geometry": {"type": "Point", "coordinates": [18.7977167, 43.9350525]}}, {"type": "Feature", "properties": {"type": "node", "id": 251856694, "tags": {"addr:country": "BA", "addr:postcode": "73000", "is_in:country": "Bosna i Hercegovina", "name": "Gora\u017ede", "name:fa": "\u06af\u0631\u0627\u0698\u062f\u0647", "name:ja": "\u30b4\u30e9\u30b8\u30e5\u30c7", "name:lt": "Gora\u017ed\u0117", "name:ru": "\u0413\u043e\u0440\u0430\u0436\u0434\u0435", "name:sq": "Gorazhda", "name:sr": "\u0413\u043e\u0440\u0430\u0436\u0434\u0435", "name:tr": "Gorajde", "name:uk": "\u0413\u043e\u0440\u0430\u0436\u0434\u0435", "name:zh": "\u6208\u62c9\u65e5\u4ee3", "place": "town", "population": "22897", "population:date": "2013", "source:population": "http://www.popis.gov.ba/popis2013/mapa/?lang=bos", "wikidata": "Q504058", "wikipedia": "de:Gora\u017ede"}}, "geometry": {"type": "Point", "coordinates": [18.9765501, 43.6673112]}}, {"type": "Feature", "properties": {"type": "node", "id": 5258501411, "tags": {"int_name": "Rogatica", "name": "Rogatica", "name:hr": "Rogatica", "name:sr": "\u0420\u043e\u0433\u0430\u0442\u0438\u0446\u0430", "name:sr-Latn": "Rogatica", "place": "town", "wikidata": "Q180791", "wikipedia": "bs:Rogatica"}}, "geometry": {"type": "Point", "coordinates": [19.0040839, 43.7982209]}}, {"type": "Feature", "properties": {"type": "node", "id": 170724373, "tags": {"int_name": "Visegrad", "name": "Vi\u0161egrad", "name:ru": "\u0412\u0438\u0448\u0435\u0433\u0440\u0430\u0434", "name:sr": "\u0412\u0438\u0448\u0435\u0433\u0440\u0430\u0434", "name:sr-Latn": "Vi\u0161egrad", "old_name:de": "Wischegrad", "place": "town", "population": "5869", "wikidata": "Q239266", "wikipedia": "sr:\u0412\u0438\u0448\u0435\u0433\u0440\u0430\u0434"}}, "geometry": {"type": "Point", "coordinates": [19.2933519, 43.7844137]}}, {"type": "Feature", "properties": {"type": "node", "id": 255532133, "tags": {"name": "Rudo", "name:bs": "Rudo", "name:de": "Rudo", "name:en": "Rudo", "name:hr": "Rudo", "name:ru": "\u0420\u0443\u0434\u043e", "name:sr": "\u0420\u0443\u0434\u043e", "name:sr-Latn": "Rudo", "place": "town", "population": "1949", "wikidata": "Q1018824", "wikipedia": "bs:Rudo"}}, "geometry": {"type": "Point", "coordinates": [19.3666509, 43.6174112]}}, {"type": "Feature", "properties": {"type": "node", "id": 258976859, "tags": {"name": "Olovo", "name:ru": "\u041e\u043b\u043e\u0432\u043e", "name:sr": "\u041e\u043b\u043e\u0432\u043e", "place": "town", "wikidata": "Q584665", "wikipedia": "bs:Olovo (grad)"}}, "geometry": {"type": "Point", "coordinates": [18.580233, 44.1269033]}}, {"type": "Feature", "properties": {"type": "node", "id": 2639334996, "tags": {"name": "Kladanj", "name:ru": "\u041a\u043b\u0430\u0434\u0430\u043d\u044c", "name:sr": "\u041a\u043b\u0430\u0434\u0430\u045a", "place": "town", "wikidata": "Q1018024", "wikipedia": "bs:Kladanj"}}, "geometry": {"type": "Point", "coordinates": [18.6937539, 44.2259412]}}, {"type": "Feature", "properties": {"type": "node", "id": 322034490, "tags": {"name": "Banovi\u0107i", "name:ru": "\u0411\u0430\u043d\u043e\u0432\u0438\u0447\u0438", "name:sr": "\u0411\u0430\u043d\u043e\u0432\u0438\u045b\u0438", "place": "town", "population": "23431", "wikidata": "Q2421636", "wikipedia": "bs:Banovi\u0107i"}}, "geometry": {"type": "Point", "coordinates": [18.5292365, 44.4088812]}}, {"type": "Feature", "properties": {"type": "node", "id": 2547579160, "tags": {"name": "\u017divinice", "name:ru": "\u0416\u0438\u0432\u0438\u043d\u0438\u0446\u0435", "name:sr": "\u0416\u0438\u0432\u0438\u043d\u0438\u0446\u0435", "place": "town", "population": "12862", "wikidata": "Q394166", "wikipedia": "bs:\u017divinice"}}, "geometry": {"type": "Point", "coordinates": [18.6501306, 44.451574]}}, {"type": "Feature", "properties": {"type": "node", "id": 1817519911, "tags": {"int_name": "Sekovici", "name": "\u0160ekovi\u0107i", "name:bs": "\u0160ekovi\u0107i", "name:hr": "\u0160ekovi\u0107i", "name:ru": "\u0428\u0435\u043a\u043e\u0432\u0438\u0447\u0438", "name:sr": "\u0428\u0435\u043a\u043e\u0432\u0438\u045b\u0438", "name:sr-Latn": "\u0160ekovi\u0107i", "place": "town", "wikidata": "Q260496", "wikipedia": "bs:\u0160ekovi\u0107i"}}, "geometry": {"type": "Point", "coordinates": [18.8551143, 44.2977929]}}, {"type": "Feature", "properties": {"type": "node", "id": 2643428165, "tags": {"name": "Han-Pijesak", "name:hu": "Han-Pijesak", "name:ru": "\u0425\u0430\u043d-\u041f\u0438\u0435\u0441\u0430\u043a", "name:sr": "\u0425\u0430\u043d-\u041f\u0438\u0458\u0435\u0441\u0430\u043a", "place": "town", "wikidata": "Q1574159", "wikipedia": "bs:Han-Pijesak"}}, "geometry": {"type": "Point", "coordinates": [18.9530643, 44.0812895]}}, {"type": "Feature", "properties": {"type": "node", "id": 254035596, "tags": {"name": "Vlasenica", "name:sr": "\u0412\u043b\u0430\u0441\u0435\u043d\u0438\u0446\u0430", "place": "town", "population": "7228", "wikidata": "Q1017988", "wikipedia": "bs:Vlasenica"}}, "geometry": {"type": "Point", "coordinates": [18.9405987, 44.1822575]}}, {"type": "Feature", "properties": {"type": "node", "id": 292036917, "tags": {"name": "Mili\u0107i", "name:sr": "\u041c\u0438\u043b\u0438\u045b\u0438", "place": "town", "wikidata": "Q719230", "wikipedia": "bs:Mili\u0107i"}}, "geometry": {"type": "Point", "coordinates": [19.0738401, 44.1660652]}}, {"type": "Feature", "properties": {"type": "node", "id": 1037420550, "tags": {"name": "Kalesija", "name:ru": "\u041a\u0430\u043b\u0435\u0441\u0438\u044f", "name:sr": "\u041a\u0430\u043b\u0435\u0441\u0438\u0458\u0430", "place": "town", "wikidata": "Q1017926", "wikipedia": "bs:Kalesija"}}, "geometry": {"type": "Point", "coordinates": [18.8756758, 44.4429857]}}, {"type": "Feature", "properties": {"type": "node", "id": 4002104085, "tags": {"name": "Zvornik", "name:bs": "Zvornik", "name:en": "Zvornik", "name:hr": "Zvornik", "name:sr": "\u0417\u0432\u043e\u0440\u043d\u0438\u043a", "place": "town", "population": "12674", "wikidata": "Q231517", "wikipedia": "bs:Zvornik"}}, "geometry": {"type": "Point", "coordinates": [19.1027717, 44.3854067]}}, {"type": "Feature", "properties": {"type": "node", "id": 367404258, "tags": {"name": "Lukavac", "name:ru": "\u041b\u0443\u043a\u0430\u0432\u0430\u0446", "name:sr": "\u041b\u0443\u043a\u0430\u0432\u0430\u0446", "place": "town", "population": "12490", "wikidata": "Q1017976", "wikipedia": "bs:Lukavac"}}, "geometry": {"type": "Point", "coordinates": [18.5325309, 44.5344136]}}, {"type": "Feature", "properties": {"type": "node", "id": 275005833, "tags": {"name": "Tuzla", "name:ar": "\u062a\u0648\u0632\u0644\u0627", "name:bs": "Tuzla", "name:de": "Tuzla", "name:en": "Tuzla", "name:es": "Tuzla", "name:fr": "Tuzla", "name:hr": "Tuzla", "name:hu": "Tuzla", "name:ru": "\u0422\u0443\u0437\u043b\u0430", "name:sq": "Tuzlla", "name:sr": "\u0422\u0443\u0437\u043b\u0430", "name:sr-Latn": "Tuzla", "old_name": "Soli", "old_name:hu": "S\u00f3", "place": "city", "population": "74475", "population:date": "2013", "postal_code": "75000", "source:population": "www.bhas.ba/obavjestenja/Preliminarni_rezultati_bos.pdf", "wikidata": "Q174684", "wikipedia": "bs:Tuzla"}}, "geometry": {"type": "Point", "coordinates": [18.675193, 44.5391105]}}, {"type": "Feature", "properties": {"type": "node", "id": 366976889, "tags": {"name": "Lopare", "name:ru": "\u041b\u043e\u043f\u0430\u0440\u0435", "name:sr": "\u041b\u043e\u043f\u0430\u0440\u0435", "place": "town", "wikidata": "Q1529232", "wikipedia": "bs:Lopare"}}, "geometry": {"type": "Point", "coordinates": [18.8441138, 44.6356497]}}, {"type": "Feature", "properties": {"type": "node", "id": 1035247965, "tags": {"alt_name": "Srebrenik", "int_name": "Srebrenik", "name": "Srebrenik", "name:ru": "\u0421\u0440\u0435\u0431\u0440\u043d\u0438\u043a", "name:sr": "\u0421\u0440\u0435\u0431\u0440\u0435\u043d\u0438\u043a", "old_name": "Srebrnik", "place": "town", "population": "7163", "wikidata": "Q999004", "wikipedia": "bs:Srebrenik"}}, "geometry": {"type": "Point", "coordinates": [18.4894132, 44.7050626]}}, {"type": "Feature", "properties": {"type": "node", "id": 364768042, "tags": {"name": "\u010celi\u0107", "name:ru": "\u0427\u0435\u043b\u0438\u0447", "name:sr": "\u0427\u0435\u043b\u0438\u045b", "place": "town", "population": "12000", "wikidata": "Q338494", "wikipedia": "bs:\u010celi\u0107"}}, "geometry": {"type": "Point", "coordinates": [18.8200011, 44.722508]}}, {"type": "Feature", "properties": {"type": "node", "id": 254397489, "tags": {"name": "Br\u010dko", "name:bs": "Br\u010dko", "name:de": "Br\u010dko", "name:hr": "Br\u010dko", "name:hu": "Br\u010dko", "name:pl": "Brczko", "name:ru": "\u0411\u0440\u0447\u043a\u043e", "name:sr": "\u0411\u0440\u0447\u043a\u043e", "name:uk": "\u0411\u0440\u0447\u043a\u043e", "place": "city", "population": "39893", "wikidata": "Q322828", "wikipedia": "bs:Br\u010dko"}}, "geometry": {"type": "Point", "coordinates": [18.8095022, 44.8771222]}}, {"type": "Feature", "properties": {"type": "node", "id": 598144709, "tags": {"name": "Sapna", "name:sr": "\u0421\u0430\u043f\u043d\u0430", "place": "town", "wikidata": "Q1754436", "wikipedia": "bs:Sapna"}}, "geometry": {"type": "Point", "coordinates": [19.0027278, 44.4916604]}}, {"type": "Feature", "properties": {"type": "node", "id": 289533523, "tags": {"alt_name": "Novi Ugljevik", "name": "Ugljevik", "name:de": "Ugljevik", "name:en": "Ugljevik", "name:hr": "Ugljevik", "name:ru": "\u0423\u0433\u043b\u0435\u0432\u0438\u043a", "name:sr": "\u0423\u0433\u0459\u0435\u0432\u0438\u043a", "place": "town", "population": "4155", "wikidata": "Q1027516", "wikipedia": "bs:Ugljevik"}}, "geometry": {"type": "Point", "coordinates": [18.9945989, 44.6930533]}}, {"type": "Feature", "properties": {"type": "node", "id": 254035698, "tags": {"name": "Bijeljina", "name:bs": "Bijeljina", "name:en": "Bijeljina", "name:hr": "Bijeljina", "name:ru": "\u0411\u0438\u0435\u043b\u0438\u043d\u0430", "name:sr": "\u0411\u0438\u0458\u0435\u0459\u0438\u043d\u0430", "name:sr-Latn": "Bijeljina", "old_name:de": "Bieglin", "place": "city", "population": "42278", "wikidata": "Q207801", "wikipedia": "bs:Bijeljina"}}, "geometry": {"type": "Point", "coordinates": [19.2156628, 44.7568464]}}, {"type": "Feature", "properties": {"type": "node", "id": 748764863, "tags": {"name": "Srebrenica", "name:de": "Srebrenica", "name:en": "Srebrenica", "name:hr": "Srebrenica", "name:ru": "\u0421\u0440\u0435\u0431\u0440\u0435\u043d\u0438\u0446\u0430", "name:sr": "\u0421\u0440\u0435\u0431\u0440\u0435\u043d\u0438\u0446\u0430", "name:tr": "Srebrenica", "place": "town", "wikidata": "Q156053", "wikipedia": "bs:Srebrenica"}}, "geometry": {"type": "Point", "coordinates": [19.2952783, 44.1063188]}}, {"type": "Feature", "properties": {"type": "node", "id": 289535529, "tags": {"name": "Bratunac", "name:de": "Bratunac", "name:en": "Bratunac", "name:hr": "Bratunac", "name:ru": "\u0411\u0440\u0430\u0442\u0443\u043d\u0430\u0446", "name:sr": "\u0411\u0440\u0430\u0442\u0443\u043d\u0430\u0446", "name:sr-Latn": "Bratunac", "place": "town", "population": "8359", "wikidata": "Q169001", "wikipedia": "bs:Bratunac"}}, "geometry": {"type": "Point", "coordinates": [19.3321845, 44.1849993]}}, {"type": "Feature", "properties": {"type": "node", "id": 843251087, "tags": {"alt_name": "Bosanska Dubica", "int_name": "Kozarska Dubica", "name": "Kozarska Dubica", "name:bs": "Kozarska Dubica", "name:en": "Kozarska Dubica", "name:hr": "Bosanska Dubica", "name:sr": "\u041a\u043e\u0437\u0430\u0440\u0441\u043a\u0430 \u0414\u0443\u0431\u0438\u0446\u0430", "name:sr-Latn": "Kozarska Dubica", "old_name": "Bosanska Dubica", "place": "town", "population": "11566"}}, "geometry": {"type": "Point", "coordinates": [16.810337, 45.1802313]}}, {"type": "Feature", "properties": {"type": "node", "id": 5371126343, "tags": {"name": "Lakta\u0161i", "name:bs": "Lakta\u0161i", "name:hr": "Lakta\u0161i", "name:sr": "\u041b\u0430\u043a\u0442\u0430\u0448\u0438", "name:sr-Latn": "Lakta\u0161i", "place": "town", "population": "5879", "wikidata": "Q635944", "wikipedia": "bs:Lakta\u0161i"}}, "geometry": {"type": "Point", "coordinates": [17.3022887, 44.9074664]}}, {"type": "Feature", "properties": {"type": "node", "id": 2628397185, "tags": {"name": "Srbac", "name:ru": "\u0421\u0440\u0431\u0430\u0446", "name:sr": "\u0421\u0440\u0431\u0430\u0446", "name:sr-Latn": "Srbac", "old_name": "Bosanski Svinjar", "place": "town", "population": "2801", "wikidata": "Q995071", "wikipedia": "sr:Srbac"}}, "geometry": {"type": "Point", "coordinates": [17.5198587, 45.0954444]}}, {"type": "Feature", "properties": {"type": "node", "id": 251231647, "tags": {"alt_name": "Bosanska Gradi\u0161ka", "int_name": "Gradi\u0161ka", "name": "Gradi\u0161ka", "name:bs": "Gradi\u0161ka", "name:el": "\u0393\u03ba\u03c1\u03ac\u03bd\u03c4\u03b9\u03c3\u03ba\u03b1", "name:en": "Gradi\u0161ka", "name:hr": "Bosanska Gradi\u0161ka", "name:hu": "Orb\u00e1szk\u0151v\u00e1r", "name:ru": "\u0413\u0440\u0430\u0434\u0438\u0448\u043a\u0430", "name:sr": "\u0413\u0440\u0430\u0434\u0438\u0448\u043a\u0430", "old_name": "Bosanska Gradi\u0161ka", "place": "town", "population": "14368", "wikidata": "Q180731", "wikipedia": "bs:Gradi\u0161ka"}}, "geometry": {"type": "Point", "coordinates": [17.2551445, 45.1465631]}}, {"type": "Feature", "properties": {"type": "node", "id": 5927190157, "tags": {"name": "Derventa", "name:sr": "\u0414\u0435\u0440\u0432\u0435\u043d\u0442\u0430", "place": "town", "population": "11631", "wikidata": "Q768439", "wikipedia": "bs:Derventa"}}, "geometry": {"type": "Point", "coordinates": [17.906959, 44.9767094]}}, {"type": "Feature", "properties": {"type": "node", "id": 1391468543, "tags": {"alt_name": "Bosanski Brod", "int_name": "Brod", "name": "Brod", "name:bs": "Bosanski Brod", "name:de": "Brod", "name:en": "Brod", "name:hr": "Bosanski Brod", "name:hu": "Br\u00f3d", "name:lt": "Brodas", "name:pl": "Bosanski Brod", "name:ru": "\u0411\u0440\u043e\u0434", "name:sr": "\u0411\u0440\u043e\u0434", "name:sr-Latn": "Brod", "name:uk": "\u0411\u0440\u043e\u0434", "note": "using prefix Bosanski is a violation of a) OSM- on the ground rule and b) the constitution of BiH", "old_name": "Bosanski Brod", "place": "town", "population": "8563", "population:date": "2013", "wikidata": "Q194482", "wikipedia": "en:Brod, Bosnia and Herzegovina"}}, "geometry": {"type": "Point", "coordinates": [18.0066887, 45.1435318]}}, {"type": "Feature", "properties": {"type": "node", "id": 251914226, "tags": {"name": "Modri\u010da", "name:bs": "Modri\u010da", "name:ru": "\u041c\u043e\u0434\u0440\u0438\u0447\u0430", "name:sr": "\u041c\u043e\u0434\u0440\u0438\u0447\u0430", "place": "town", "population": "35000", "wikidata": "Q180743", "wikipedia": "sr:Modri\u010da"}}, "geometry": {"type": "Point", "coordinates": [18.3015173, 44.9541405]}}, {"type": "Feature", "properties": {"type": "node", "id": 1462983577, "tags": {"name": "Od\u017eak", "name:hr": "Od\u017eak", "name:ru": "\u041e\u0434\u0436\u0430\u043a", "name:sr": "\u041e\u045f\u0430\u043a", "place": "town", "population": "8259", "wikidata": "Q994167", "wikipedia": "bs:Od\u017eak"}}, "geometry": {"type": "Point", "coordinates": [18.3260985, 45.0120394]}}, {"type": "Feature", "properties": {"type": "node", "id": 251915424, "tags": {"alt_name": "Bosanski \u0160amac", "int_name": "\u0160amac", "name": "\u0160amac", "name:bs": "\u0160amac", "name:hr": "Bosanski \u0160amac", "name:ru": "\u0428\u0430\u043c\u0430\u0446", "name:sr": "\u0428\u0430\u043c\u0430\u0446", "name:sr-Latn": "\u0160amac", "old_name": "Bosanski \u0160amac", "place": "town", "population": "5390", "population:date": "2013", "wikidata": "Q391033", "wikipedia": "sr:\u0428\u0430\u043c\u0430\u0446"}}, "geometry": {"type": "Point", "coordinates": [18.4684585, 45.0605306]}}, {"type": "Feature", "properties": {"type": "node", "id": 506681817, "tags": {"name": "Domaljevac", "name:bs": "Domaljevac", "name:hr": "Domaljevac", "name:ru": "\u0414\u043e\u043c\u0430\u043b\u0435\u0432\u0430\u0446", "name:sr": "\u0414\u043e\u043c\u0430\u0459\u0435\u0432\u0430\u0446", "place": "town", "population": "3295", "wikidata": "Q3034665", "wikipedia": "bs:Domaljevac"}}, "geometry": {"type": "Point", "coordinates": [18.5846433, 45.0583847]}}, {"type": "Feature", "properties": {"type": "node", "id": 506679896, "tags": {"name": "Ora\u0161je", "name:ru": "\u041e\u0440\u0430\u0448\u044c\u0435", "name:sr": "\u041e\u0440\u0430\u0448\u0458\u0435", "place": "town", "population": "3796", "wikidata": "Q994255", "wikipedia": "bs:Ora\u0161je"}}, "geometry": {"type": "Point", "coordinates": [18.6943254, 45.0342753]}}]}