{"version": 0.6, "generator": "Overpass API 0.7.56.7 b85c4387", "osm3s": {"timestamp_osm_base": "2021-03-03T09:08:27Z", "timestamp_areas_base": "2021-03-03T08:19:27Z", "copyright": "The data included in this document is from www.openstreetmap.org. The data is made available under ODbL."}, "elements": [{"type": "node", "id": 778101815, "lat": 41.9247209, "lon": 19.2014481, "tags": {"name": "Arheolo\u0161ki muzej", "name:sr": "\u0410\u0440\u0445\u0435\u043e\u043b\u043e\u0448\u043a\u0438 \u043c\u0443\u0437\u0435\u0458", "name:sr-Latn": "Arheolo\u0161ki muzej", "opening_hours": "08:00-17:00", "tourism": "museum"}}, {"type": "node", "id": 3362122048, "lat": 42.2783323, "lon": 18.8387811, "tags": {"name": "Arheolo\u0161ki muzej", "name:ru": "\u0410\u0440\u0445\u0435\u043e\u043b\u043e\u0433\u0438\u0447\u0435\u0441\u043a\u0438\u0439 \u043c\u0443\u0437\u0435\u0439", "name:sr": "\u0410\u0440\u0445\u0435\u043e\u043b\u043e\u0448\u043a\u0438 \u043c\u0443\u0437\u0435\u0458", "name:zh": "\u8003\u53e4\u535a\u7269\u9986", "opening_hours": "Mo-Fr 08:00-18:00; Sa-Su 10:00-17:00", "tourism": "museum"}}, {"type": "node", "id": 6550987767, "lat": 42.2769598, "lon": 18.8382749, "tags": {"level": "1", "tourism": "museum"}}, {"type": "node", "id": 6566452586, "lat": 42.4282609, "lon": 18.5564137, "tags": {"name": "\u0413\u0430\u043b\u0435\u0440\u0438\u0458\u0430 \u0410\u043b\u0435\u043a\u0441\u0430\u043d\u0434\u0440", "name:en": "Galerija Aleksandar", "name:ru": "\u0413\u0430\u043b\u0435\u0440\u0435\u044f  \u0410\u043b\u0435\u043a\u0441\u0430\u043d\u0434\u0440", "name:sr": "\u0413\u0430\u043b\u0435\u0440\u0438\u0458\u0430 \u0410\u043b\u0435\u043a\u0441\u0430\u043d\u0434\u0430\u0440", "tourism": "museum"}}, {"type": "node", "id": 4360711994, "lat": 42.4239694, "lon": 18.7716584, "tags": {"name:en": "Virtual Kotor XIX cent", "name:ru": "\u0414\u0432\u043e\u0440\u0435\u0446 \u0412\u0440\u0430\u043a\u0438\u0435\u043d", "tourism": "museum"}}, {"type": "node", "id": 6656178126, "lat": 42.4243302, "lon": 18.7710255, "tags": {"name:en": "Archivo", "tourism": "museum"}}, {"type": "node", "id": 3503321474, "lat": 42.4250399, "lon": 18.7714008, "tags": {"name": "Museum Maritimum", "name:de": "Palata Grgurina", "name:en": "Maritime Museum (Former place of Grgurina family 18th century)", "name:ru": "\u041c\u043e\u0440\u0441\u043a\u043e\u0439 \u043c\u0443\u0437\u0435\u0439", "name:tr": "Deniz M\u00fczesi (18. y\u00fczy\u0131l Grgurina ailesinin eski yeri)", "opening_hours": "Mo-Sa 08:00-18:00; Su 09:00-13:00", "tourism": "museum"}}, {"type": "node", "id": 4360657497, "lat": 42.4250993, "lon": 18.7702537, "tags": {"name:en": "cat's museum", "name:ru": "\u041c\u0443\u0437\u0435\u0439 \u043a\u043e\u0448\u0435\u043a", "opening_hours": "Mo-Su 10:00-18:00", "tourism": "museum"}}, {"type": "node", "id": 420835326, "lat": 42.4333458, "lon": 18.8290407, "tags": {"name": "Njego\u0161eva rodna ku\u0107a", "name:en": "Birth house of Njego\u0161", "tourism": "museum"}}, {"type": "node", "id": 777062601, "lat": 42.4879507, "lon": 18.6957129, "tags": {"name": "Muzej Grada Perasta", "tourism": "museum"}}, {"type": "node", "id": 790823819, "lat": 42.7693875, "lon": 18.9514903, "tags": {"name": "Dvorac Kralja Nikole", "name:sr": "\u0414\u0432\u043e\u0440\u0430\u0446 \u043a\u0440\u0430\u0459\u0430 \u041d\u0438\u043a\u043e\u043b\u0435", "tourism": "museum"}}, {"type": "node", "id": 3943295115, "lat": 42.7343432, "lon": 19.7574022, "tags": {"name": "Zavi\u010dajni muzej", "name:sr": "\u0417\u0430\u0432\u0438\u0447\u0430\u0458\u043d\u0438 \u043c\u0443\u0437\u0435\u0458", "tourism": "museum"}}, {"type": "node", "id": 1308041024, "lat": 42.8238563, "lon": 19.5208745, "tags": {"name": "muzej", "name:sr": "\u041c\u0443\u0437\u0435\u0458", "tourism": "museum"}}, {"type": "node", "id": 3975660657, "lat": 42.844056, "lon": 19.872603, "tags": {"addr:city": "Berane", "addr:housenumber": "2", "addr:postcode": "84300", "addr:street": "Milo\u0161a Mali\u0161i\u0107a ", "name": "Polimski muzej", "phone": "38251234276", "tourism": "museum", "website": "www.polimskimuzej.me"}}, {"type": "node", "id": 3976715457, "lat": 42.842569, "lon": 19.872466, "tags": {"name": "Ku\u0107a Vojvode Gavra Vukovi\u0107a", "tourism": "museum"}}, {"type": "node", "id": 3512818208, "lat": 43.0329448, "lon": 19.7456794, "tags": {"tourism": "museum"}}, {"type": "node", "id": 1838650755, "lat": 42.8448737, "lon": 20.1683565, "tags": {"name": "Muzej", "name:sr": "\u041c\u0443\u0437\u0435\u0458", "tourism": "museum"}}, {"type": "node", "id": 4836611171, "lat": 42.8459237, "lon": 20.1750591, "tags": {"name": "Privatni muzej", "name:sr": "\u041f\u0440\u0438\u0432\u0430\u0442\u043d\u0438 \u043c\u0443\u0437\u0435\u0458", "tourism": "museum"}}, {"type": "node", "id": 3887072738, "lat": 43.3405349, "lon": 19.3220294, "tags": {"name": "Muzej", "tourism": "museum"}}, {"type": "node", "id": 4536683891, "lat": 43.3615197, "lon": 19.352153, "tags": {"addr:postcode": "84210", "addr:street": "JNA", "name:en": "Military Barracks", "name:sr": "Krstata Kasarna", "tourism": "museum"}}, {"type": "way", "id": 130226175, "center": {"lat": 41.9236529, "lon": 19.2019271}, "nodes": [1435168958, 1435168998, 1435168996, 1435169021, 6805492264, 1435168958], "tags": {"addr:city": "Ulcinj", "addr:postcode": "85360", "addr:street": "Old town", "building": "yes", "museum": "history", "name": "Museum of Ulcin's corsairs (pirates)", "operator": "Hotel Palata Venezia", "operator:type": "private", "tourism": "museum"}}, {"type": "way", "id": 130226180, "center": {"lat": 41.9244547, "lon": 19.2015732}, "nodes": [1435169003, 6805326998, 1435168957, 1435168945, 1435168981, 1435169003], "tags": {"building": "yes", "name": "Etnografski muzej", "name:sr": "\u0415\u0442\u043d\u043e\u0433\u0440\u0430\u0444\u0441\u043a\u0438 \u043c\u0443\u0437\u0435\u0458", "name:sr-Latn": "Etnografski muzej", "tourism": "museum", "wikidata": "Q13043217", "wikipedia": "sq:Muzeu i Ulqinit"}}, {"type": "way", "id": 130342068, "center": {"lat": 41.9235685, "lon": 19.2016769}, "nodes": [1435892931, 1435892932, 1435892833, 1435892997, 1435892931], "tags": {"addr:city": "Ulcinj", "addr:postcode": "85360", "addr:street": "Old town", "building": "yes", "museum": "history", "name": "Museum Bey's house", "operator": "Hotel Palata Venezia", "operator:type": "private", "tourism": "museum", "website": "http://hotelpalatavenezia.com/en/beys-house/"}}, {"type": "way", "id": 753528252, "center": {"lat": 41.9246696, "lon": 19.2014337}, "nodes": [1435168980, 6805327085, 6802053261, 6805327080, 6805327025, 6805327022, 6802364135, 6805327020, 6802053264, 6802053260, 6805327096, 6805327030, 1435168995, 6805327092, 6805326990, 7040512664, 1435168981, 1435168945, 1435168957, 7040470288, 7040470289, 6803066318, 1435168952, 6805327075, 1435168980], "tags": {"name": "Zavi\u010dajni muzej Ulcinj - Muzeu i Ulqinit", "name:sq": "Muzeu i Ulqinit", "name:sr": "\u0423\u043b\u0446\u0438\u045a\u0441\u043a\u0438 \u043c\u0443\u0437\u0435\u0458", "name:sr-Latn": "Ulcinjski muzej", "opening_hours": "08:00-17:00", "tourism": "museum", "wikidata": "Q13043217", "wikipedia": "en:Museum of Local History in Ulcinj"}}, {"type": "way", "id": 726202955, "center": {"lat": 41.9176982, "lon": 19.2519757}, "nodes": [6808491814, 6808491813, 6808491812, 6808491811, 6808491814], "tags": {"building": "yes", "note": "shut in Sept 2019", "tourism": "museum"}}, {"type": "way", "id": 562738552, "center": {"lat": 42.1007316, "lon": 19.0912208}, "nodes": [7056385714, 5424546939, 5424546944, 5424546938, 5370870985, 5424546933, 5424546929, 5424546932, 5370870984, 2420161759, 2420161758, 5370870972, 5370870973, 5424546926, 5370870974, 5424546927, 5370870975, 5424546928, 5370870976, 5370870977, 5424546925, 5424546936, 5424546945, 5424546937, 5424546943, 5424546941, 5424546940, 7056385714], "tags": {"building": "yes", "historic": "manor", "name": "Dvorac kralja Nikole", "name:en": "King Nikola's Palace", "name:ru": "\u0414\u0432\u043e\u0440\u0435\u0446 \u041a\u043e\u0440\u043e\u043b\u044f \u041d\u0438\u043a\u043e\u043b\u044b", "tourism": "museum", "wheelchair": "no"}}, {"type": "way", "id": 210722571, "center": {"lat": 42.0930779, "lon": 19.1362984}, "nodes": [2207937580, 6812000942, 2207937707, 2207937771, 2207937995, 2207937580], "tags": {"building": "yes", "name": "Barski Medaljoni", "tourism": "museum"}}, {"type": "way", "id": 210722575, "center": {"lat": 42.0936117, "lon": 19.1358063}, "nodes": [2207937901, 2207937835, 2207937893, 2207938021, 2207937901], "tags": {"building": "yes", "name": "Lapidarium", "tourism": "museum"}}, {"type": "way", "id": 220111329, "center": {"lat": 42.0920507, "lon": 19.1332251}, "nodes": [2614111017, 2292328895, 2292328898, 2292328897, 2614111017], "tags": {"building": "yes", "name": "Muzej Stari Bar", "name:en": "Museum Stari Bar", "name:sr": "\u041c\u0443\u0437\u0435\u0458 \u0421\u0442\u0430\u0440\u0438 \u0411\u0430\u0440", "tourism": "museum"}}, {"type": "way", "id": 288755442, "center": {"lat": 42.2084773, "lon": 18.939547}, "nodes": [2923120859, 6817866188, 2923120852, 2923120837, 6817866199, 2923120842, 2923120859], "tags": {"barrier": "entrance", "building": "yes", "historic": "archaeological_site", "name": "4th-century mosaic floor", "opening_hours": "Mo-Fr 10:00-14:00", "tourism": "museum"}}, {"type": "way", "id": 147151017, "center": {"lat": 42.4537049, "lon": 18.527421}, "nodes": [6597752886, 1603586475, 1603586449, 6946120724, 1603586496, 1603586479, 1603586436, 1603586429, 1603586400, 6597752886], "tags": {"addr:street": "Mirka Komnenovi\u0107a", "building": "yes", "name": "Gradski muzej", "name:en": "City Museum", "name:es": "Museo de la ciudad", "name:sr": "\u0413\u0440\u0430\u0434\u0441\u043a\u0438 \u043c\u0443\u0437\u0435\u0458", "opening_hours": "Mo-Su 08:00-20:00", "tourism": "museum"}}, {"type": "way", "id": 172978754, "center": {"lat": 42.4376469, "lon": 18.6936752}, "nodes": [1838112061, 1838112063, 1838112076, 1838112084, 1838112061], "tags": {"building": "yes", "name": "Nautical Museum Tivat (Nauti\u010dki Muzej Tivta)", "source": "survey", "tourism": "museum"}}, {"type": "way", "id": 210044380, "center": {"lat": 42.39992, "lon": 18.8375049}, "nodes": [2201833320, 2201833319, 2201833322, 2201833318, 2201833320], "tags": {"name": "Njego\u0161ev mauzolej", "name:ru": "\u041c\u0430\u0432\u0437\u043e\u043b\u0435\u0439 \u041d\u0435\u0433\u043e\u0448\u0430", "name:sr": "\u040a\u0435\u0433\u043e\u0448\u0435\u0432 \u043c\u0430\u0443\u0437\u043e\u043b\u0435\u0458", "tourism": "museum"}}, {"type": "way", "id": 211427371, "center": {"lat": 42.4334039, "lon": 18.8290991}, "nodes": [2214430871, 2214430848, 2214430851, 2214430852, 2214430866, 2214430854, 2214430858, 2214430869, 2214430884, 2214430871], "tags": {"tourism": "museum"}}, {"type": "way", "id": 206541724, "center": {"lat": 42.4867152, "lon": 18.6888375}, "nodes": [2165551179, 1867319365, 1867319362, 2165551186, 2165551184, 2165551182, 2165551190, 2165551181, 2165551188, 2165551179], "tags": {"building": "yes", "tourism": "museum"}}, {"type": "way", "id": 167047295, "center": {"lat": 42.3874791, "lon": 18.9244355}, "nodes": [1784533176, 1784533181, 1784533184, 1784533185, 1784533183, 1784533187, 1784533162, 1784533156, 1784533170, 1784533167, 1784533157, 1784533155, 1784533164, 1784533160, 1784533152, 1784533150, 1784533176], "tags": {"building": "yes", "name": "Muzej kralja Nikole", "name:en": "Museum of King Nikola I Petrovi\u0107", "name:fr": "Mus\u00e9e du du roi Nikola 1\u1d49\u02b3 Petrovi\u0107", "name:sr": "\u041c\u0443\u0437\u0435\u0458 \u043a\u0440\u0430\u0459\u0430 \u041d\u0438\u043a\u043e\u043b\u0435", "name:zh": "\u5c3c\u53e4\u62c9\u56fd\u738b\u535a\u7269\u9986", "opening_hours": "Mo-Su 09:00-20:00", "tourism": "museum"}}, {"type": "way", "id": 167047296, "center": {"lat": 42.3878263, "lon": 18.9230192}, "nodes": [1784533204, 1784533203, 1784533200, 1784533201, 1784533202, 1784533205, 1784533207, 1784533209, 1784533211, 1784533213, 1784533215, 1784533216, 1784533214, 1784533241, 1784533237, 1784533233, 1784533193, 1784533199, 1784533194, 2469479116, 1784533182, 2469479105, 1784533226, 1784533198, 1784533197, 1784533206, 1784533204], "tags": {"building": "yes", "name": "Biljarda", "name:sr": "\u0411\u0438\u0459\u0430\u0440\u0434\u0430", "opening_hours": "Mo-Su 09:00-20:00", "tourism": "museum"}}, {"type": "way", "id": 209747828, "center": {"lat": 42.3879392, "lon": 18.9246263}, "nodes": [2260021181, 2260021209, 2199387011, 2199387013, 2199387016, 2260021181], "tags": {"building": "yes", "building:levels": "2", "name": "Etnografski muzej Crne Gore", "name:ru": "\u042d\u0442\u043d\u043e\u0433\u0440\u0430\u0444\u0438\u0447\u0435\u0441\u043a\u0438\u0439 \u043c\u0443\u0437\u0435\u0439 \u0427\u0435\u0440\u043d\u043e\u0433\u043e\u0440\u0438\u0438", "name:sr": "\u0415\u0442\u043d\u043e\u0433\u0440\u0430\u0444\u0441\u043a\u0438 \u043c\u0443\u0437\u0435\u0458", "tourism": "museum", "wikidata": "Q56232896"}}, {"type": "way", "id": 209890707, "center": {"lat": 42.3914756, "lon": 18.9223065}, "nodes": [2200462672, 2203747921, 2200462669, 2291263508, 2200462673, 2200462672], "tags": {"building": "yes", "name": "Muzej novca", "tourism": "museum"}}, {"type": "way", "id": 331561284, "center": {"lat": 42.4710549, "lon": 19.3646671}, "nodes": [3386352777, 3386352775, 3386352776, 3386352778, 3386352777], "tags": {"building": "yes", "name": "Museum Marko Miljanov", "tourism": "museum"}}, {"type": "way", "id": 342845671, "center": {"lat": 43.0329428, "lon": 19.7456912}, "nodes": [3497977151, 3497977152, 3497977153, 3497977154, 3497977151], "tags": {"building": "yes", "name": "Gradski Muzej", "tourism": "museum"}}, {"type": "relation", "id": 10241242, "center": {"lat": 43.1255255, "lon": 19.1906227}, "members": [{"type": "way", "ref": 36199383, "role": "outer"}, {"type": "way", "ref": 740730192, "role": "outer"}], "tags": {"boundary": "protected_area", "heritage": "1", "heritage:operator": "whc", "leisure": "nature_reserve", "name": "Nacionalni park Durmitor", "name:de": "Nationalpark Durmitor", "name:en": "Durmitor National Park", "name:es": "Parque nacional Durmitor", "name:ru": "\u041d\u0430\u0446\u0438\u043e\u043d\u0430\u043b\u044c\u043d\u044b\u0439 \u043f\u0430\u0440\u043a \u0414\u0443\u0440\u043c\u0438\u0442\u043e\u0440", "name:sr": "\u041d\u0430\u0446\u0438\u043e\u043d\u0430\u043b\u043d\u0438 \u043f\u0430\u0440\u043a \u0414\u0443\u0440\u043c\u0438\u0442\u043e\u0440", "name:sr-Latn": "Nacionalni park Durmitor", "ref:whc": "100", "type": "multipolygon", "whc:inscription_date": "1980", "wikidata": "Q3364446"}}, {"type": "relation", "id": 2227155, "center": {"lat": 42.3892627, "lon": 18.9228812}, "members": [{"type": "way", "ref": 36557552, "role": "outer"}, {"type": "way", "ref": 36557455, "role": "inner"}], "tags": {"building": "yes", "name": "Vladin dom - Narodni muzej Crne Gore", "name:sr": "\u0412\u043b\u0430\u0434\u0438\u043d \u0434\u043e\u043c - \u041d\u0430\u0440\u043e\u0434\u043d\u0438 \u043c\u0443\u0437\u0435\u0458 \u0426\u0440\u043d\u0435 \u0413\u043e\u0440\u0435", "tourism": "museum", "type": "multipolygon"}}]}