{"type": "FeatureCollection", "features": [{"type": "Feature", "properties": {"type": "node", "id": 6066401861, "tags": {"name": "Archaeological Museum", "tourism": "museum"}}, "geometry": {"type": "Point", "coordinates": [20.7366648, 42.2112685]}}, {"type": "Feature", "properties": {"type": "node", "id": 4527937526, "tags": {"name": "Muzeu i Qytetit", "name:de": "Museum von Suhareka", "name:en": "Museum of Suhareka", "source": "Ceci", "tourism": "museum"}}, "geometry": {"type": "Point", "coordinates": [20.8221602, 42.3539569]}}, {"type": "Feature", "properties": {"type": "node", "id": 5611445121, "tags": {"addr:street": "Guresel Bajram Sulejmani", "name": "Xhamka", "name:sq": "Xhamia Nekodim", "tourism": "museum"}}, "geometry": {"type": "Point", "coordinates": [21.168578, 42.3553336]}}, {"type": "Feature", "properties": {"type": "node", "id": 3731117201, "tags": {"tourism": "museum"}}, "geometry": {"type": "Point", "coordinates": [20.4277652, 42.3831676]}}, {"type": "Feature", "properties": {"type": "node", "id": 1022636496, "tags": {"name": "Hyseni", "tourism": "museum"}}, "geometry": {"type": "Point", "coordinates": [20.3209736, 42.6405195]}}, {"type": "Feature", "properties": {"type": "node", "id": 2017881750, "tags": {"name": "Ethnological Museum", "tourism": "museum"}}, "geometry": {"type": "Point", "coordinates": [20.2922026, 42.6587043]}}, {"type": "Feature", "properties": {"type": "node", "id": 2017883305, "tags": {"name": "Mulliri i Haxhi Zek\u00ebs", "tourism": "museum"}}, "geometry": {"type": "Point", "coordinates": [20.2994848, 42.6629707]}}, {"type": "Feature", "properties": {"type": "node", "id": 6085207690, "tags": {"name": "Ibrahim Rugova museum", "tourism": "museum"}}, "geometry": {"type": "Point", "coordinates": [20.137788, 42.7117554]}}, {"type": "Feature", "properties": {"type": "node", "id": 1379509206, "tags": {"name": "Muzeu Bibliote", "tourism": "museum"}}, "geometry": {"type": "Point", "coordinates": [20.6531137, 42.4003942]}}, {"type": "Feature", "properties": {"type": "node", "id": 2395009295, "tags": {"addr:street": "Uran Amerllahu", "name": "Mulliri i Rrahim Hetemit", "tourism": "museum"}}, "geometry": {"type": "Point", "coordinates": [20.8959635, 42.4961772]}}, {"type": "Feature", "properties": {"type": "node", "id": 4532575889, "tags": {"addr:postcode": "42000", "addr:street": "R102", "name": "Osman Ademi", "name:sq": "Osman Ademi", "tourism": "museum"}}, "geometry": {"type": "Point", "coordinates": [20.90904, 42.5663495]}}, {"type": "Feature", "properties": {"type": "node", "id": 693421042, "tags": {"heritage": "1", "heritage:operator": "whc", "historic": "memorial", "name": "\u041c\u0430\u043d\u0430\u0441\u0442\u0438\u0440 \u0421\u043e\u043f\u043e\u045b\u0430\u043d\u0438", "name:sr": "\u041c\u0430\u043d\u0430\u0441\u0442\u0438\u0440 \u0421\u043e\u043f\u043e\u045b\u0430\u043d\u0438", "name:sr-Latn": "Manastir Sopo\u0107ani", "ref:whc": "96-002", "wikidata": "Q1142337", "wikipedia": "sr:\u041c\u0430\u043d\u0430\u0441\u0442\u0438\u0440 \u0421\u043e\u043f\u043e\u045b\u0430\u043d\u0438"}}, "geometry": {"type": "Point", "coordinates": [20.3737602, 43.1175077]}}, {"type": "Feature", "properties": {"type": "node", "id": 4011769811, "tags": {"heritage": "1", "heritage:operator": "whc", "historic": "archaeological_site", "name": "\u0421\u0442\u0430\u0440\u0438 \u0420\u0430\u0441", "name:bs": "Arsa", "name:sr": "\u0421\u0442\u0430\u0440\u0438 \u0420\u0430\u0441", "name:sr-Latn": "Stari Ras", "ref:whc": "96-001", "wikidata": "Q917814", "wikipedia": "sr:\u0421\u0442\u0430\u0440\u0438 \u0420\u0430\u0441"}}, "geometry": {"type": "Point", "coordinates": [20.4155347, 43.1282224]}}, {"type": "Feature", "properties": {"type": "node", "id": 2522361036, "tags": {"addr:city": "Mitrovic\u00eb", "addr:postcode": "40000", "addr:street": "Bulevardi Shemsi Ahmeti", "name": "Muzeu i Mitrovic\u00ebs", "name:de": "Museum von Mitrovica", "name:en": "Museum of Mitrovica", "tourism": "museum"}}, "geometry": {"type": "Point", "coordinates": [20.8685905, 42.887281]}}, {"type": "Feature", "properties": {"type": "node", "id": 5497630721, "tags": {"addr:street": "Mitrovic\u00eb - Podujev\u00eb", "name": "Muzeu i Dikasterit Trepqa", "tourism": "museum"}}, "geometry": {"type": "Point", "coordinates": [20.9174519, 42.9387127]}}, {"type": "Feature", "properties": {"type": "node", "id": 8270870317, "tags": {"addr:housenumber": "12", "addr:street": "Mark Raka", "name": "Simfonia e Artev", "tourism": "museum"}}, "geometry": {"type": "Point", "coordinates": [21.1680961, 42.6446347]}}, {"type": "Feature", "properties": {"type": "node", "id": 2164150701, "tags": {"name": "Burgu i Prishtin\u00ebs", "name:de": "Gef\u00e4ngnis von Pristina", "name:en": "Prison of Pristina", "tourism": "museum"}}, "geometry": {"type": "Point", "coordinates": [21.1598874, 42.6629924]}}, {"type": "Feature", "properties": {"type": "node", "id": 5758610861, "tags": {"name": "Museum of Broken Relationships Kosovo", "tourism": "museum"}}, "geometry": {"type": "Point", "coordinates": [21.1659309, 42.6660886]}}, {"type": "Feature", "properties": {"type": "node", "id": 2629302474, "tags": {"addr:city": "\u0412\u0440\u0430\u045a\u0435", "addr:housename": "\u043a\u0443\u045b\u0430 \u0411\u043e\u0440\u0435 \u0421\u0442\u0430\u043d\u043a\u043e\u0432\u0438\u045b\u0430", "addr:housenumber": "9", "addr:postcode": "17500", "addr:street": "\u0411\u0430\u0431\u0430 \u0417\u043b\u0430\u0442\u0438\u043d\u0430", "name": "\u041c\u0443\u0437\u0435\u0458 \u043a\u0443\u045b\u0430 \u0411\u043e\u0440\u0435 \u0421\u0442\u0430\u043d\u043a\u043e\u0432\u0438\u045b\u0430", "name:en": "Museum houses of Bora Stankovic", "name:sr": "\u041c\u0443\u0437\u0435\u0458 \u043a\u0443\u045b\u0430 \u0411\u043e\u0440\u0435 \u0421\u0442\u0430\u043d\u043a\u043e\u0432\u0438\u045b\u0430", "name:sr-Latn": "Muzej ku\u0107a Bore Stankovi\u0107a", "phone": "+381 17 423073", "tourism": "museum"}}, "geometry": {"type": "Point", "coordinates": [21.900402, 42.5492225]}}, {"type": "Feature", "properties": {"type": "node", "id": 2029582336, "tags": {"name": "\u041d\u0430\u0440\u043e\u0434\u043d\u0438 \u043c\u0443\u0437\u0435\u0458", "name:sr": "\u041d\u0430\u0440\u043e\u0434\u043d\u0438 \u043c\u0443\u0437\u0435\u0458", "name:sr-Latn": "Narodni muzej", "tourism": "museum"}}, "geometry": {"type": "Point", "coordinates": [21.8982448, 42.5545435]}}, {"type": "Feature", "properties": {"type": "node", "id": 3276750182, "tags": {"addr:city": "\u0421\u0442\u0440\u043e\u0458\u043a\u043e\u0432\u0446\u0435", "addr:housenumber": "\u0431\u0431", "addr:postcode": "16203", "addr:street": "\u0421\u0442\u0440\u043e\u0458\u043a\u043e\u0432\u0446\u0435", "level": "1", "museum": "history", "name": "\u041c\u0443\u0437\u0435\u0458 \u0442\u0435\u043a\u0441\u0442\u0438\u043b\u043d\u0435 \u0438\u043d\u0434\u0443\u0441\u0442\u0440\u0438\u0458\u0435 \u0443 \u0421\u0442\u0440\u043e\u0458\u043a\u043e\u0432\u0446\u0443", "natural": "tree", "opening_hours": "Mo-Fr 08:00-17:00", "operator": "\u041d\u0430\u0440\u043e\u0434\u043d\u0438 \u041c\u0443\u0437\u0435\u0458 \u041b\u0435\u0441\u043a\u043e\u0432\u0430\u0446", "operator:type": "public", "tourism": "museum", "website": "https://muzejleskovac.rs/tekstilni-muzej/", "wheelchair": "yes", "wikidata": "Q31182252", "wikipedia": "sr:\u041c\u0443\u0437\u0435\u0458 \u0442\u0435\u043a\u0441\u0442\u0438\u043b\u043d\u0435 \u0438\u043d\u0434\u0443\u0441\u0442\u0440\u0438\u0458\u0435 \u0443 \u0421\u0442\u0440\u043e\u0458\u043a\u043e\u0432\u0446\u0443"}}, "geometry": {"type": "Point", "coordinates": [21.9233165, 42.9053283]}}, {"type": "Feature", "properties": {"type": "node", "id": 5834975277, "tags": {"tourism": "museum"}}, "geometry": {"type": "Point", "coordinates": [22.5885844, 43.1618408]}}, {"type": "Feature", "properties": {"type": "node", "id": 6872267889, "tags": {"name": "Manastir Sukovo", "tourism": "museum"}}, "geometry": {"type": "Point", "coordinates": [22.6636541, 43.0425018]}}, {"type": "Feature", "properties": {"type": "node", "id": 7274316377, "tags": {"heritage": "1", "heritage:operator": "whc", "historic": "archaeological_site", "name": "\u0413\u0440\u0447\u043a\u043e \u0433\u0440\u043e\u0431\u0459\u0435", "name:sr": "\u0413\u0440\u0447\u043a\u043e \u0433\u0440\u043e\u0431\u0459\u0435", "name:sr-Latn": "Gr\u010dko groblje", "ref:whc": "1504-028", "wikidata": "Q64495121", "wikimedia_commons": "File:Gr\u010dko groblje, Hrta.jpg"}}, "geometry": {"type": "Point", "coordinates": [19.6244089, 43.2989188]}}, {"type": "Feature", "properties": {"type": "node", "id": 1508791379, "tags": {"addr:city": "\u041f\u0440\u0438\u0431\u043e\u0458", "addr:housenumber": "25", "addr:postcode": "31330", "addr:street": "12. \u0458\u0430\u043d\u0443\u0430\u0440", "contact:phone": "+381332452453", "name": "\u0417\u0430\u0432\u0438\u0447\u0430\u0458\u043d\u0438 \u043c\u0443\u0437\u0435\u0458 \u041f\u0440\u0438\u0431\u043e\u0458", "name:sr": "\u0417\u0430\u0432\u0438\u0447\u0430\u0458\u043d\u0438 \u043c\u0443\u0437\u0435\u0458 \u041f\u0440\u0438\u0431\u043e\u0458", "name:sr-Latn": "Zavi\u010dajni muzej Priboj", "operator": "\u0421\u0430\u0432\u043e \u0414\u0435\u0440\u0438\u043a\u043e\u045a\u0438\u045b", "tourism": "museum"}}, "geometry": {"type": "Point", "coordinates": [19.5257104, 43.5823022]}}, {"type": "Feature", "properties": {"type": "node", "id": 7274431497, "tags": {"heritage": "1", "heritage:operator": "whc", "historic": "archaeological_site", "name": "\u041c\u0440\u0430\u043c\u043e\u0440\u0458\u0435", "name:sr": "\u041c\u0440\u0430\u043c\u043e\u0440\u0458\u0435", "name:sr-Latn": "Mramorje", "ref:whc": "1504-027", "wikidata": "Q64495118"}}, "geometry": {"type": "Point", "coordinates": [19.3481939, 43.9451232]}}, {"type": "Feature", "properties": {"type": "node", "id": 1644697815, "tags": {"heritage": "1", "heritage:operator": "whc", "historic": "archaeological_site", "name": "\u041d\u0435\u043a\u0440\u043e\u043f\u043e\u043b\u0430 \u0441\u0442\u0435\u045b\u0430\u043a\u0430 \u041c\u0440\u0430\u043c\u043e\u0440\u0458\u0435", "name:sr": "\u041d\u0435\u043a\u0440\u043e\u043f\u043e\u043b\u0430 \u0441\u0442\u0435\u045b\u0430\u043a\u0430 \u041c\u0440\u0430\u043c\u043e\u0440\u0458\u0435", "name:sr-Latn": "Nekropola ste\u0107aka Mramorje", "ref:whc": "1504-026", "wikidata": "Q295408", "wikipedia": "sr:\u041c\u0440\u0430\u043c\u043e\u0440\u0458\u0435 (\u041f\u0435\u0440\u0443\u045b\u0430\u0446)"}}, "geometry": {"type": "Point", "coordinates": [19.4307907, 43.9576402]}}, {"type": "Feature", "properties": {"type": "node", "id": 7125559748, "tags": {"name": "\u017delezni\u010dki Muzej Po\u017eega", "name:en": "Po\u017eega Railway Museum", "tourism": "museum", "website": "http://topoz.org.rs/muzej-zeleznice/"}}, "geometry": {"type": "Point", "coordinates": [20.0274267, 43.8423458]}}, {"type": "Feature", "properties": {"type": "node", "id": 7837117485, "tags": {"name": "Crkveni park Dobri potok", "tourism": "museum"}}, "geometry": {"type": "Point", "coordinates": [19.3735158, 44.3722612]}}, {"type": "Feature", "properties": {"type": "node", "id": 8460411717, "tags": {"name": "Spomen kompleks Brankovina", "tourism": "museum"}}, "geometry": {"type": "Point", "coordinates": [19.8926644, 44.3525887]}}, {"type": "Feature", "properties": {"type": "node", "id": 4176368597, "tags": {"name": "Museum Of Naive Art Ilijanum", "tourism": "museum"}}, "geometry": {"type": "Point", "coordinates": [19.2279526, 45.1273387]}}, {"type": "Feature", "properties": {"type": "node", "id": 4176308698, "tags": {"name": "\u0421\u043f\u043e\u043c\u0435\u043d \u041a\u0443\u045b\u0430 \u0421\u0430\u0432\u0435 \u0428\u0443\u043c\u0430\u043d\u043e\u0432\u0438\u045b\u0430", "name:ru": "\u0414\u043e\u043c-\u043c\u0443\u0437\u0435\u0439 \u0421\u0430\u0432\u0432\u044b \u0428\u0443\u043c\u0430\u043d\u043e\u0432\u0438\u0447\u0430", "name:sr": "\u0421\u043f\u043e\u043c\u0435\u043d \u041a\u0443\u045b\u0430 \u0421\u0430\u0432\u0435 \u0428\u0443\u043c\u0430\u043d\u043e\u0432\u0438\u045b\u0430", "name:sr-Latn": "Spomen Ku\u0107a Save \u0160umanovi\u0107a", "tourism": "museum", "wikidata": "Q20434783", "wikipedia": "sr:\u041a\u0443\u045b\u0430 \u0421\u0430\u0432\u0435 \u0428\u0443\u043c\u0430\u043d\u043e\u0432\u0438\u045b\u0430 \u0443 \u0428\u0438\u0434\u0443"}}, "geometry": {"type": "Point", "coordinates": [19.2301495, 45.1272073]}}, {"type": "Feature", "properties": {"type": "node", "id": 5861591996, "tags": {"addr:housenumber": "4", "addr:postcode": "22000", "addr:street": "\u0413\u0440\u0430\u0434\u0441\u043a\u0438 \u043f\u0430\u0440\u043a", "email": "galerijalazarvozarevic@gmail.com", "name": "\u0413\u0430\u043b\u0435\u0440\u0438\u0458\u0430 \u041b\u0430\u0437\u0430\u0440 \u0412\u043e\u0437\u0430\u0440\u0435\u0432\u0438\u045b", "name:en": "Lazar Vozarevi\u0107 Gallery", "name:sr": "\u0413\u0430\u043b\u0435\u0440\u0438\u0458\u0430 \u041b\u0430\u0437\u0430\u0440 \u0412\u043e\u0437\u0430\u0440\u0435\u0432\u0438\u045b", "name:sr-Latn": "Galerija Lazar Vozarevi\u0107", "phone": "+38122621492", "tourism": "museum", "website": "http://lazarvozarevic.com/"}}, "geometry": {"type": "Point", "coordinates": [19.6073046, 44.9675049]}}, {"type": "Feature", "properties": {"type": "node", "id": 6566731921, "tags": {"addr:city": "Ruma", "addr:postcode": "22400", "addr:street": "\u0413\u043b\u0430\u0432\u043d\u0430", "name": "\u0413\u0440\u0430\u0434\u0441\u043a\u0438 \u043c\u0443\u0437\u0435\u0458", "name:sr-Latn": "Gradski muzej", "tourism": "museum"}}, "geometry": {"type": "Point", "coordinates": [19.8240954, 45.0077333]}}, {"type": "Feature", "properties": {"type": "node", "id": 5870767685, "tags": {"addr:city": "\u041f\u0435\u045b\u0438\u043d\u0446\u0438", "addr:housenumber": "83", "addr:postcode": "22410", "addr:street": "\u0411\u0440\u0430\u045b\u0435 \u0412\u0438\u0434\u0430\u043a\u043e\u0432\u0438\u045b", "email": "info@muzejhleba.rs", "name": "\u0421\u0440\u043f\u0441\u043a\u0438 \u043c\u0443\u0437\u0435\u0458 \u0445\u043b\u0435\u0431\u0430 - \u0408\u0435\u0440\u0435\u043c\u0438\u0458\u0430", "name:en": "Serbian Bread Museum", "opening_hours": "Sa-Su 10:00-17:00", "phone": "+38122436141", "tourism": "museum", "website": "http://www.muzejhleba.rs/"}}, "geometry": {"type": "Point", "coordinates": [19.9602178, 44.9162768]}}, {"type": "Feature", "properties": {"type": "node", "id": 433837247, "tags": {"name": "\u041f\u043e\u0437\u043e\u0440\u0438\u0448\u043d\u0438 \u043c\u0443\u0437\u0435\u0458 \u0412\u043e\u0458\u0432\u043e\u0434\u0438\u043d\u0435", "name:en": "Theatre Museum of Vojvodina", "name:sr": "\u041f\u043e\u0437\u043e\u0440\u0438\u0448\u043d\u0438 \u043c\u0443\u0437\u0435\u0458 \u0412\u043e\u0458\u0432\u043e\u0434\u0438\u043d\u0435", "name:sr-Latn": "Pozori\u0161ni muzej Vojvodine", "tourism": "museum"}}, "geometry": {"type": "Point", "coordinates": [19.8443302, 45.2539631]}}, {"type": "Feature", "properties": {"type": "node", "id": 2996604833, "tags": {"addr:city": "Novi Sad", "addr:country": "RS", "addr:housenumber": "1", "addr:postcode": "21000", "addr:street": "\u0412\u0430\u0441\u0435 \u0421\u0442\u0430\u0458\u0438\u045b\u0430", "survey:date": "2014-08-04", "tourism": "museum"}}, "geometry": {"type": "Point", "coordinates": [19.8452863, 45.2521695]}}, {"type": "Feature", "properties": {"type": "node", "id": 7417435798, "tags": {"museum": "history", "name": "\u041c\u0443\u0437\u0435\u0458 \u0413\u0440\u0430\u0434\u0430 \u041d\u043e\u0432\u043e\u0433 \u0421\u0430\u0434\u0430", "name:en": "Museum of Novi Sad City", "name:sr": "\u041c\u0443\u0437\u0435\u0458 \u0413\u0440\u0430\u0434\u0430 \u041d\u043e\u0432\u043e\u0433 \u0421\u0430\u0434\u0430", "name:sr-Latn": "Muzej Grada Novog Sada", "tourism": "museum"}}, "geometry": {"type": "Point", "coordinates": [19.8622054, 45.2524054]}}, {"type": "Feature", "properties": {"type": "node", "id": 6683341774, "tags": {"name": "\u041c\u0443\u0437\u0435\u0458 \u043c\u0430\u0433\u0438\u0458\u0435", "tourism": "museum"}}, "geometry": {"type": "Point", "coordinates": [19.957032, 45.1504761]}}, {"type": "Feature", "properties": {"type": "node", "id": 6683384230, "tags": {"name": "\u041c\u0443\u0437\u0435\u0458 \u043f\u0447\u0435\u043b\u0430\u0440\u0441\u0442\u0432\u0430", "name:sr": "\u041c\u0443\u0437\u0435\u0458 \u043f\u0447\u0435\u043b\u0430\u0440\u0441\u0442\u0432\u0430", "name:sr-Latn": "Muzej p\u010delarstva", "tourism": "museum"}}, "geometry": {"type": "Point", "coordinates": [19.9403919, 45.1990355]}}, {"type": "Feature", "properties": {"type": "node", "id": 3774771802, "tags": {"tourism": "museum"}}, "geometry": {"type": "Point", "coordinates": [19.640683, 45.5712177]}}, {"type": "Feature", "properties": {"type": "node", "id": 7139589631, "tags": {"addr:housenumber": "75\u0430", "addr:street": "\u041a\u0440\u0430\u0459\u0430 \u041f\u0435\u0442\u0440\u0430 I", "museum": "history", "name": "\u041c\u0443\u0437\u0435\u0458 \u0436\u0440\u0442\u0430\u0432\u0430 \u0440\u0430\u0446\u0438\u0458\u0435", "name:en": "Museum of the 1942 raid victims", "name:sr": "\u041c\u0443\u0437\u0435\u0458 \u0436\u0440\u0442\u0430\u0432\u0430 \u0440\u0430\u0446\u0438\u0458\u0435", "name:sr-Latn": "Muzej \u017ertava racije", "tourism": "museum"}}, "geometry": {"type": "Point", "coordinates": [20.0720029, 45.4726333]}}, {"type": "Feature", "properties": {"type": "node", "id": 3767580324, "tags": {"name": "\u0421\u043f\u043e\u043c\u0435\u043d \u041a\u0443\u045b\u0430 \u0422\u0430\u043d", "name:hu": "Th\u00e1n Eml\u00e9kh\u00e1z", "name:sr": "\u0421\u043f\u043e\u043c\u0435\u043d \u041a\u0443\u045b\u0430 \u0422\u0430\u043d", "name:sr-Latn": "Spomen Ku\u0107a Tan", "tourism": "museum"}}, "geometry": {"type": "Point", "coordinates": [20.0512332, 45.6147218]}}, {"type": "Feature", "properties": {"type": "node", "id": 3481852993, "tags": {"name": "\u0413\u0440\u0430\u0434\u0441\u043a\u0438 \u043c\u0443\u0437\u0435\u0458", "name:hu": "V\u00e1rosi m\u00fazeum", "name:sr": "\u0413\u0440\u0430\u0434\u0441\u043a\u0438 \u043c\u0443\u0437\u0435\u0458", "name:sr-Latn": "Gradski muzej", "tourism": "museum"}}, "geometry": {"type": "Point", "coordinates": [20.0447133, 45.6179054]}}, {"type": "Feature", "properties": {"type": "node", "id": 894103975, "tags": {"name": "\u041f\u0440\u0435\u043f\u0430\u0440\u0430\u043d\u0434\u0438\u0458\u0430", "name:sr": "\u041f\u0440\u0435\u043f\u0430\u0440\u0430\u043d\u0434\u0438\u0458\u0430", "name:sr-Latn": "Preparandija", "tourism": "museum"}}, "geometry": {"type": "Point", "coordinates": [19.1137528, 45.7746963]}}, {"type": "Feature", "properties": {"type": "node", "id": 1070303375, "tags": {"addr:city": "\u0411\u0430\u0447\u043a\u0430 \u0422\u043e\u043f\u043e\u043b\u0430", "addr:housenumber": "60", "addr:street": "\u041c\u0430\u0440\u0448\u0430\u043b\u0430 \u0422\u0438\u0442\u0430", "description": "\u041d\u0435\u043f\u043e\u043a\u0440\u0435\u0442\u043d\u043e \u043a\u0443\u043b\u0442\u0443\u0440\u043d\u043e \u0434\u043e\u0431\u0440\u043e \u0420\u0435\u043f\u0443\u0431\u043b\u0438\u043a\u0435 \u0421\u0440\u0431\u0438\u0458\u0435.", "name": "\u0413\u0440\u0430\u0434\u0441\u043a\u0438 \u043c\u0443\u0437\u0435\u0458 (\u041a\u0430\u0448\u0442\u0435\u043b \u041f\u0430\u043b\u0430 \u041a\u0440\u0430\u0438\u0430)", "name:sr": "\u0413\u0440\u0430\u0434\u0441\u043a\u0438 \u043c\u0443\u0437\u0435\u0458 (\u041a\u0430\u0448\u0442\u0435\u043b \u041f\u0430\u043b\u0430 \u041a\u0440\u0430\u0438\u0430)", "name:sr-Latn": "Gradski muzej", "tourism": "museum"}}, "geometry": {"type": "Point", "coordinates": [19.6298171, 45.8151525]}}, {"type": "Feature", "properties": {"type": "node", "id": 6654483786, "tags": {"name:hu": "Adahat\u00e1ri iskola", "tourism": "museum"}}, "geometry": {"type": "Point", "coordinates": [19.9653908, 45.8477121]}}, {"type": "Feature", "properties": {"type": "node", "id": 5614758824, "tags": {"addr:housenumber": "4", "addr:street": "\u0421\u0442\u0435\u0432\u0430\u043d\u0430 \u0421\u0440\u0435\u043c\u0446\u0430", "name": "\u0420\u043e\u0434\u043d\u0430 \u043a\u0443\u045b\u0430 \u0421\u0442\u0435\u0432\u0430\u043d\u0430 \u0421\u0440\u0435\u043c\u0446\u0430", "name:en": "Birth house of Stevan Sremac", "name:sr": "\u0420\u043e\u0434\u043d\u0430 \u043a\u0443\u045b\u0430 \u0421\u0442\u0435\u0432\u0430\u043d\u0430 \u0421\u0440\u0435\u043c\u0446\u0430", "name:sr-Latn": "Rodna ku\u0107a Stevana Sremca", "phone": "+381 (0)24 817 055", "tourism": "museum", "website": "http://www.stevansremac.org.rs"}}, "geometry": {"type": "Point", "coordinates": [20.0926546, 45.9310009]}}, {"type": "Feature", "properties": {"type": "node", "id": 1941577084, "tags": {"addr:city": "Vrnja\u010dka Banja", "addr:country": "RS", "addr:housenumber": "7", "addr:postcode": "36210", "addr:street": "\u0421\u0435\u0434\u043c\u043e\u0433 \u0458\u0443\u043b\u0430", "description": "\u0421\u043f\u043e\u043c\u0435\u043d\u0438\u043a \u043e\u0434 \u0432\u0435\u043b\u0438\u043a\u043e\u0433 \u0437\u043d\u0430\u0447\u0430\u0458\u0430", "description:en": "Monument of culture of great importance", "email": "zamuzej@ptt.rs", "fax": "+381 36 612144", "historic": "monument", "name": "\u0417\u0430\u043c\u0430\u043a \u0411\u0435\u043b\u0438\u043c\u0430\u0440\u043a\u043e\u0432\u0438\u045b", "name:de": "Chateau Belimarkovi\u0107", "name:en": "Chateau Belimarkovi\u0107", "name:fr": "Ch\u00e2teau Belimarkovi\u0107", "name:ru": "\u0428\u0430\u0442\u043e \u0411\u0435\u043b\u0438\u043c\u0430\u0440\u043a\u043e\u0432\u0438\u0447", "name:sr": "\u0417\u0430\u043c\u0430\u043a \u0411\u0435\u043b\u0438\u043c\u0430\u0440\u043a\u043e\u0432\u0438\u045b", "name:sr-Latn": "Zamak Belimarkovi\u0107", "phone": "+381 36 612144", "tourism": "museum", "website": "http://spomenicikulture.mi.sanu.ac.rs/spomenik.php?id=871"}}, "geometry": {"type": "Point", "coordinates": [20.8981164, 43.6183807]}}, {"type": "Feature", "properties": {"type": "node", "id": 5630943121, "tags": {"name": "Muzej banjskog le\u010denja", "name:en": "Museum of Spa Treatment", "tourism": "museum"}}, "geometry": {"type": "Point", "coordinates": [20.8929506, 43.618328]}}, {"type": "Feature", "properties": {"type": "node", "id": 4449852013, "tags": {"name": "\u041d\u0430\u0440\u043e\u0434\u043d\u0438 \u043c\u0443\u0437\u0435\u0458", "tourism": "museum", "website": "http://www.cacakmuzej.org.rs/"}}, "geometry": {"type": "Point", "coordinates": [20.3488188, 43.8931198]}}, {"type": "Feature", "properties": {"type": "node", "id": 5138653867, "tags": {"name": "\u041c\u0443\u0437\u0435\u0458 \u0414\u0440\u0443\u0433\u043e\u0433 \u0441\u0440\u043f\u0441\u043a\u043e\u0433 \u0443\u0441\u0442\u0430\u043d\u043a\u0430", "tourism": "museum"}}, "geometry": {"type": "Point", "coordinates": [20.3888704, 44.043852]}}, {"type": "Feature", "properties": {"type": "node", "id": 609875400, "tags": {"name": "\u041c\u0443\u0437\u0435\u0458 \u0440\u0443\u0434\u043d\u0438\u0447\u043a\u043e-\u0442\u0430\u043a\u043e\u0432\u0441\u043a\u043e\u0433 \u043a\u0440\u0430\u0458\u0430", "name:sr": "\u041c\u0443\u0437\u0435\u0458 \u0440\u0443\u0434\u043d\u0438\u0447\u043a\u043e-\u0442\u0430\u043a\u043e\u0432\u0441\u043a\u043e\u0433 \u043a\u0440\u0430\u0458\u0430", "name:sr-Latn": "Muzej rudni\u010dko-takovskog kraja", "tourism": "museum", "website": "http://www.muzejgm.org"}}, "geometry": {"type": "Point", "coordinates": [20.4618931, 44.0239844]}}, {"type": "Feature", "properties": {"type": "node", "id": 5854427069, "tags": {"name": "Zavi\u010dajni muzej \u017dupe", "tourism": "museum"}}, "geometry": {"type": "Point", "coordinates": [21.044547, 43.4589842]}}, {"type": "Feature", "properties": {"type": "node", "id": 5854427079, "tags": {"name": "Muzej vinarstva i vinogradarstva", "tourism": "museum"}}, "geometry": {"type": "Point", "coordinates": [21.0541892, 43.4562069]}}, {"type": "Feature", "properties": {"type": "node", "id": 4129850511, "tags": {"name": "\u041c\u0443\u0437\u0435\u0458 \u0432\u043e\u0448\u0442\u0430\u043d\u0438\u0445 \u0444\u0438\u0433\u0443\u0440\u0430 \u0408\u0430\u0433\u043e\u0434\u0438\u043d\u0430", "name:de": "Wachsfigurenkabinett Jagodina", "name:sr": "\u041c\u0443\u0437\u0435\u0458 \u0432\u043e\u0448\u0442\u0430\u043d\u0438\u0445 \u0444\u0438\u0433\u0443\u0440\u0430 \u0408\u0430\u0433\u043e\u0434\u0438\u043d\u0430", "name:sr-Latn": "Muzej vo\u0161tanih figura Jagodina", "tourism": "museum", "wikidata": "Q12755805", "wikipedia": "sr:\u041c\u0443\u0437\u0435\u0458 \u0432\u043e\u0448\u0442\u0430\u043d\u0438\u0445 \u0444\u0438\u0433\u0443\u0440\u0430 \u0408\u0430\u0433\u043e\u0434\u0438\u043d\u0430"}}, "geometry": {"type": "Point", "coordinates": [21.2653686, 43.9676181]}}, {"type": "Feature", "properties": {"type": "node", "id": 5876066590, "tags": {"name:en": "museum of naive art", "tourism": "museum"}}, "geometry": {"type": "Point", "coordinates": [21.2627592, 43.9818728]}}, {"type": "Feature", "properties": {"type": "node", "id": 6638707220, "tags": {"name": "\u041c\u0443\u0437\u0435\u0458 \u0440\u0443\u0434\u0430\u0440\u0441\u0442\u0432\u0430", "name:sr": "\u041c\u0443\u0437\u0435\u0458 \u0440\u0443\u0434\u0430\u0440\u0441\u0442\u0432\u0430", "name:sr-Latn": "Muzej rudarstva", "tourism": "museum"}}, "geometry": {"type": "Point", "coordinates": [21.5702339, 43.9935837]}}, {"type": "Feature", "properties": {"type": "node", "id": 4837224421, "tags": {"addr:street": "Ulica Zanatlijska", "name": "\u041f\u0435\u045b\u0438\u043d\u0430 \u0420\u0438\u0441\u043e\u0432\u0430\u0447\u0430", "name:sr": "\u041f\u0435\u045b\u0438\u043d\u0430 \u0420\u0438\u0441\u043e\u0432\u0430\u0447\u0430", "name:sr-Latn": "Pe\u0107ina Risova\u010da", "tourism": "museum"}}, "geometry": {"type": "Point", "coordinates": [20.5822377, 44.302879]}}, {"type": "Feature", "properties": {"type": "node", "id": 7562841104, "tags": {"heritage": "2", "heritage:operator": "rzzsk", "heritage:ref": "SK 128", "historic": "memorial", "inscription": "\u0408\u0430, \u0414\u0435\u0441\u043f\u043e\u0442 \u0421\u0442\u0435\u0444\u0430\u043d, \u0441\u0438\u043d \u0441\u0432\u0435\u0442\u043e\u0433\u0430 \u043a\u043d\u0435\u0437\u0430 \u041b\u0430\u0437\u0430\u0440\u0430 \u0438 \u043f\u043e \u043f\u0440\u0435\u0434\u0441\u0442\u0430\u0432\u0459\u0430\u045a\u0443 \u0442\u043e\u0433\u0430 \u043c\u0438\u043b\u043e\u0448\u045b\u0443 \u0411\u043e\u0436\u0458\u043e\u043c \u0431\u0438\u0445 \u0433\u043e\u0441\u043f\u043e\u0434\u0438\u043d \u0441\u0432\u0438\u043c \u0421\u0440\u0431\u0438\u043c\u0430 \u0438 \u041f\u043e\u0434\u0443\u043d\u0430\u0432\u0459\u0443 \u0438 \u041f\u043e\u0441\u0430\u0432\u0459\u0443 \u0438 \u0434\u0435\u043b\u0443 \u0443\u0433\u0430\u0440\u0441\u043a\u0435 \u0437\u0435\u043c\u0459\u0435 \u0438 \u0431\u043e\u0441\u0430\u043d\u0441\u043a\u0435 \u0430 \u0458\u043e\u0448 \u0438 \u041f\u0440\u0438\u043c\u043e\u0440\u0458\u0443 \u0437\u0435\u0442\u0441\u043a\u043e\u043c. \u0418 \u0443 \u0431\u043e\u0433\u043e\u0434\u0430\u043d\u043e\u0458 \u043c\u0438 \u0432\u043b\u0430\u0441\u0442\u0438 \u043f\u0440\u043e\u0432\u043e\u0434\u0438\u0445 \u0436\u0438\u0432\u043e\u0442\u0430 \u043c\u043e\u0458\u0435\u0433\u0430 \u0432\u0440\u0435\u043c\u0435 \u043a\u043e\u043b\u0438\u043a\u043e...", "material": "stone", "memorial": "stele", "name": "\u0421\u043f\u043e\u043c\u0435\u043d\u0438\u043a \u0434\u0435\u0441\u043f\u043e\u0442\u0443 \u0421\u0442\u0435\u0444\u0430\u043d\u0443 \u041b\u0430\u0437\u0430\u0440\u0435\u0432\u0438\u045b\u0443", "name:en": "Despot Stefan Lazarevi\u0107 Memorial", "name:sr": "\u0421\u043f\u043e\u043c\u0435\u043d\u0438\u043a \u0434\u0435\u0441\u043f\u043e\u0442\u0443 \u0421\u0442\u0435\u0444\u0430\u043d\u0443 \u041b\u0430\u0437\u0430\u0440\u0435\u0432\u0438\u045b\u0443", "name:sr-Latn": "Spomenik despotu Stefanu Lazarevi\u0107u", "wikidata": "Q3323264", "wikipedia": "sr:\u0421\u043f\u043e\u043c\u0435\u043d\u0438\u043a \u0434\u0435\u0441\u043f\u043e\u0442\u0443 \u0421\u0442\u0435\u0444\u0430\u043d\u0443 \u041b\u0430\u0437\u0430\u0440\u0435\u0432\u0438\u045b\u0443"}}, "geometry": {"type": "Point", "coordinates": [20.6441105, 44.3923193]}}, {"type": "Feature", "properties": {"type": "node", "id": 2515040428, "tags": {"tourism": "museum"}}, "geometry": {"type": "Point", "coordinates": [20.6954333, 44.4395647]}}, {"type": "Feature", "properties": {"type": "node", "id": 5864396187, "tags": {"addr:housenumber": "4", "addr:street": "\u0416\u0438\u043a\u0438\u0446\u0435 \u0408\u043e\u0432\u0430\u043d\u043e\u0432\u0438\u045b\u0430 \u0428\u043f\u0430\u043d\u0446\u0430", "email": "office@quburovich.rs", "name": "\u0414\u0435\u0441\u0442\u0438\u043b\u0435\u0440\u0438\u0458\u0430 \u0438 \u043c\u0443\u0437\u0435\u0458 \u0440\u0430\u043a\u0438\u0458\u0435 \u0411\u043e\u0458\u043a\u043e\u0432\u0447\u0430\u043d\u043a\u0430", "name:en": "Serbian plum brandy museum", "phone": "+381 63 586 333", "tourism": "museum", "website": "http://www.quburovich.rs"}}, "geometry": {"type": "Point", "coordinates": [20.5412417, 44.6752292]}}, {"type": "Feature", "properties": {"type": "node", "id": 6061159464, "tags": {"addr:housenumber": "156", "addr:street": "\u0411\u043b\u0430\u0433\u043e\u0458\u0430 \u041f\u0430\u0440\u043e\u0432\u0438\u045b\u0430", "name": "\u041c\u0443\u0437\u0435\u0458 \u0441\u043f\u043e\u0440\u0442\u0430 \u0438 \u043e\u043b\u0438\u043c\u043f\u0438\u0437\u043c\u0430", "name:en": "Muzej sporta i olimpizma", "name:sr": "\u041c\u0443\u0437\u0435\u0458 \u0441\u043f\u043e\u0440\u0442\u0430 \u0438 \u043e\u043b\u0438\u043c\u043f\u0438\u0437\u043c\u0430", "name:sr-Latn": "Muzej sporta i olimpizma", "operator": "\u0424\u0430\u043a\u0443\u043b\u0442\u0435\u0442 \u0441\u043f\u043e\u0440\u0442\u0430 \u0438 \u0444\u0438\u0437\u0438\u0447\u043a\u043e\u0433 \u0432\u0430\u0441\u043f\u0438\u0442\u0430\u045a\u0430", "tourism": "museum"}}, "geometry": {"type": "Point", "coordinates": [20.4280657, 44.7635307]}}, {"type": "Feature", "properties": {"type": "node", "id": 4605693889, "tags": {"name": "\u0420\u043e\u0434\u043d\u0430 \u043a\u0443\u045b\u0430 \u0432\u043e\u0458\u0432\u043e\u0434\u0435 \u0421\u0442\u0435\u043f\u0435 \u0421\u0442\u0435\u043f\u0430\u043d\u043e\u0432\u0438\u045b\u0430", "name:en": "Birth house of General Stepa Stepanovi\u0107", "name:sr": "\u0420\u043e\u0434\u043d\u0430 \u043a\u0443\u045b\u0430 \u0432\u043e\u0458\u0432\u043e\u0434\u0435 \u0421\u0442\u0435\u043f\u0435 \u0421\u0442\u0435\u043f\u0430\u043d\u043e\u0432\u0438\u045b\u0430", "name:sr-Latn": "Rodna ku\u0107a vojvode Stepe Stepanovi\u0107a", "tourism": "museum"}}, "geometry": {"type": "Point", "coordinates": [20.5184476, 44.7418148]}}, {"type": "Feature", "properties": {"type": "node", "id": 1790035859, "tags": {"ele": "127.6", "tourism": "museum"}}, "geometry": {"type": "Point", "coordinates": [20.4162986, 44.791458]}}, {"type": "Feature", "properties": {"type": "node", "id": 6923446719, "tags": {"addr:housenumber": "2", "addr:street": "\u0411\u0440\u0437\u0430\u043a\u043e\u0432\u0430", "name": "\u0412\u0435\u0441\u043f\u0430 \u043c\u0443\u0437\u0435\u0458 \u0421\u0440\u0431\u0438\u0458\u0430", "name:en": "Vespa Museum Serbia", "name:sr": "\u0412\u0435\u0441\u043f\u0430 \u043c\u0443\u0437\u0435\u0458 \u0421\u0440\u0431\u0438\u0458\u0430", "name:sr-Latn": "Vespa muzej Srbija", "tourism": "museum", "website": "http://vespamuzejsrbija.rs/"}}, "geometry": {"type": "Point", "coordinates": [20.4349016, 44.79186]}}, {"type": "Feature", "properties": {"type": "node", "id": 1970813761, "tags": {"addr:street": "\u041d\u0435\u043c\u0430\u045a\u0438\u043d\u0430", "email": "muzej@srbrail.rs", "museum": "railway", "name": "\u0416\u0435\u043b\u0435\u0437\u043d\u0438\u0447\u043a\u0438 \u043c\u0443\u0437\u0435\u0458", "name:en": "Railway Museum", "name:pl": "Muzeum Kolejnictwa", "name:sr": "\u0416\u0435\u043b\u0435\u0437\u043d\u0438\u0447\u043a\u0438 \u043c\u0443\u0437\u0435\u0458", "name:sr-Latn": "\u017delezni\u010dki muzej", "name:tr": "Demiryolu M\u00fczesi", "opening_hours": "Mo-Fr 09:00-15:00; Sa-Su off", "phone": "+381 11 3610334", "subject": "railway", "tourism": "museum", "website": "http://www.zeleznicesrbije.com/zeleznicki-muzej/", "wikidata": "Q304972", "wikipedia": "sr:\u0416\u0435\u043b\u0435\u0437\u043d\u0438\u0447\u043a\u0438 \u043c\u0443\u0437\u0435\u0458 \u0421\u0440\u0431\u0438\u0458\u0435"}}, "geometry": {"type": "Point", "coordinates": [20.4580603, 44.8058823]}}, {"type": "Feature", "properties": {"type": "node", "id": 3964096674, "tags": {"addr:housenumber": "8", "addr:street": "\u0410\u043d\u0434\u0440\u0438\u045b\u0435\u0432 \u0432\u0435\u043d\u0430\u0446", "name": "\u041c\u0443\u0437\u0435\u0458 \u0418\u0432\u0435 \u0410\u043d\u0434\u0440\u0438\u045b\u0430", "name:en": "Ivo Andric Museum", "name:pl": "Muzeum Ivo Andrica", "name:sr": "\u041c\u0443\u0437\u0435\u0458 \u0418\u0432\u0435 \u0410\u043d\u0434\u0440\u0438\u045b\u0430", "name:sr-Latn": "Muzej Ive Andri\u0107a", "name:tr": "Ivo Andri\u0107 M\u00fczesi", "tourism": "museum", "wikidata": "Q4306134", "wikipedia": "sr:\u0421\u043f\u043e\u043c\u0435\u043d-\u043c\u0443\u0437\u0435\u0458 \u0418\u0432\u0435 \u0410\u043d\u0434\u0440\u0438\u045b\u0430"}}, "geometry": {"type": "Point", "coordinates": [20.46367, 44.8096066]}}, {"type": "Feature", "properties": {"type": "node", "id": 3964539357, "tags": {"addr:housenumber": "21", "addr:street": "\u041a\u0440\u0430\u0459\u0430 \u041c\u0438\u043b\u0430\u043d\u0430", "name": "\u041c\u0443\u0437\u0435\u0458 \u041f\u0430\u0458\u0435 \u0408\u043e\u0432\u0430\u043d\u043e\u0432\u0438\u045b\u0430", "name:en": "Muzej Paje Jovanovi\u0107a", "name:sr": "\u041c\u0443\u0437\u0435\u0458 \u041f\u0430\u0458\u0435 \u0408\u043e\u0432\u0430\u043d\u043e\u0432\u0438\u045b\u0430", "name:sr-Latn": "Muzej Paje Jovanovi\u0107a", "tourism": "museum", "wikidata": "Q60748718", "wikipedia": "sr:\u041c\u0443\u0437\u0435\u0458 \u041f\u0430\u0458\u0435 \u0408\u043e\u0432\u0430\u043d\u043e\u0432\u0438\u045b\u0430"}}, "geometry": {"type": "Point", "coordinates": [20.464309, 44.8074699]}}, {"type": "Feature", "properties": {"type": "node", "id": 635725488, "tags": {"name": "\u0418\u0441\u0442\u043e\u0440\u0438\u0458\u0441\u043a\u0438 \u043c\u0443\u0437\u0435\u0458 \u0421\u0440\u0431\u0438\u0458\u0435", "name:en": "Historical Museum of Serbia", "name:pl": "Muzeum Historyczne", "name:sr": "\u0418\u0441\u0442\u043e\u0440\u0438\u0458\u0441\u043a\u0438 \u043c\u0443\u0437\u0435\u0458 \u0421\u0440\u0431\u0438\u0458\u0435", "name:sr-Latn": "Istorijski muzej Srbije", "name:tr": "S\u0131rbistan Tarihi M\u00fczesi", "opening_hours": "Tu-Su 12:00-20:00", "tourism": "museum", "wikidata": "Q12752424", "wikipedia": "sr:\u0418\u0441\u0442\u043e\u0440\u0438\u0458\u0441\u043a\u0438 \u043c\u0443\u0437\u0435\u0458 \u0421\u0440\u0431\u0438\u0458\u0435"}}, "geometry": {"type": "Point", "coordinates": [20.4637208, 44.8124886]}}, {"type": "Feature", "properties": {"type": "node", "id": 6060747673, "tags": {"addr:housenumber": "11", "addr:street": "\u041a\u043e\u0441\u043e\u0432\u0441\u043a\u0430", "name": "\u041c\u0443\u0437\u0435\u0458 \u0408\u0443\u0433\u043e\u0441\u043b\u043e\u0432\u0435\u043d\u0441\u043a\u0435 \u043a\u0438\u043d\u043e\u0442\u0435\u043a\u0435", "name:sr": "\u041c\u0443\u0437\u0435\u0458 \u0408\u0443\u0433\u043e\u0441\u043b\u043e\u0432\u0435\u043d\u0441\u043a\u0435 \u043a\u0438\u043d\u043e\u0442\u0435\u043a\u0435", "name:sr-Latn": "Muzej Jugoslovenske kinoteke", "tourism": "museum"}}, "geometry": {"type": "Point", "coordinates": [20.4639922, 44.8139999]}}, {"type": "Feature", "properties": {"type": "node", "id": 5118266792, "tags": {"addr:housenumber": "13", "addr:street": "\u041c\u0430\u0458\u043a\u0435 \u0408\u0435\u0432\u0440\u043e\u0441\u0438\u043c\u0435", "email": "pttmuzej@ptt.rs", "name": "\u041f\u0422\u0422 \u043c\u0443\u0437\u0435\u0458", "name:en": "PTT Museum", "name:sr": "\u041f\u0422\u0422 \u043c\u0443\u0437\u0435\u0458", "name:sr-Latn": "PTT muzej", "opening_hours": "Mo-Fr 10:00-15:00; Sa[1] 11:00-19:00; Su off", "phone": "+381 11 3064171", "start_date": "1923-7-31", "tourism": "museum", "website": "http://www.pttmuzej.rs/default.asp", "wheelchair": "yes"}}, "geometry": {"type": "Point", "coordinates": [20.468044, 44.8125849]}}, {"type": "Feature", "properties": {"type": "node", "id": 6432984189, "tags": {"addr:housenumber": "19", "addr:street": "\u040f\u043e\u0440\u045f\u0430 \u0412\u0430\u0448\u0438\u043d\u0433\u0442\u043e\u043d\u0430", "email": "jelena.simic@muzejnt.rs", "name": "\u041c\u0443\u0437\u0435\u0458 \u0421\u0440\u043f\u0441\u043a\u043e\u0433 \u043b\u0435\u043a\u0430\u0440\u0441\u043a\u043e\u0433 \u0434\u0440\u0443\u0448\u0442\u0432\u0430", "name:en": "Serbian Medical Society Museum", "name:sr": "\u041c\u0443\u0437\u0435\u0458 \u0421\u0440\u043f\u0441\u043a\u043e\u0433 \u043b\u0435\u043a\u0430\u0440\u0441\u043a\u043e\u0433 \u0434\u0440\u0443\u0448\u0442\u0432\u0430", "name:sr-Latn": "Muzej Srpskog lekarskog dru\u0161tva", "opening_hours": "Mo off; Tu-Su 10:00-20:00", "phone": "+381 11 3037961", "tourism": "museum", "website": "http://www.sld.org.rs/sr/o-nama/muzej/"}}, "geometry": {"type": "Point", "coordinates": [20.4702008, 44.8163257]}}, {"type": "Feature", "properties": {"type": "node", "id": 8231580066, "tags": {"addr:city": "\u0411\u0435\u043e\u0433\u0440\u0430\u0434", "addr:housenumber": "23", "addr:postcode": "11000", "addr:street": "\u0425\u0430\u045f\u0438 \u0402\u0435\u0440\u0438\u043d\u0430", "contact:facebook": "https://www.facebook.com/malakoloskimuzej.rs/", "contact:instagram": "https://www.instagram.com/malakoloski_muzej/", "email": "info@malakoloskimuzej.rs", "museum": "maritime", "name": "Malakolo\u0161ki muzej", "opening_hours": "Mo-Fr 11:00-15:00, 18:00-20:00; Sa-Su 17:00-20:00", "phone": "+381 62 1983337", "tourism": "museum", "website": "https://malakoloskimuzej.rs/"}}, "geometry": {"type": "Point", "coordinates": [20.4771392, 44.8039196]}}, {"type": "Feature", "properties": {"type": "node", "id": 486285899, "tags": {"name": "\u041a\u0430\u043b\u0435\u043c\u0435\u0433\u0434\u0430\u043d\u0441\u043a\u0438 \u043c\u0443\u0437\u0435\u0458", "name:de": "Museum von Kalemegdan", "name:en": "Museum of Kalemegdan", "name:sr": "\u041a\u0430\u043b\u0435\u043c\u0435\u0433\u0434\u0430\u043d\u0441\u043a\u0438 \u043c\u0443\u0437\u0435\u0458", "name:sr-Latn": "Kalemegdanski muzej", "tourism": "museum"}}, "geometry": {"type": "Point", "coordinates": [20.4505592, 44.8231401]}}, {"type": "Feature", "properties": {"type": "node", "id": 503878193, "tags": {"depth": "51 m", "name": "\u0420\u0438\u043c\u0441\u043a\u0438 \u0431\u0443\u043d\u0430\u0440", "name:de": "R\u00f6mischer Brunnen", "name:en": "Roman Well", "name:ru": "\u0420\u0438\u043c\u0441\u043a\u0438\u0439 \u043a\u043e\u043b\u043e\u0434\u0435\u0446", "name:sr": "\u0420\u0438\u043c\u0441\u043a\u0438 \u0431\u0443\u043d\u0430\u0440", "name:sr-Latn": "Rimski bunar", "tourism": "museum"}}, "geometry": {"type": "Point", "coordinates": [20.4481429, 44.8230784]}}, {"type": "Feature", "properties": {"type": "node", "id": 4984279821, "tags": {"name": "\u041c\u0443\u0437\u0435\u0458 \u0426\u0435\u043f\u0442\u0435\u0440", "name:en": "Zepter Museum", "name:sr": "\u041c\u0443\u0437\u0435\u0458 \u0426\u0435\u043f\u0442\u0435\u0440", "name:sr-Latn": "Muzej Cepter", "name:tr": "Zepter M\u00fczesi", "tourism": "museum", "website": "http://zeptermuseum.rs"}}, "geometry": {"type": "Point", "coordinates": [20.4558485, 44.8186121]}}, {"type": "Feature", "properties": {"type": "node", "id": 6641661388, "tags": {"addr:housenumber": "71a", "addr:street": "\u041a\u0440\u0430\u0459\u0430 \u041f\u0435\u0442\u0440\u0430", "email": "jevrejskimuzej.beograd@gmail.com; jevrejskimuzej@savezjos.org", "name": "\u0408\u0435\u0432\u0440\u0435\u0458\u0441\u043a\u0438 \u0438\u0441\u0442\u043e\u0440\u0438\u0458\u0441\u043a\u0438 \u043c\u0443\u0437\u0435\u0458", "name:en": "Jewish Historical Museum", "name:sr": "\u0408\u0435\u0432\u0440\u0435\u0458\u0441\u043a\u0438 \u0438\u0441\u0442\u043e\u0440\u0438\u0458\u0441\u043a\u0438 \u043c\u0443\u0437\u0435\u0458", "name:sr-Latn": "Jevrejski istorijski muzej", "opening_hours": "Mo-Fr 08:30-15:30; Sa-Su off", "phone": "+381 11 2622634; +381 11 2910327", "tourism": "museum", "website": "http://www.jimbeograd.org/", "wikidata": "Q3330608", "wikipedia": "sr:\u0408\u0435\u0432\u0440\u0435\u0458\u0441\u043a\u0438 \u0438\u0441\u0442\u043e\u0440\u0438\u0458\u0441\u043a\u0438 \u043c\u0443\u0437\u0435\u0458"}}, "geometry": {"type": "Point", "coordinates": [20.4571225, 44.8215849]}}, {"type": "Feature", "properties": {"type": "node", "id": 7227511386, "tags": {"addr:housenumber": "18", "addr:street": "\u041f\u0458\u0430\u0440\u043e\u043d\u0430 \u0434\u0435 \u041c\u043e\u043d\u0434\u0435\u0437\u0438\u0440\u0430", "email": "muzejcokoladesrbija@gmail.com", "name": "\u041c\u0443\u0437\u0435\u0458 \u0447\u043e\u043a\u043e\u043b\u0430\u0434\u0435", "name:en": "Chocolate Museum", "name:sr": "\u041c\u0443\u0437\u0435\u0458 \u0447\u043e\u043a\u043e\u043b\u0430\u0434\u0435", "name:sr-Latn": "Muzej \u010dokolade", "opening_hours": "Mo off; Tu-Su 10:00-22:00", "phone": "+381 64 8977581", "tourism": "museum", "website": "https://muzejcokoladebeograd.rs/"}}, "geometry": {"type": "Point", "coordinates": [20.4556175, 44.8223731]}}, {"type": "Feature", "properties": {"type": "node", "id": 7708252295, "tags": {"name": "\u0426\u0435\u043d\u0442\u0430\u0440 \u0437\u0430 \u043a\u0443\u043b\u0442\u0443\u0440\u0443 \u0413\u0440\u043e\u0446\u043a\u0430 - \u0420\u0430\u043d\u0447\u0438\u045b\u0435\u0432\u0430 \u043a\u0443\u045b\u0430", "name:en": "Grocka culture center - Ran\u010di\u0107's house", "tourism": "museum"}}, "geometry": {"type": "Point", "coordinates": [20.7183082, 44.6743224]}}, {"type": "Feature", "properties": {"type": "node", "id": 6472762646, "tags": {"name": "\u041f\u0438\u0432\u0430\u0440\u0430 \u0412\u0430\u0458\u0444\u0435\u0440\u0442", "name:en": "Weifert Brewery", "name:sr": "\u041f\u0438\u0432\u0430\u0440\u0430 \u0412\u0430\u0458\u0444\u0435\u0440\u0442", "name:sr-Latn": "Pivara Vajfert", "tourism": "museum", "wikidata": "Q61130705", "wikipedia": "sr:\u041f\u0438\u0432\u0430\u0440\u0430 \u041f\u0430\u043d\u0447\u0435\u0432\u043e"}}, "geometry": {"type": "Point", "coordinates": [20.6397245, 44.8687026]}}, {"type": "Feature", "properties": {"type": "node", "id": 5923921360, "tags": {"name": "Kuca Stevana Sindjelica", "tourism": "museum"}}, "geometry": {"type": "Point", "coordinates": [21.2444418, 44.1990849]}}, {"type": "Feature", "properties": {"type": "node", "id": 2307010827, "tags": {"addr:housenumber": "14", "addr:postcode": "18000", "addr:street": "generala Milojka Le\u0161janina", "name": "\u041d\u0430\u0440\u043e\u0434\u043d\u0438 \u043c\u0443\u0437\u0435\u0458", "name:en": "Archaeological Hall", "name:es": "Museo Arqueol\u00f3gico", "name:sr": "\u041d\u0430\u0440\u043e\u0434\u043d\u0438 \u043c\u0443\u0437\u0435\u0458", "name:sr-Latn": "Narodni muzej", "opening_hours": "Th-Fr 10:00-19:00; Sa-Su 10:00-15:00", "tourism": "museum", "website": "http://www.narodnimuzejnis.rs"}}, "geometry": {"type": "Point", "coordinates": [21.8933199, 43.3183713]}}, {"type": "Feature", "properties": {"type": "node", "id": 4315587201, "tags": {"name": "Digital museum", "name:bg": "\u0414\u0438\u0433\u0438\u0442\u0430\u043b\u0435\u043d \u043c\u0443\u0437\u0435\u0439", "tourism": "museum"}}, "geometry": {"type": "Point", "coordinates": [21.8954174, 43.3238083]}}, {"type": "Feature", "properties": {"type": "node", "id": 5092595754, "tags": {"addr:city": "Knja\u017eevac", "addr:housenumber": "19", "addr:postcode": "19350", "addr:street": "Njego\u0161eva", "name": "Kuca Ace Stanojevi\u0107a", "tourism": "museum"}}, "geometry": {"type": "Point", "coordinates": [22.2542974, 43.5649167]}}, {"type": "Feature", "properties": {"type": "node", "id": 4972115996, "tags": {"name": "Arheo-etno park Ravna", "tourism": "museum"}}, "geometry": {"type": "Point", "coordinates": [22.2603187, 43.6385327]}}, {"type": "Feature", "properties": {"type": "node", "id": 6967861244, "tags": {"heritage": "2", "heritage:operator": "rzzsk", "historic": "archaeological_site", "historic:civilization": "prehistoric", "historic:era": "mesolithic", "name": "\u041b\u0435\u043f\u0435\u043d\u0441\u043a\u0438 \u0412\u0438\u0440", "name:en": "Lepenski Vir", "name:sr": "\u041b\u0435\u043f\u0435\u043d\u0441\u043a\u0438 \u0412\u0438\u0440", "name:sr-Latn": "Lepenski Vir", "ref:sr:rzzsk": "AN 45", "site_type": "settlement", "tourism": "attraction", "website": "http://www.virtuelnimuzejdunava.rs/serbia/cultural-heritage/archaeological-map-of-the-danube/lepenski-vir.lepenski-vir.350.html", "wikidata": "Q906669", "wikipedia": "sr:\u041b\u0435\u043f\u0435\u043d\u0441\u043a\u0438 \u0412\u0438\u0440"}}, "geometry": {"type": "Point", "coordinates": [22.0264131, 44.5568328]}}, {"type": "Feature", "properties": {"type": "node", "id": 5929566085, "tags": {"addr:city": "Kladovo", "email": "pr@narodnimuzej.rs", "name": "\u0410\u0440\u0445\u0435\u043e\u043b\u043e\u0448\u043a\u0438 \u043c\u0443\u0437\u0435\u0458 \u0402\u0435\u0440\u0434\u0430\u043f\u0430", "name:de": "Arch\u00e4ologisches Museum Djerdap", "phone": "+381 11 33 06 000", "tourism": "museum", "website": "http://www.narodnimuzej.rs"}}, "geometry": {"type": "Point", "coordinates": [22.6091825, 44.6123376]}}, {"type": "Feature", "properties": {"type": "node", "id": 859539092, "tags": {"addr:city": "\u041d\u043e\u0432\u0438 \u0411\u0430\u043d\u043e\u0432\u0446\u0438", "addr:postcode": "22304", "addr:street": "\u0417\u0435\u043c\u0443\u043d\u0441\u043a\u0430", "email": "muzejmacura@gmail.com", "name": "Muzej Macura", "name:sr": "\u041c\u0443\u0437\u0435\u0458 \u041c\u0430\u0446\u0443\u0440\u0430", "name:sr-Latn": "Muzej Macura", "phone": "+381 63 4729629", "tourism": "museum", "website": "http://www.muzejmacura.com"}}, "geometry": {"type": "Point", "coordinates": [20.2979121, 44.939038]}}, {"type": "Feature", "properties": {"type": "node", "id": 5028919671, "tags": {"addr:city": "\u0421\u0442\u0430\u0440\u0438 \u0411\u0430\u043d\u043e\u0432\u0446\u0438", "addr:housenumber": "62", "addr:postcode": "22305", "addr:street": "\u0413\u0440\u0447\u043a\u0430", "name": "Muzej \"Zenit 4\"", "tourism": "museum"}}, "geometry": {"type": "Point", "coordinates": [20.2880849, 44.9874477]}}, {"type": "Feature", "properties": {"type": "node", "id": 1824370208, "tags": {"heritage": "2", "heritage:operator": "rzzsk", "historic": "monument", "name": "\u0411\u0438\u0442\u043a\u0430 \u043a\u043e\u0434 \u0421\u043b\u0430\u043d\u043a\u0430\u043c\u0435\u043d\u0430", "name:de": "Schlacht bei Slankamen", "name:en": "Battle of Slankamen", "name:pl": "Bitwa pod Slankamenem", "name:ru": "\u0411\u0438\u0442\u0432\u0430 \u043f\u0440\u0438 \u0421\u043b\u0430\u043d\u043a\u0430\u043c\u0435\u043d\u0435", "name:sr": "\u0411\u0438\u0442\u043a\u0430 \u043a\u043e\u0434 \u0421\u043b\u0430\u043d\u043a\u0430\u043c\u0435\u043d\u0430", "name:sr-Latn": "Bitka kod Slankamena", "ref:sr:rzzsk": "ZM 27", "wikidata": "Q690481", "wikipedia": "sr:\u0411\u0438\u0442\u043a\u0430 \u043a\u043e\u0434 \u0421\u043b\u0430\u043d\u043a\u0430\u043c\u0435\u043d\u0430"}}, "geometry": {"type": "Point", "coordinates": [20.2368419, 45.1470989]}}, {"type": "Feature", "properties": {"type": "node", "id": 7600197795, "tags": {"name": "narodni muzej", "name:en": "people museum", "tourism": "museum"}}, "geometry": {"type": "Point", "coordinates": [20.3897999, 45.3796751]}}, {"type": "Feature", "properties": {"type": "node", "id": 3497012698, "tags": {"addr:city": "Novo Milo\u0161evo", "addr:postcode": "23273", "addr:street": "Mar\u0161ala Tita", "name": "\u017ditni magacin", "tourism": "museum"}}, "geometry": {"type": "Point", "coordinates": [20.297163, 45.7077802]}}, {"type": "Feature", "properties": {"type": "node", "id": 3497014248, "tags": {"addr:city": "Novo Milo\u0161evo", "addr:postcode": "23273", "addr:street": "Mar\u0161ala Tita", "name": "Muzej \"Kotarka\"", "tourism": "museum"}}, "geometry": {"type": "Point", "coordinates": [20.297775, 45.7076178]}}, {"type": "Feature", "properties": {"type": "node", "id": 3497021540, "tags": {"addr:city": "Novo Milo\u0161evo", "addr:housenumber": "56", "addr:postcode": "23273", "addr:street": "Arkadija Popova", "name": "\u041c\u0443\u0437\u0435\u0458 \u0441\u0442\u0430\u0440\u0438\u0445 \u043c\u0430\u0448\u0438\u043d\u0430 \"\u0416\u0435\u0440\u0430\u0432\u0438\u0446\u0430\"", "name:sr": "\u041c\u0443\u0437\u0435\u0458 \u0441\u0442\u0430\u0440\u0438\u0445 \u043c\u0430\u0448\u0438\u043d\u0430 \"\u0416\u0435\u0440\u0430\u0432\u0438\u0446\u0430\"", "name:sr-Latn": "Muzej starih ma\u0161ina \"\u017deravica\"", "opening_hours": "Radno vreme je od 8 do 16 \u010dasova.", "phone": "+381 (0)23 781 909", "tourism": "museum"}}, "geometry": {"type": "Point", "coordinates": [20.3054879, 45.7287147]}}, {"type": "Feature", "properties": {"type": "node", "id": 5301703522, "tags": {"addr:postcode": "23300", "addr:street": "\u0421\u0442\u0435\u0432\u0430\u043d\u0430 \u0421\u0440\u0435\u043c\u0446\u0430", "name": "Muzej Terra", "name:en": "Terra Museum", "opening_hours": "Tu-Sa 09:00-17:00", "tourism": "museum"}}, "geometry": {"type": "Point", "coordinates": [20.4881095, 45.829708]}}, {"type": "Feature", "properties": {"type": "way", "id": 380310275, "tags": {"addr:city": "Gjakov\u00eb", "addr:postcode": "50000", "building": "yes", "building:levels": "2", "building:material": "brick", "building:roof": "tiles", "name": "Muzeu i muzikes - Taphanja", "source": "Ortophoto image", "tourism": "museum"}}, "geometry": {"type": "Point", "coordinates": [20.4294246, 42.3775915]}}, {"type": "Feature", "properties": {"type": "way", "id": 473814368, "tags": {"building": "yes", "name": "Muzeu i Elektroekonomis\u00eb (Hidroelektrana)", "tourism": "museum", "website": "https://dtk.rks-gov.net/tkk_objekti.aspx?id=4591"}}, "geometry": {"type": "Point", "coordinates": [20.7619208, 42.2016538]}}, {"type": "Feature", "properties": {"type": "way", "id": 223660159, "tags": {"addr:city": "Prizren", "addr:postcode": "20000", "amenity": "place_of_worship", "building": "church", "denomination": "orthodox", "description": "Monument of culture of exceptional importance. UNESCO world heritage site since 2006.", "heritage": "1", "heritage:operator": "whc", "heritage:website": "http://whc.unesco.org/en/list/724/", "historic": "yes", "name": "Kisha e Sh\u00ebn Premt\u00ebs", "name:de": "Kirche der Heiligen Jungfrau", "name:en": "Our Lady of Ljevi\u0161", "name:pl": "Cerkiew Bogurodzicy Ljevi\u0161kiej", "name:sq": "Kisha e Sh\u00ebn Premt\u00ebs", "name:sr": "Bogorodica Ljevi\u0161ka", "ref:whc": "724-003bis", "religion": "christian", "whc:inscription_date": "2006", "wikidata": "Q890652", "wikipedia": "en:Our Lady of Ljevi\u0161"}}, "geometry": {"type": "Point", "coordinates": [20.7359192, 42.2115845]}}, {"type": "Feature", "properties": {"type": "way", "id": 489644517, "tags": {"building": "yes", "name": "Muzeu Etnologjik i Prizrenit", "tourism": "museum"}}, "geometry": {"type": "Point", "coordinates": [20.7392691, 42.2115319]}}, {"type": "Feature", "properties": {"type": "way", "id": 875550033, "tags": {"building": "yes", "tourism": "museum"}}, "geometry": {"type": "Point", "coordinates": [20.7366783, 42.2113021]}}, {"type": "Feature", "properties": {"type": "way", "id": 173070741, "tags": {"barrier": "wall", "name": "Lidhja Shqiptare e Prizrenit - 10 Qershor 1878", "name:de": "Albanische Liga von Prizren - 18. Juni 1878", "name:en": "Albanian League of Prizren - 10th June 1878", "name:sr-Latn": "Prizrenska Liga - 10. jun 1878", "name:tr": "Prizren Arnavut Birli\u011fi - 10 Haziran 1878", "tourism": "museum", "tourism_1": "attraction"}}, "geometry": {"type": "Point", "coordinates": [20.743565, 42.2114813]}}, {"type": "Feature", "properties": {"type": "way", "id": 432380499, "tags": {"building": "yes", "museum": "history", "name": "Lidhja e Prizrenit", "tourism": "museum"}}, "geometry": {"type": "Point", "coordinates": [20.7437622, 42.2114548]}}, {"type": "Feature", "properties": {"type": "way", "id": 466471422, "tags": {"addr:city": "Prizren", "building": "yes", "museum": "history", "name": "Muzeu i Kalaj\u00ebs", "name:de": "Museum der Festung von Prizren", "name:en": "Museum of the Fortress of Prizren", "name:pl": "Twierdza Prizren", "tourism": "museum"}}, "geometry": {"type": "Point", "coordinates": [20.7454515, 42.2092849]}}, {"type": "Feature", "properties": {"type": "way", "id": 911600155, "tags": {"building": "yes", "museum": "history", "name": "Bllaca 99", "tourism": "museum"}}, "geometry": {"type": "Point", "coordinates": [21.3027735, 42.1378776]}}, {"type": "Feature", "properties": {"type": "way", "id": 723726949, "tags": {"building": "yes", "tourism": "museum"}}, "geometry": {"type": "Point", "coordinates": [21.3422411, 42.3632764]}}, {"type": "Feature", "properties": {"type": "way", "id": 760904648, "tags": {"amenity": "monastery", "area": "yes", "denomination": "serbian_orthodox", "heritage": "1", "heritage:operator": "whc", "name": "Manastir Visoki De\u010dani", "name:bg": "\u041c\u0430\u043d\u0430\u0441\u0442\u0438\u0440\u044a\u0442 \u0412\u0438\u0441\u043e\u043a\u0438 \u0414\u0435\u0447\u0430\u043d\u0438", "name:el": "\u039c\u03bf\u03bd\u03ae \u0392\u03b9\u03c3\u03cc\u03ba\u03b9 \u039d\u03c4\u03ad\u03c4\u03c3\u03b1\u03bd\u03b9", "name:hu": "Visoki De\u010dani kolostor", "name:ro": "M\u0103n\u0103stirea de la Visoki De\u010dani", "name:ru": "\u041c\u043e\u043d\u0430\u0441\u0442\u044b\u0440\u044c \u0412\u044b\u0441\u043e\u043a\u0438\u0435 \u0414\u0435\u0447\u0430\u043d\u044b", "name:sq": "Manastiri i De\u00e7anit", "name:sr": "\u041c\u0430\u043d\u0430\u0441\u0442\u0438\u0440 \u0412\u0438\u0441\u043e\u043a\u0438 \u0414\u0435\u0447\u0430\u043d\u0438", "note": "\u0421\u0440\u043f\u0441\u043a\u043e \u043a\u0443\u043b\u0442\u0443\u0440\u043d\u043e \u043d\u0430\u0441\u043b\u0435\u0452\u0435 Serbian cultural heritage", "ref:whc": "724-001", "religion": "christian", "website": "https://en.m.wikipedia.org/wiki/Visoki_De%C4%8Dani", "wikidata": "Q849517"}}, "geometry": {"type": "Point", "coordinates": [20.2691648, 42.5464249]}}, {"type": "Feature", "properties": {"type": "way", "id": 222092359, "tags": {"addr:city": "Gjakova", "addr:postcode": "50000", "addr:street": "Ismail Qemali", "building": "yes", "name": "Kulla e Avdullah Pashe Drenit", "tourism": "museum"}}, "geometry": {"type": "Point", "coordinates": [20.4277624, 42.3831596]}}, {"type": "Feature", "properties": {"type": "way", "id": 275466162, "tags": {"addr:city": "Gjakov\u00eb", "addr:postcode": "50000", "addr:street": "N\u00ebn\u00eb Tereza", "building": "yes", "name": "Muzeu Etnografik", "name:pl": "Muzeum Etnograficzne", "tourism": "museum", "url": "https://dtk.rks-gov.net/tkk_objekti_en.aspx?id=3207"}}, "geometry": {"type": "Point", "coordinates": [20.4305838, 42.3794709]}}, {"type": "Feature", "properties": {"type": "way", "id": 223825034, "tags": {"amenity": "place_of_worship", "building": "church", "denomination": "serbian_orthodox", "heritage": "1", "heritage:operator": "whc", "name": "Patriarchate of Pe\u0107", "name:bg": "\u041f\u0435\u0447\u043a\u0430 \u043f\u0430\u0442\u0440\u0438\u0430\u0440\u0448\u0438\u044f", "name:de": "Patriarchenkloster Pe\u0107", "name:en": "Patriarchate of Pe\u0107", "name:it": "Patriarcale di Pe\u0107", "name:ja": "\u30da\u30fc\u30c1\u7dcf\u4e3b\u6559\u4fee\u9053\u9662", "name:ka": "\u10de\u10d4\u10e9\u10d8\u10e1 \u10e1\u10d0\u10de\u10d0\u10e2\u10e0\u10d8\u10d0\u10e0\u10e5\u10dd \u10db\u10dd\u10dc\u10d0\u10e1\u10e2\u10d4\u10e0\u10d8", "name:nl": "Patriarchaatsklooster Pe\u0107", "name:pl": "Patriarchat Pecz", "name:ru": "\u041f\u0435\u0447\u0441\u043a\u0438\u0439 \u043f\u0430\u0442\u0440\u0438\u0430\u0440\u0445\u0430\u0442", "name:sr": "\u041f\u0435\u045b\u043a\u0430 \u043f\u0430\u0442\u0440\u0438\u0458\u0430\u0440\u0448\u0438\u0458\u0430", "name:sr-Latn": "Pe\u0107ka patrijar\u0161ija", "note": "Trash\u00ebgemi Kulturore e Republik\u00ebs s\u00eb Kosov\u00ebs - RKS Kulturnog Nasle\u0111a od Republike Kosova - RKS Cultural Heritage of the Republic of Kosovo - RKS", "ref:whc": "724-002bis", "religion": "christian", "wikidata": "Q969047"}}, "geometry": {"type": "Point", "coordinates": [20.2655926, 42.6611625]}}, {"type": "Feature", "properties": {"type": "way", "id": 886780510, "tags": {"addr:city": "Vrell\u00eb,Istog", "addr:housenumber": "35", "addr:postcode": "31000", "addr:street": "Mullinjt\u00eb e Vrell\u00ebs", "building": "yes", "layer": "1", "museum": "history", "name": "Mulli", "tourism": "museum"}}, "geometry": {"type": "Point", "coordinates": [20.4004919, 42.7729626]}}, {"type": "Feature", "properties": {"type": "way", "id": 397332262, "tags": {"building": "yes", "name": "\u041c\u0443\u0437\u0435\u0458 \u0420\u0430\u0441", "name:sr": "\u041c\u0443\u0437\u0435\u0458 \u0420\u0430\u0441", "name:sr-Latn": "Muzej Ras", "tourism": "museum"}}, "geometry": {"type": "Point", "coordinates": [20.5183, 43.1415842]}}, {"type": "Feature", "properties": {"type": "way", "id": 223819769, "tags": {"heritage": "1", "heritage:operator": "whc", "historic": "church", "name": "\u0426\u0440\u043a\u0432\u0430 \u0441\u0432\u0435\u0442\u0438\u0445 \u0430\u043f\u043e\u0441\u0442\u043e\u043b\u0430 \u041f\u0435\u0442\u0440\u0430 \u0438 \u041f\u0430\u0432\u043b\u0430", "name:en": "Church of Saint Apostles Peter and Paul", "name:sr": "\u0426\u0440\u043a\u0432\u0430 \u0441\u0432\u0435\u0442\u0438\u0445 \u0430\u043f\u043e\u0441\u0442\u043e\u043b\u0430 \u041f\u0435\u0442\u0440\u0430 \u0438 \u041f\u0430\u0432\u043b\u0430", "name:sr-Latn": "Crkva svetih apostola Petra i Pavla", "ref:whc": "96-003", "tourism": "attraction", "whc:inscription_date": "1979", "wikidata": "Q1559411", "wikipedia": "sr:\u0426\u0440\u043a\u0432\u0430 \u0421\u0432\u0435\u0442\u0438\u0445 \u0430\u043f\u043e\u0441\u0442\u043e\u043b\u0430 \u041f\u0435\u0442\u0440\u0430 \u0438 \u041f\u0430\u0432\u043b\u0430 \u0443 \u0420\u0430\u0441\u0443"}}, "geometry": {"type": "Point", "coordinates": [20.5274335, 43.1613636]}}, {"type": "Feature", "properties": {"type": "way", "id": 223818703, "tags": {"amenity": "monastery", "heritage": "1", "heritage:operator": "whc", "historic": "monastery", "int_name": "Djurdjevi stupovi", "name": "\u0402\u0443\u0440\u0452\u0435\u0432\u0438 \u0441\u0442\u0443\u043f\u043e\u0432\u0438", "name:en": "The Tracts of Saint George", "name:sr": "\u0402\u0443\u0440\u0452\u0435\u0432\u0438 \u0441\u0442\u0443\u043f\u043e\u0432\u0438", "name:sr-Latn": "\u0110ur\u0111evi stupovi", "ref:whc": "96-004", "tourism": "attraction", "whc:inscription_date": "1979", "wikidata": "Q592512", "wikipedia": "sr:\u041c\u0430\u043d\u0430\u0441\u0442\u0438\u0440 \u0402\u0443\u0440\u0452\u0435\u0432\u0438 \u0441\u0442\u0443\u043f\u043e\u0432\u0438"}}, "geometry": {"type": "Point", "coordinates": [20.4976231, 43.1658384]}}, {"type": "Feature", "properties": {"type": "way", "id": 550900724, "tags": {"building": "yes", "name": "Muzeu i Vushtrrise", "tourism": "museum"}}, "geometry": {"type": "Point", "coordinates": [20.9643498, 42.8197825]}}, {"type": "Feature", "properties": {"type": "way", "id": 475372885, "tags": {"building": "yes", "name": "Muzeu i Isa Boletinit", "tourism": "museum"}}, "geometry": {"type": "Point", "coordinates": [20.8620523, 42.928528]}}, {"type": "Feature", "properties": {"type": "way", "id": 199363288, "tags": {"building": "yes", "name": "Trep\u00e7a Mineral Museum", "tourism": "museum"}}, "geometry": {"type": "Point", "coordinates": [20.9185139, 42.9391993]}}, {"type": "Feature", "properties": {"type": "way", "id": 573040279, "tags": {"addr:city": "Janjev\u00eb", "addr:postcode": "14050", "addr:street": "Rr. Janjeva e vjeter", "building": "yes", "name": "Shtepia Muze e Shtjefen Gjecovit", "tourism": "museum"}}, "geometry": {"type": "Point", "coordinates": [21.250025, 42.574123]}}, {"type": "Feature", "properties": {"type": "way", "id": 259076101, "tags": {"building": "yes", "name": "Sht\u00ebpia e Pavar\u00ebsis\u00eb s\u00eb Kosov\u00ebs \"Dr. Ibrahim Rugova\"", "name:de": "Haus der Unabh\u00e4ngigkeit des Kosovo \"Ibrahim Rugova\"", "name:en": "House of Independence of Kosovo \"Ibrahim Rugova\"", "opening_hours": "Mo-Sa 10:00-17:00", "tourism": "museum"}}, "geometry": {"type": "Point", "coordinates": [21.1575767, 42.664126]}}, {"type": "Feature", "properties": {"type": "way", "id": 136354953, "tags": {"building": "yes", "fee": "no", "name": "Muzeu i Kosov\u00ebs", "name:de": "Museum des Kosovo", "name:en": "Museum of Kosovo", "opening_hours": "Tu-Su 10:00-18:00", "tourism": "museum", "tourism_1": "attraction", "wikidata": "Q16959189"}}, "geometry": {"type": "Point", "coordinates": [21.1662728, 42.6656782]}}, {"type": "Feature", "properties": {"type": "way", "id": 679772229, "tags": {"building": "yes", "name": "Stacion - Center for Contemporary Art Prishtina", "tourism": "museum"}}, "geometry": {"type": "Point", "coordinates": [21.1676293, 42.6683088]}}, {"type": "Feature", "properties": {"type": "way", "id": 679772218, "tags": {"building": "yes", "name": "Muzeu Etnologjik Emin Gjiku", "name:de": "Landeskundemuseum des Kosovo", "name:en": "Ethnological Museum", "tourism": "museum", "wikidata": "Q16957435", "wikipedia": "en:Ethnological Museum, Pristina"}}, "geometry": {"type": "Point", "coordinates": [21.1681934, 42.6686877]}}, {"type": "Feature", "properties": {"type": "way", "id": 813476234, "tags": {"building": "yes", "name": "Sht\u00ebpia e Hertic\u00ebve", "name:en": "Hertic House", "name:sq": "Sht\u00ebpia e Hertic\u00ebve", "tourism": "museum"}}, "geometry": {"type": "Point", "coordinates": [21.1576284, 42.6775115]}}, {"type": "Feature", "properties": {"type": "way", "id": 457642568, "tags": {"building": "yes", "tourism": "museum"}}, "geometry": {"type": "Point", "coordinates": [21.1048077, 42.7022306]}}, {"type": "Feature", "properties": {"type": "way", "id": 289379526, "tags": {"addr:city": "Gra\u010danica", "amenity": "monastery", "denomination": "serbian_orthodox", "heritage": "1", "heritage:operator": "whc", "name": "Manastir Gra\u010danica", "name:de": "Kloster Gra\u010danica", "name:el": "\u039c\u03bf\u03bd\u03ae \u0393\u03ba\u03c1\u03b1\u03c4\u03c3\u03ac\u03bd\u03b9\u03c4\u03c3\u03b1\u03c2", "name:en": "Gra\u010danica Monastery", "name:sq": "Manastiri i Gra\u00e7anic\u00ebs", "name:sr": "\u041c\u0430\u043d\u0430\u0441\u0442\u0438\u0440 \u0413\u0440\u0430\u0447\u0430\u043d\u0438\u0446\u0430", "note": "Serbian cultural heritage", "ref:whc": "724-004bis", "religion": "christian", "whc:inscription_date": "2004", "wikidata": "Q1137661"}}, "geometry": {"type": "Point", "coordinates": [21.1934759, 42.5984944]}}, {"type": "Feature", "properties": {"type": "way", "id": 643318333, "tags": {"addr:city": "Gjilan", "addr:postcode": "60000", "addr:street": "Medllin Ollbrajt", "building": "yes", "name": "Amaneti i Babes", "opening_hours": "Mo-Fr 08:00-17:00", "operator": "Dr. Shevqet", "tourism": "museum"}}, "geometry": {"type": "Point", "coordinates": [21.4662846, 42.4637627]}}, {"type": "Feature", "properties": {"type": "way", "id": 684677638, "tags": {"addr:city": "Gjilan", "addr:postcode": "60000", "addr:street": "Adem Jashari", "building": "yes", "name": "Trashegimia Kulturore e Gjilanit", "tourism": "museum"}}, "geometry": {"type": "Point", "coordinates": [21.4692385, 42.46544]}}, {"type": "Feature", "properties": {"type": "way", "id": 878009086, "tags": {"building": "yes", "name": "\u0421\u0435\u043b\u0430\u043c\u043b\u0443\u043a", "tourism": "museum"}}, "geometry": {"type": "Point", "coordinates": [21.8983005, 42.5547169]}}, {"type": "Feature", "properties": {"type": "way", "id": 878009087, "tags": {"building": "yes", "name": "\u0425\u0430\u0440\u0435\u043c\u043b\u0443\u043a", "tourism": "museum"}}, "geometry": {"type": "Point", "coordinates": [21.8984622, 42.5549573]}}, {"type": "Feature", "properties": {"type": "way", "id": 878009089, "tags": {"building": "yes", "name": "\u0425\u0430\u043c\u0430\u043c", "tourism": "museum"}}, "geometry": {"type": "Point", "coordinates": [21.9006448, 42.5587216]}}, {"type": "Feature", "properties": {"type": "way", "id": 427015165, "tags": {"building": "yes", "name": "\u041d\u0430\u0440\u043e\u0434\u043d\u0438 \u043c\u0443\u0437\u0435\u0458", "name:sr": "\u041d\u0430\u0440\u043e\u0434\u043d\u0438 \u043c\u0443\u0437\u0435\u0458", "name:sr-Latn": "Narodni muzej", "tourism": "museum"}}, "geometry": {"type": "Point", "coordinates": [21.9465351, 42.9941779]}}, {"type": "Feature", "properties": {"type": "way", "id": 879459470, "tags": {"building": "yes", "tourism": "museum"}}, "geometry": {"type": "Point", "coordinates": [21.9503653, 42.9948067]}}, {"type": "Feature", "properties": {"type": "way", "id": 878001011, "tags": {"building": "yes", "name": "\u0428\u043e\u043f-\u0402\u043e\u043a\u0438\u045b\u0435\u0432\u0430 \u043a\u0443\u045b\u0430", "tourism": "museum"}}, "geometry": {"type": "Point", "coordinates": [21.9493903, 42.9967781]}}, {"type": "Feature", "properties": {"type": "way", "id": 877581500, "tags": {"building": "yes", "name": "\u041c\u0443\u0437\u0435\u0458", "tourism": "museum"}}, "geometry": {"type": "Point", "coordinates": [22.1279692, 42.9656669]}}, {"type": "Feature", "properties": {"type": "way", "id": 877581503, "tags": {"building": "yes", "tourism": "museum"}}, "geometry": {"type": "Point", "coordinates": [22.1281635, 42.9658482]}}, {"type": "Feature", "properties": {"type": "way", "id": 290193536, "tags": {"addr:housenumber": "35", "addr:street": "\u0412\u043b\u0430\u0434\u0438\u043c\u0438\u0440\u0430 \u041f\u0435\u0440\u0438\u045b\u0430 \u0412\u0430\u043b\u0442\u0435\u0440\u0430", "building": "yes", "name": "\u041c\u0443\u0437\u0435\u0458 \u0443 \u041f\u0440\u0438\u0458\u0435\u043f\u043e\u0459\u0443", "name:en": "Museum in Prijepolje", "name:sr": "\u041c\u0443\u0437\u0435\u0458 \u0443 \u041f\u0440\u0438\u0458\u0435\u043f\u043e\u0459\u0443", "name:sr-Latn": "Muzej u Prijepolju", "tourism": "museum"}}, "geometry": {"type": "Point", "coordinates": [19.6495987, 43.3891784]}}, {"type": "Feature", "properties": {"type": "way", "id": 357906893, "tags": {"amenity": "place_of_worship", "building": "church", "denomination": "serbian_orthodox", "heritage": "2", "heritage:operator": "rzzsk", "heritage:ref": "SK 377", "name": "\u041c\u0430\u043d\u0430\u0441\u0442\u0438\u0440 \u0420\u0430\u0447\u0430", "name:de": "Kloster Ra\u010da", "name:en": "Ra\u010da monastery", "name:fr": "Monast\u00e8re de Ra\u010da", "name:ru": "\u041c\u043e\u043d\u0430\u0441\u0442\u044b\u0440\u044c \u0420\u0430\u0447\u0430", "name:sr": "\u041c\u0430\u043d\u0430\u0441\u0442\u0438\u0440 \u0420\u0430\u0447\u0430", "name:sr-Latn": "Manastir Ra\u010da", "religion": "christian", "wikidata": "Q1273574", "wikipedia": "sr:\u041c\u0430\u043d\u0430\u0441\u0442\u0438\u0440 \u0420\u0430\u0447\u0430"}}, "geometry": {"type": "Point", "coordinates": [19.5414805, 43.9313968]}}, {"type": "Feature", "properties": {"type": "way", "id": 727260133, "tags": {"addr:city": "\u0421\u0438\u0440\u043e\u0433\u043e\u0458\u043d\u043e", "barrier": "fence", "building": "detached", "fence_type": "pole", "museum": "open_air", "name": "Muzej Staro selo Sirogojno", "name:de": "Freilichtmuseum \u201eStaro selo\u201c", "name:en": "\u201eOld Village\u201c Sirogojno", "name:sr": "\u041c\u0443\u0437\u0435\u0458 \u0421\u0442\u0430\u0440\u043e \u0441\u0435\u043b\u043e \u0421\u0438\u0440\u043e\u0433\u043e\u0458\u043d\u043e", "name:sr-Latn": "Muzej Staro selo Sirogojno", "tourism": "museum", "wikidata": "Q16084351", "wikipedia": "sr:\u041c\u0443\u0437\u0435\u0458 \u043d\u0430 \u043e\u0442\u0432\u043e\u0440\u0435\u043d\u043e\u043c \u201e\u0421\u0442\u0430\u0440\u043e \u0441\u0435\u043b\u043e\u201c"}}, "geometry": {"type": "Point", "coordinates": [19.8795828, 43.6889175]}}, {"type": "Feature", "properties": {"type": "way", "id": 165020887, "tags": {"building": "yes", "building:facade:colour": "beige", "building:levels": "3", "height": "15", "museum": "history", "roof:colour": "red", "roof:material": "roof_tiles", "roof:shape": "hipped", "tourism": "museum", "wikidata": "Q20435358", "wikipedia": "sr:\u0417\u0433\u0440\u0430\u0434\u0430 \u041c\u0443\u0437\u0435\u0458\u0430 \u0443\u0441\u0442\u0430\u043d\u043a\u0430 1941."}}, "geometry": {"type": "Point", "coordinates": [19.8463514, 43.8543831]}}, {"type": "Feature", "properties": {"type": "way", "id": 165020888, "tags": {"building": "yes", "building:facade:colour": "beige", "building:levels": "3", "height": "15", "museum": "history", "roof:colour": "red", "roof:material": "roof_tiles", "roof:shape": "hipped", "tourism": "museum"}}, "geometry": {"type": "Point", "coordinates": [19.8465219, 43.8539304]}}, {"type": "Feature", "properties": {"type": "way", "id": 449429450, "tags": {"addr:block": "500107", "addr:city": "\u0423\u0436\u0438\u0446\u0435", "addr:housenumber": "18", "addr:postcode": "31102", "addr:street": "\u0414\u0438\u043c\u0438\u0442\u0440\u0438\u0458\u0430 \u0422\u0443\u0446\u043e\u0432\u0438\u045b\u0430", "building:levels:underground": "1", "layer": "-1", "location": "underground", "museum": "history", "name": "\u041d\u0430\u0440\u043e\u0434\u043d\u0438 \u043c\u0443\u0437\u0435\u0458 \u0423\u0436\u0438\u0446\u0435", "name:sr": "\u041d\u0430\u0440\u043e\u0434\u043d\u0438 \u043c\u0443\u0437\u0435\u0458 \u0423\u0436\u0438\u0446\u0435", "name:sr-Latn": "Narodni muzej U\u017eice", "opening_hours": "08:00-17:00", "phone": "+381 31 521 360", "tourism": "museum", "website": "http://nmuzice.org.rs/", "wikidata": "Q20437895", "wikipedia": "sr:\u041d\u0430\u0440\u043e\u0434\u043d\u0438 \u043c\u0443\u0437\u0435\u0458 \u0423\u0436\u0438\u0446\u0435"}}, "geometry": {"type": "Point", "coordinates": [19.8464713, 43.8541514]}}, {"type": "Feature", "properties": {"type": "way", "id": 344292177, "tags": {"building": "yes", "name": "\u041c\u0443\u0437\u0435\u0458 \u0412\u0443\u043a\u043e\u0432\u0438\u0445 \u0441\u0430\u0431\u043e\u0440\u0430", "tourism": "museum"}}, "geometry": {"type": "Point", "coordinates": [19.2701974, 44.4964992]}}, {"type": "Feature", "properties": {"type": "way", "id": 345930910, "tags": {"addr:city": "Loznica", "addr:postcode": "15303", "addr:street": "Trsic", "building": "yes", "name": "\u041c\u0443\u0437\u0435\u0458 \u0458\u0435\u0437\u0438\u043a\u0430 \u0438 \u043f\u0438\u0441\u043c\u0430", "opening_hours": "09:00-17:00", "tourism": "museum", "website": "http://muzejjezikaipisma.rs/index.php"}}, "geometry": {"type": "Point", "coordinates": [19.2694108, 44.4987351]}}, {"type": "Feature", "properties": {"type": "way", "id": 443773350, "tags": {"building": "yes", "tourism": "museum"}}, "geometry": {"type": "Point", "coordinates": [19.4792582, 44.3938576]}}, {"type": "Feature", "properties": {"type": "way", "id": 443773354, "tags": {"area": "yes", "heritage": "2", "heritage:operator": "rzzsk", "historic": "memorial_site", "name": "\u0421\u043f\u043e\u043c\u0435\u043d\u0438\u0447\u043a\u0438 \u043a\u043e\u043c\u043f\u043b\u0435\u043a\u0441 \u0411\u0435\u043b\u0430 \u0426\u0440\u043a\u0432\u0430", "name:sr-Latn": "Spomeni\u010dki kompleks Bela Crkva", "ref:sr:rzzsk": "ZM 6", "wikidata": "Q3054903", "wikipedia": "sr:Spomeni\u010dki kompleks Bela Crkva"}}, "geometry": {"type": "Point", "coordinates": [19.4790518, 44.3939726]}}, {"type": "Feature", "properties": {"type": "way", "id": 514476424, "tags": {"building": "yes", "tourism": "museum"}}, "geometry": {"type": "Point", "coordinates": [19.8340765, 44.2280461]}}, {"type": "Feature", "properties": {"type": "way", "id": 508802848, "tags": {"building": "yes", "building:levels": "1", "tourism": "museum", "wheelchair": "yes"}}, "geometry": {"type": "Point", "coordinates": [19.9310239, 44.2460348]}}, {"type": "Feature", "properties": {"type": "way", "id": 852163216, "tags": {"building": "yes", "museum": "history", "name": "\u0420\u043e\u0434\u043d\u0430 \u043a\u0443\u045b\u0430 \u0432\u043e\u0458\u0432\u043e\u0434\u0435 \u0416\u0438\u0432\u043e\u0458\u0438\u043d\u0430 \u041c\u0438\u0448\u0438\u045b\u0430", "tourism": "museum"}}, "geometry": {"type": "Point", "coordinates": [20.1008605, 44.1955287]}}, {"type": "Feature", "properties": {"type": "way", "id": 424591365, "tags": {"building": "yes", "name": "\u041c\u0443\u0437\u0435\u0458 \u043a\u0430\u043c\u0435\u043d\u0430", "name:sr": "\u041c\u0443\u0437\u0435\u0458 \u043a\u0430\u043c\u0435\u043d\u0430", "name:sr-Latn": "Muzej kamena", "tourism": "museum", "wikidata": "Q31182811", "wikipedia": "sr:\u041c\u0443\u0437\u0435\u0458 \u043a\u0430\u043c\u0435\u043d\u0430"}}, "geometry": {"type": "Point", "coordinates": [20.0989663, 44.2057502]}}, {"type": "Feature", "properties": {"type": "way", "id": 91520446, "tags": {"building": "yes", "name": "\u041d\u0430\u0440\u043e\u0434\u043d\u0438 \u043c\u0443\u0437\u0435\u0458 \u0412\u0430\u0459\u0435\u0432\u043e", "name:sr": "\u041d\u0430\u0440\u043e\u0434\u043d\u0438 \u043c\u0443\u0437\u0435\u0458 \u0412\u0430\u0459\u0435\u0432\u043e", "name:sr-Latn": "Narodni muzej Valjevo", "tourism": "museum"}}, "geometry": {"type": "Point", "coordinates": [19.8857335, 44.2691799]}}, {"type": "Feature", "properties": {"type": "way", "id": 342560721, "tags": {"building": "yes", "name": "\u041c\u0443\u0441\u0435\u043b\u0438\u043c\u043e\u0432 \u043a\u043e\u043d\u0430\u043a", "name:sr": "\u041c\u0443\u0441\u0435\u043b\u0438\u043c\u043e\u0432 \u043a\u043e\u043d\u0430\u043a", "name:sr-Latn": "Muselimov konak", "tourism": "museum"}}, "geometry": {"type": "Point", "coordinates": [19.8849425, 44.2695303]}}, {"type": "Feature", "properties": {"type": "way", "id": 301897693, "tags": {"building": "yes", "historic": "monument", "name": "\u041a\u0443\u043b\u0430 \u041d\u0435\u043d\u0430\u0434\u043e\u0432\u0438\u045b\u0430", "name:sr": "\u041a\u0443\u043b\u0430 \u041d\u0435\u043d\u0430\u0434\u043e\u0432\u0438\u045b\u0430", "name:sr-Latn": "Kula Nenadovi\u0107a", "tourism": "museum"}}, "geometry": {"type": "Point", "coordinates": [19.8853695, 44.278102]}}, {"type": "Feature", "properties": {"type": "way", "id": 715909620, "tags": {"addr:city": "\u0412\u0430\u0459\u0435\u0432\u043e", "addr:housenumber": "2", "addr:postcode": "14000", "addr:street": "\u041c\u0438\u043b\u043e\u0432\u0430\u043d\u0430 \u0413\u043b\u0438\u0448\u0438\u045b\u0430", "height": "10", "heritage": "2", "heritage:operator": "rzzsk", "historic": "monument", "inscription": "18. \u0430\u0432\u0433\u0443\u0441\u0442 1914 \u0433;\u0412\u0410\u0428\u0410 \u0414\u0415\u041b\u0410 \u0421\u0423 \u0411\u0415\u0421\u041c\u0420\u0422\u041d\u0410", "name": "\u0421\u043f\u043e\u043c\u0435\u043d-\u043a\u043e\u0441\u0442\u0443\u0440\u043d\u0438\u0446\u0430 \u043d\u0430 \u0426\u0435\u0440\u0443", "name:en": "Memorial Ossuary, Cer", "name:sr": "\u0421\u043f\u043e\u043c\u0435\u043d-\u043a\u043e\u0441\u0442\u0443\u0440\u043d\u0438\u0446\u0430 \u043d\u0430 \u0426\u0435\u0440\u0443", "name:sr-Latn": "Spomen-kosturnica na Ceru", "start_date": "1928-06-28", "tourism": "attraction", "wikidata": "Q3333164", "wikipedia": "sr:\u0421\u043f\u043e\u043c\u0435\u043d-\u043a\u043e\u0441\u0442\u0443\u0440\u043d\u0438\u0446\u0430 \u043d\u0430 \u0426\u0435\u0440\u0443"}}, "geometry": {"type": "Point", "coordinates": [19.528191, 44.5545286]}}, {"type": "Feature", "properties": {"type": "way", "id": 359892393, "tags": {"addr:city": "\u0428\u0430\u0431\u0430\u0446", "addr:housenumber": "5", "addr:street": "bogojavljenska", "building": "yes", "name": "\u041d\u0430\u0440\u043e\u0434\u043d\u0438 \u043c\u0443\u0437\u0435\u0458 \u0428\u0430\u0431\u0430\u0446", "name:en": "National Museum in \u0160abac", "opening_hours": "Mo-Fr 07:00-19:00", "tourism": "museum"}}, "geometry": {"type": "Point", "coordinates": [19.6926799, 44.7553102]}}, {"type": "Feature", "properties": {"type": "way", "id": 715998080, "tags": {"amenity": "place_of_worship", "building": "yes", "building:levels": "1", "denomination": "serbian_orthodox", "heritage": "2", "heritage:operator": "rzzsk", "heritage:ref": "SK 1044", "name": "\u0426\u0440\u043a\u0432\u0430 \u0421\u0432\u0435\u0442\u043e\u0433 \u041b\u0443\u043a\u0435", "name:sr": "\u0426\u0440\u043a\u0432\u0430 \u0421\u0432\u0435\u0442\u043e\u0433 \u041b\u0443\u043a\u0435", "name:sr-Latn": "Crkva svetog Luke", "religion": "christian", "start_date": "1455", "wikidata": "Q3582422", "wikipedia": "sr:\u0426\u0440\u043a\u0432\u0430 \u0421\u0432\u0435\u0442\u043e\u0433 \u041b\u0443\u043a\u0435 \u0443 \u041a\u0443\u043f\u0438\u043d\u043e\u0432\u0443"}}, "geometry": {"type": "Point", "coordinates": [20.0368581, 44.698559]}}, {"type": "Feature", "properties": {"type": "way", "id": 322017444, "tags": {"building": "yes", "name": "\u041c\u0443\u0437\u0435\u0458 \u0441\u043f\u043e\u0440\u0442\u0430", "name:pl": "Muzeum sportu", "name:sh": "Muzej sporta", "name:sr": "\u041c\u0443\u0437\u0435\u0458 \u0441\u043f\u043e\u0440\u0442\u0430", "name:sr-Latn": "Muzej sporta", "tourism": "museum"}}, "geometry": {"type": "Point", "coordinates": [18.9846032, 45.6718097]}}, {"type": "Feature", "properties": {"type": "way", "id": 282755916, "tags": {"building": "yes", "name": "\u041c\u0443\u0437\u0435\u0458 \u0421\u0440\u0435\u043c\u0430", "name:sr": "\u041c\u0443\u0437\u0435\u0458 \u0421\u0440\u0435\u043c\u0430", "name:sr-Latn": "Muzej Srema", "tourism": "museum"}}, "geometry": {"type": "Point", "coordinates": [19.6063875, 44.9672535]}}, {"type": "Feature", "properties": {"type": "way", "id": 250104065, "tags": {"addr:city": "\u0421\u0440\u0435\u043c\u0441\u043a\u0430 \u041c\u0438\u0442\u0440\u043e\u0432\u0438\u0446\u0430", "addr:postcode": "22000", "addr:street": "\u041f\u0438\u0432\u0430\u0440\u0441\u043a\u0430", "building": "yes", "height": "8", "museum": "history", "name": "Carska palata", "name:en": "Sirmium Imperial Hall", "tourism": "museum", "website": "http://www.carskapalata.rs"}}, "geometry": {"type": "Point", "coordinates": [19.6102464, 44.966436]}}, {"type": "Feature", "properties": {"type": "way", "id": 282699715, "tags": {"building": "yes", "name": "\u041c\u0443\u0437\u0435\u0458 \u0421\u0440\u0435\u043c\u0430", "name:sr": "\u041c\u0443\u0437\u0435\u0458 \u0421\u0440\u0435\u043c\u0430", "name:sr-Latn": "Muzej Srema", "tourism": "museum"}}, "geometry": {"type": "Point", "coordinates": [19.6090734, 44.9673593]}}, {"type": "Feature", "properties": {"type": "way", "id": 699297408, "tags": {"addr:city": "Ruma", "addr:postcode": "22400", "addr:street": "\u0413\u043b\u0430\u0432\u043d\u0430", "building": "yes", "name": "\u0413\u0440\u0430\u0434\u0441\u043a\u0438 \u043c\u0443\u0437\u0435\u0458", "name:sr": "\u0413\u0440\u0430\u0434\u0441\u043a\u0438 \u043c\u0443\u0437\u0435\u0458", "name:sr-Latn": "Gradski muzej", "tourism": "museum"}}, "geometry": {"type": "Point", "coordinates": [19.8241025, 45.0076355]}}, {"type": "Feature", "properties": {"type": "way", "id": 138711775, "tags": {"building": "yes", "name": "\u0413\u0430\u043b\u0435\u0440\u0438\u0458\u0430 \u0420\u0430\u0458\u043a\u0430 \u041c\u0430\u043c\u0443\u0437\u0438\u045b\u0430", "name:en": "Gallery of Rajko Mamuzi\u0107", "name:sr": "\u0413\u0430\u043b\u0435\u0440\u0438\u0458\u0430 \u0420\u0430\u0458\u043a\u0430 \u041c\u0430\u043c\u0443\u0437\u0438\u045b\u0430", "name:sr-Latn": "Galerija Rajka Mamuzi\u0107a", "tourism": "museum"}}, "geometry": {"type": "Point", "coordinates": [19.8453091, 45.2521354]}}, {"type": "Feature", "properties": {"type": "way", "id": 221738092, "tags": {"building": "yes", "name": "\u0413\u0430\u043b\u0435\u0440\u0438\u0458\u0430 \u041c\u0430\u0442\u0438\u0446\u0435 \u0441\u0440\u043f\u0441\u043a\u0435", "name:sr": "\u0413\u0430\u043b\u0435\u0440\u0438\u0458\u0430 \u041c\u0430\u0442\u0438\u0446\u0435 \u0441\u0440\u043f\u0441\u043a\u0435", "name:sr-Latn": "Galerija Matice srpske", "tourism": "museum"}}, "geometry": {"type": "Point", "coordinates": [19.8457257, 45.2525057]}}, {"type": "Feature", "properties": {"type": "way", "id": 221738098, "tags": {"building": "yes", "name": "\u0413\u0430\u043b\u0435\u0440\u0438\u0458\u0430 \u041f\u0430\u0432\u043b\u0430 \u0411\u0435\u0459\u0430\u043d\u0441\u043a\u043e\u0433", "name:sr": "\u0413\u0430\u043b\u0435\u0440\u0438\u0458\u0430 \u041f\u0430\u0432\u043b\u0430 \u0411\u0435\u0459\u0430\u043d\u0441\u043a\u043e\u0433", "name:sr-Latn": "Galerija Pavla Beljanskog", "tourism": "museum"}}, "geometry": {"type": "Point", "coordinates": [19.8460993, 45.2527406]}}, {"type": "Feature", "properties": {"type": "way", "id": 140875446, "tags": {"building": "yes", "name": "\u041f\u0440\u0438\u0440\u043e\u0434\u045a\u0430\u0447\u043a\u0438 \u043c\u0443\u0437\u0435\u0458", "name:en": "Museum of Natural History", "name:sr": "\u041f\u0440\u0438\u0440\u043e\u0434\u045a\u0430\u0447\u043a\u0438 \u043c\u0443\u0437\u0435\u0458", "name:sr-Latn": "Prirodnja\u010dki muzej", "toilets:wheelchair": "no", "tourism": "museum", "wheelchair": "yes"}}, "geometry": {"type": "Point", "coordinates": [19.8509484, 45.2496977]}}, {"type": "Feature", "properties": {"type": "way", "id": 138300882, "tags": {"building": "yes", "name": "\u0417\u0431\u0438\u0440\u043a\u0430 \u0441\u0442\u0440\u0430\u043d\u0435 \u0443\u043c\u0435\u0442\u043d\u043e\u0441\u0442\u0438", "name:en": "Gallery of Foreign Arts", "name:sr": "\u0417\u0431\u0438\u0440\u043a\u0430 \u0441\u0442\u0440\u0430\u043d\u0435 \u0443\u043c\u0435\u0442\u043d\u043e\u0441\u0442\u0438", "name:sr-Latn": "Zbirka strane umetnosti", "tourism": "museum"}}, "geometry": {"type": "Point", "coordinates": [19.8502998, 45.256602]}}, {"type": "Feature", "properties": {"type": "way", "id": 112880861, "tags": {"addr:city": "Novi Sad", "addr:housenumber": "35-37", "addr:street": "\u0414\u0443\u043d\u0430\u0432\u0441\u043a\u0430", "building": "yes", "name": "\u041c\u0443\u0437\u0435\u0458 \u0412\u043e\u0458\u0432\u043e\u0434\u0438\u043d\u0435", "name:en": "Museum of Vojvodina", "name:pl": "Muzeum Wojwodiny", "name:sr": "\u041c\u0443\u0437\u0435\u0458 \u0412\u043e\u0458\u0432\u043e\u0434\u0438\u043d\u0435", "name:sr-Latn": "Muzej Vojvodine", "opening_hours": "Tu-Fr 09:00-19:00; Sa-Su 10:00-18:00", "phone": "+381 21 420566", "toilets:wheelchair": "no", "tourism": "museum", "website": "https://www.muzejvojvodine.org.rs", "wheelchair": "yes", "wikidata": "Q6941048", "wikipedia": "sr:\u041c\u0443\u0437\u0435\u0458 \u0412\u043e\u0458\u0432\u043e\u0434\u0438\u043d\u0435"}}, "geometry": {"type": "Point", "coordinates": [19.8518381, 45.2564962]}}, {"type": "Feature", "properties": {"type": "way", "id": 112880862, "tags": {"building": "yes", "name": "\u041c\u0443\u0437\u0435\u0458 \u0441\u0430\u0432\u0440\u0435\u043c\u0435\u043d\u0435 \u0443\u043c\u0435\u0442\u043d\u043e\u0441\u0442\u0438", "name:en": "Museum of Modern Art", "name:sr": "\u041c\u0443\u0437\u0435\u0458 \u0441\u0430\u0432\u0440\u0435\u043c\u0435\u043d\u0435 \u0443\u043c\u0435\u0442\u043d\u043e\u0441\u0442\u0438", "name:sr-Latn": "Muzej savremene umetnosti", "toilets:wheelchair": "yes", "tourism": "museum", "wheelchair": "limited"}}, "geometry": {"type": "Point", "coordinates": [19.8531954, 45.2565872]}}, {"type": "Feature", "properties": {"type": "way", "id": 680956021, "tags": {"leisure": "park", "name": "\u041c\u0443\u0437\u0435\u0458\u0441\u043a\u0438 \u043a\u043e\u043c\u043f\u043b\u0435\u043a\u0441 \u041a\u0443\u043b\u043f\u0438\u043d", "name:en": "Kulpin museum complex", "name:sr": "\u041c\u0443\u0437\u0435\u0458\u0441\u043a\u0438 \u043a\u043e\u043c\u043f\u043b\u0435\u043a\u0441 \u041a\u0443\u043b\u043f\u0438\u043d", "name:sr-Latn": "Muzejski kompleks Kulpin", "operator": "Museum of Vojvodina", "tourism": "museum", "website": "https://www.muzejvojvodine.org.rs/index.php/muzejski-kompleks-kulpin", "wikidata": "Q16086603", "wikipedia": "sr:\u0414\u0432\u043e\u0440\u0430\u0446 \u0414\u0443\u043d\u0452\u0435\u0440\u0441\u043a\u0438 \u0443 \u041a\u0443\u043b\u043f\u0438\u043d\u0443"}}, "geometry": {"type": "Point", "coordinates": [19.5875803, 45.4023792]}}, {"type": "Feature", "properties": {"type": "way", "id": 756485180, "tags": {"building": "yes", "tourism": "museum"}}, "geometry": {"type": "Point", "coordinates": [19.5882036, 45.4023887]}}, {"type": "Feature", "properties": {"type": "way", "id": 756485181, "tags": {"building": "yes", "name": "\u041f\u043e\u0459\u043e\u043f\u0440\u0438\u0432\u0440\u0435\u0434\u043d\u0438 \u043c\u0443\u0437\u0435\u0458", "name:en": "Agricultural museum", "name:sr": "\u041f\u043e\u0459\u043e\u043f\u0440\u0438\u0432\u0440\u0435\u0434\u043d\u0438 \u043c\u0443\u0437\u0435\u0458", "name:sr-Latn": "Poljoprivredni muzej", "tourism": "museum"}}, "geometry": {"type": "Point", "coordinates": [19.58762, 45.4026995]}}, {"type": "Feature", "properties": {"type": "way", "id": 375830829, "tags": {"building": "yes", "tourism": "museum"}}, "geometry": {"type": "Point", "coordinates": [19.8882678, 45.4069905]}}, {"type": "Feature", "properties": {"type": "way", "id": 813112739, "tags": {"addr:city": "Novi Be\u010dej", "addr:postcode": "23272", "addr:street": "Tiski kej", "building": "yes", "name": "\u0416\u0438\u0442\u043d\u0438 \u043c\u0430\u0433\u0430\u0446\u0438\u043d", "name:sr": "\u0416\u0438\u0442\u043d\u0438 \u043c\u0430\u0433\u0430\u0446\u0438\u043d", "name:sr-Latn": "\u017ditni magacin", "note": "http://www.zrenjaninheritage.com/kulturna-dobra/spomenici-kulture/zitni-magacin", "tourism": "museum"}}, "geometry": {"type": "Point", "coordinates": [20.1260689, 45.5988358]}}, {"type": "Feature", "properties": {"type": "way", "id": 813112741, "tags": {"addr:city": "Vranjevo, Novi Be\u010dej", "addr:housenumber": "69", "addr:postcode": "23272", "addr:street": "Josifa Marinkovi\u0107a", "building": "yes", "name": "\u0413\u043b\u0430\u0432\u0430\u0448\u0435\u0432\u0430 \u043a\u0443\u045b\u0430", "name:sr": "\u0413\u043b\u0430\u0432\u0430\u0448\u0435\u0432\u0430 \u043a\u0443\u045b\u0430", "name:sr-Latn": "Glava\u0161eva ku\u0107a", "note": "http://www.novibecej.rs/index.php/nas-zavicaj/muzej-glavaseva-kuca", "opening_hours": "Mo 10:00-13:00; Tu-Fr 08:00-15:00; Sa 09:00-16:00; Su 13:00-18:00", "tourism": "museum"}}, "geometry": {"type": "Point", "coordinates": [20.125472, 45.6045359]}}, {"type": "Feature", "properties": {"type": "way", "id": 307146959, "tags": {"building": "yes", "name": "M\u0443\u0437\u0435\u0458 \u0411\u0430\u0442\u0438\u043d\u0441\u043a\u0435 \u0431\u0438\u0442\u043a\u0435", "name:en": "Museum of the Batina Battle WW2", "name:sr-Latn": "Muzej Batinske bitke", "tourism": "museum"}}, "geometry": {"type": "Point", "coordinates": [18.8611496, 45.8506334]}}, {"type": "Feature", "properties": {"type": "way", "id": 28390751, "tags": {"addr:housenumber": "4", "addr:street": "\u0422\u0440\u0433 \u0440\u0435\u043f\u0443\u0431\u043b\u0438\u043a\u0435", "building": "yes", "name": "\u0413\u0440\u0430\u0434\u0441\u043a\u0438 \u043c\u0443\u0437\u0435\u0458", "name:sr": "\u0413\u0440\u0430\u0434\u0441\u043a\u0438 \u043c\u0443\u0437\u0435\u0458", "name:sr-Latn": "Gradski muzej", "tourism": "museum"}}, "geometry": {"type": "Point", "coordinates": [19.1113776, 45.7720143]}}, {"type": "Feature", "properties": {"type": "way", "id": 251638945, "tags": {"building": "yes", "tourism": "museum"}}, "geometry": {"type": "Point", "coordinates": [19.6298202, 45.8151538]}}, {"type": "Feature", "properties": {"type": "way", "id": 61917713, "tags": {"building": "yes", "name": "\u0413\u0440\u0430\u0434\u0441\u043a\u0438 \u043c\u0443\u0437\u0435\u0458", "name:hu": "V\u00e1rosi m\u00fazeum", "tourism": "museum"}}, "geometry": {"type": "Point", "coordinates": [20.08977, 45.93184]}}, {"type": "Feature", "properties": {"type": "way", "id": 206182687, "tags": {"addr:city": "\u0421\u0442\u0443\u0434\u0435\u043d\u0438\u0446\u0430", "addr:country": "RS", "addr:postcode": "36343", "amenity": "monastery", "description": "\u0421\u043f\u043e\u043c\u0435\u043d\u0438\u043a \u043e\u0434 \u0438\u0437\u0443\u0437\u0435\u0442\u043d\u043e\u0433 \u0437\u043d\u0430\u0447\u0430\u0458\u0430. \u0421\u043f\u043e\u043c\u0435\u043d\u0438\u043a \u0443\u043f\u0438\u0441\u0430\u043d \u043d\u0430 \u0423\u041d\u0415\u0421\u041a\u041e-\u0432\u0443 \u043b\u0438\u0441\u0442\u0443 \u0441\u0432\u0435\u0442\u0441\u043a\u0435 \u0431\u0430\u0448\u0442\u0438\u043d\u0435 1986.", "description:en": "Monument of culture of exceptional importance. UNESCO world heritage site since 1986.", "email": "konak@manastirstudenica.rs", "fax": "+381 36 5436050", "heritage": "1", "heritage:operator": "whc", "historic": "monastery", "name": "\u041c\u0430\u043d\u0430\u0441\u0442\u0438\u0440 \u0421\u0442\u0443\u0434\u0435\u043d\u0438\u0446\u0430", "name:de": "Kloster Studenica", "name:en": "Studenica Monastery", "name:fr": "Monast\u00e8re de Studenica", "name:ru": "\u041c\u043e\u043d\u0430\u0441\u0442\u044b\u0440\u044c \u0421\u0442\u0443\u0434\u0435\u043d\u0438\u0446\u0430", "name:sr": "\u041c\u0430\u043d\u0430\u0441\u0442\u0438\u0440 \u0421\u0442\u0443\u0434\u0435\u043d\u0438\u0446\u0430", "name:sr-Latn": "Manastir Studenica", "opening_hours": "Mo-Su 09:00-17:00", "phone": "+381 36 5436050", "ref:whc": "389", "service_times": "Mo-Sa 05:30+,07:00+,18:00+; Su 06:30+,08:00+,18:00+; PH 06:30+,08:00+,18:00+; PH Su off", "tourism": "attraction", "url": "http://spomenicikulture.mi.sanu.ac.rs/spomenik.php?id=524", "website": "http://manastirstudenica.org.rs/", "whc:inscription_date": "1986", "wheelchair": "limited", "wikidata": "Q143042", "wikipedia": "sr:\u041c\u0430\u043d\u0430\u0441\u0442\u0438\u0440 \u0421\u0442\u0443\u0434\u0435\u043d\u0438\u0446\u0430"}}, "geometry": {"type": "Point", "coordinates": [20.5316602, 43.4865262]}}, {"type": "Feature", "properties": {"type": "way", "id": 174929135, "tags": {"building": "yes", "castle_type": "fortress", "communication:amateur_radio:wca": "YU-00010", "heritage": "2", "heritage:operator": "rzzsk", "heritage:ref": "SK 168", "historic": "castle", "historic:civilization": "middle-ages", "name": "\u041c\u0430\u0433\u043b\u0438\u0447", "name:en": "Magli\u010d", "name:pl": "Twierdza Maglic", "name:sr": "\u041c\u0430\u0433\u043b\u0438\u0447", "name:sr-Latn": "Magli\u010d", "tourism": "attraction", "wikidata": "Q959733", "wikipedia": "en:Magli\u010d"}}, "geometry": {"type": "Point", "coordinates": [20.5523741, 43.6137121]}}, {"type": "Feature", "properties": {"type": "way", "id": 447922039, "tags": {"building": "yes", "name": "\u0421\u0442\u0430\u0440\u043e \u043d\u0430\u0447\u0435\u043b\u0441\u0442\u0432\u043e - \u0410\u0440\u0445\u0438\u0432 \u0427\u0430\u0447\u0430\u043a", "tourism": "museum"}}, "geometry": {"type": "Point", "coordinates": [20.3489011, 43.8930763]}}, {"type": "Feature", "properties": {"type": "way", "id": 447922040, "tags": {"building": "yes", "name": "\u041a\u043e\u043d\u0430\u043a \u0433\u043e\u0441\u043f\u043e\u0434\u0430\u0440\u0430 \u0408\u043e\u0432\u0430\u043d\u0430 \u041e\u0431\u0440\u0435\u043d\u043e\u0432\u0438\u045b\u0430", "tourism": "museum"}}, "geometry": {"type": "Point", "coordinates": [20.34851, 43.8934646]}}, {"type": "Feature", "properties": {"type": "way", "id": 528898495, "tags": {"building": "yes", "name": "\u041c\u0443\u0437\u0435\u0458 \u0414\u0440\u0443\u0433\u043e\u0433 \u0441\u0440\u043f\u0441\u043a\u043e\u0433 \u0443\u0441\u0442\u0430\u043d\u043a\u0430", "operator": "\u041c\u0443\u0437\u0435\u0458 \u0440\u0443\u0434\u043d\u0438\u0447\u043a\u043e\u0433-\u0442\u0430\u043a\u043e\u0432\u0441\u043a\u043e\u0433 \u043a\u0440\u0430\u0458\u0430", "tourism": "museum"}}, "geometry": {"type": "Point", "coordinates": [20.3888002, 44.0438681]}}, {"type": "Feature", "properties": {"type": "way", "id": 532422628, "tags": {"building": "yes", "name": "\u041c\u0443\u0437\u0435\u0458 \u0440\u0443\u0434\u043d\u0438\u0447\u043a\u043e-\u0442\u0430\u043a\u043e\u0432\u0441\u043a\u043e\u0433 \u043a\u0440\u0430\u0458\u0430", "tourism": "museum"}}, "geometry": {"type": "Point", "coordinates": [20.461867, 44.0240126]}}, {"type": "Feature", "properties": {"type": "way", "id": 371503101, "tags": {"building": "yes", "name": "\u041d\u0430\u0440\u043e\u0434\u043d\u0438 \u043c\u0443\u0437\u0435\u0458", "name:sr": "\u041d\u0430\u0440\u043e\u0434\u043d\u0438 \u043c\u0443\u0437\u0435\u0458", "name:sr-Latn": "Narodni muzej", "tourism": "museum"}}, "geometry": {"type": "Point", "coordinates": [20.6837161, 43.7252948]}}, {"type": "Feature", "properties": {"type": "way", "id": 204250985, "tags": {"building": "yes", "name": "\u0421\u043f\u043e\u043c\u0435\u043d \u043a\u0443\u045b\u0430 - \u043c\u0443\u0437\u0435\u0458 \u201e\u041b\u0438\u0441\u0430\u201c \u0414\u0443\u043b\u0435\u043d\u0435", "name:sr": "\u0421\u043f\u043e\u043c\u0435\u043d \u043a\u0443\u045b\u0430 - \u043c\u0443\u0437\u0435\u0458 \u201e\u041b\u0438\u0441\u0430\u201c \u0414\u0443\u043b\u0435\u043d\u0435", "name:sr-Latn": "Spomen ku\u0107a - muzej \u201eLisa\u201c Dulene", "opening_hours": "Mo-Fr 08:30-20:00", "tourism": "museum"}}, "geometry": {"type": "Point", "coordinates": [20.9365184, 43.8813608]}}, {"type": "Feature", "properties": {"type": "way", "id": 83704830, "tags": {"building": "yes", "name": "\u041d\u0430\u0440\u043e\u0434\u043d\u0438 \u043c\u0443\u0437\u0435\u0458 \u0443 \u041a\u0440\u0430\u0433\u0443\u0458\u0435\u0432\u0446\u0443", "name:sr": "\u041d\u0430\u0440\u043e\u0434\u043d\u0438 \u043c\u0443\u0437\u0435\u0458 \u0443 \u041a\u0440\u0430\u0433\u0443\u0458\u0435\u0432\u0446\u0443", "name:sr-Latn": "Narodni muzej u Kragujevcu", "tourism": "museum"}}, "geometry": {"type": "Point", "coordinates": [20.9112795, 44.0094309]}}, {"type": "Feature", "properties": {"type": "way", "id": 107738900, "tags": {"building": "yes", "name": "\u041c\u0443\u0437\u0435\u0458 \u0421\u0442\u0430\u0440\u0430 \u041b\u0438\u0432\u043d\u0438\u0446\u0430", "name:sr": "\u041c\u0443\u0437\u0435\u0458 \u0421\u0442\u0430\u0440\u0430 \u041b\u0438\u0432\u043d\u0438\u0446\u0430", "name:sr-Latn": "Muzej Stara Livnica", "tourism": "museum"}}, "geometry": {"type": "Point", "coordinates": [20.9128667, 44.0068672]}}, {"type": "Feature", "properties": {"type": "way", "id": 696534058, "tags": {"fixme": "exact area", "name": "\u041c\u0443\u0437\u0435\u0458 \u0421\u0442\u0430\u0440\u0430 \u041b\u0438\u0432\u043d\u0438\u0446\u0430", "name:sr": "\u041c\u0443\u0437\u0435\u0458 \u0421\u0442\u0430\u0440\u0430 \u041b\u0438\u0432\u043d\u0438\u0446\u0430", "name:sr-Latn": "Muzej Stara Livnica", "tourism": "museum"}}, "geometry": {"type": "Point", "coordinates": [20.9120485, 44.0070782]}}, {"type": "Feature", "properties": {"type": "way", "id": 832551254, "tags": {"name": "\u041a\u0443\u045b\u0430 \u0402\u0443\u0440\u0435 \u0408\u0430\u043a\u0448\u0438\u045b\u0430", "tourism": "museum"}}, "geometry": {"type": "Point", "coordinates": [20.9125015, 44.0148823]}}, {"type": "Feature", "properties": {"type": "way", "id": 832556291, "tags": {"name": "\u041a\u0443\u045b\u0430 \u043f\u0440\u043e\u0442\u0435 \u041c\u0438\u043b\u043e\u0458\u0430 \u0411\u0430\u0440\u0458\u0430\u043a\u0442\u0430\u0440\u0435\u0432\u0438\u045b\u0430", "tourism": "museum"}}, "geometry": {"type": "Point", "coordinates": [20.9153589, 44.0139622]}}, {"type": "Feature", "properties": {"type": "way", "id": 292742396, "tags": {"building": "yes", "name": "\u041c\u0443\u0437\u0435\u0458 21. \u041e\u043a\u0442\u043e\u0431\u0430\u0440", "name:en": "Museum 21 October", "name:sr": "\u041c\u0443\u0437\u0435\u0458 21. \u041e\u043a\u0442\u043e\u0431\u0430\u0440", "name:sr-Latn": "Muzej 21. Oktobar", "tourism": "museum"}}, "geometry": {"type": "Point", "coordinates": [20.8943718, 44.0212871]}}, {"type": "Feature", "properties": {"type": "way", "id": 651630825, "tags": {"addr:city": "\u0410\u043b\u0435\u043a\u0441\u0430\u043d\u0434\u0440\u043e\u0432\u0430\u0446", "building": "yes", "name": "Zavi\u010dajni Muzej Vina", "tourism": "museum"}}, "geometry": {"type": "Point", "coordinates": [21.0445212, 43.4589871]}}, {"type": "Feature", "properties": {"type": "way", "id": 368149192, "tags": {"heritage": "2", "heritage:operator": "rzzsk", "heritage:ref": "SK 157", "leisure": "park", "name": "\u0413\u0440\u0430\u0434 \u0446\u0430\u0440\u0430 \u041b\u0430\u0437\u0430\u0440\u0430 - \u0410\u0440\u0445\u0435\u043e\u043b\u043e\u0448\u043a\u0438 \u043f\u0430\u0440\u043a", "wikidata": "Q2989057", "wikipedia": "sr:\u0413\u0440\u0430\u0434 \u0446\u0430\u0440\u0430 \u041b\u0430\u0437\u0430\u0440\u0430"}}, "geometry": {"type": "Point", "coordinates": [21.3216234, 43.5840785]}}, {"type": "Feature", "properties": {"type": "way", "id": 463210799, "tags": {"building": "yes", "name": "\u041d\u0430\u0440\u043e\u0434\u043d\u0438 \u043c\u0443\u0437\u0435\u0458 \u041a\u0440\u0443\u0448\u0435\u0432\u0430\u0446", "name:en": "National Museum", "tourism": "museum"}}, "geometry": {"type": "Point", "coordinates": [21.3215485, 43.5834768]}}, {"type": "Feature", "properties": {"type": "way", "id": 517267565, "tags": {"amenity": "place_of_worship", "building": "yes", "denomination": "serbian_orthodox", "heritage": "2", "heritage:operator": "rzzsk", "heritage:ref": "SK 157", "name": "\u0426\u0440\u043a\u0432\u0430 \u0421\u0432\u0435\u0442\u043e\u0433 \u043f\u0440\u0432\u043e\u043c\u0443\u0447\u0435\u043d\u0438\u043a\u0430 \u0421\u0442\u0435\u0444\u0430\u043d\u0430", "religion": "christian", "wikidata": "Q1809471", "wikipedia": "sr:\u0426\u0440\u043a\u0432\u0430 \u0421\u0432\u0435\u0442\u043e\u0433 \u043f\u0440\u0432\u043e\u043c\u0443\u0447\u0435\u043d\u0438\u043a\u0430 \u0421\u0442\u0435\u0444\u0430\u043d\u0430 \u0443 \u041a\u0440\u0443\u0448\u0435\u0432\u0446\u0443"}}, "geometry": {"type": "Point", "coordinates": [21.3212012, 43.5840651]}}, {"type": "Feature", "properties": {"type": "way", "id": 627546896, "tags": {"building": "yes", "name": "Zavi\u010dajni muzej", "opening_hours": "\"by appointment\"", "tourism": "museum", "wheelchair": "limited"}}, "geometry": {"type": "Point", "coordinates": [21.7109809, 43.5413163]}}, {"type": "Feature", "properties": {"type": "way", "id": 237990317, "tags": {"building": "yes", "name": "\u0420\u0430\u0432\u043d\u043e\u0433\u043e\u0440\u0441\u043a\u0438 \u0441\u043f\u043e\u043c\u0435\u043d-\u0434\u043e\u043c", "name:sr": "\u0420\u0430\u0432\u043d\u043e\u0433\u043e\u0440\u0441\u043a\u0438 \u0441\u043f\u043e\u043c\u0435\u043d-\u0434\u043e\u043c", "name:sr-Latn": "Ravnogorski spomen-dom", "tourism": "museum"}}, "geometry": {"type": "Point", "coordinates": [20.1553932, 44.1097831]}}, {"type": "Feature", "properties": {"type": "way", "id": 523849009, "tags": {"building": "yes", "int_name": "Narodni muzej Arandjelovac", "name": "\u041d\u0430\u0440\u043e\u0434\u043d\u0438 \u043c\u0443\u0437\u0435\u0458 \u0410\u0440\u0430\u043d\u0452\u0435\u043b\u043e\u0432\u0430\u0446", "name:sr": "\u041d\u0430\u0440\u043e\u0434\u043d\u0438 \u043c\u0443\u0437\u0435\u0458 \u0410\u0440\u0430\u043d\u0452\u0435\u043b\u043e\u0432\u0430\u0446", "name:sr-Latn": "Narodni muzej Aran\u0111elovac", "tourism": "museum"}}, "geometry": {"type": "Point", "coordinates": [20.5464304, 44.3045399]}}, {"type": "Feature", "properties": {"type": "way", "id": 295222511, "tags": {"building": "yes", "name": "\u041a\u043e\u043d\u0430\u043a", "tourism": "museum"}}, "geometry": {"type": "Point", "coordinates": [20.677912, 44.2521577]}}, {"type": "Feature", "properties": {"type": "way", "id": 797106542, "tags": {"building": "yes", "name": "\u041c\u0443\u0437\u0435\u0458 \u043a\u0440\u0430\u0459\u0430 \u041f\u0435\u0442\u0440\u0430 I \u041a\u0430\u0440\u0430\u0452\u043e\u0440\u0452\u0435\u0432\u0438\u045b\u0430", "tourism": "museum"}}, "geometry": {"type": "Point", "coordinates": [20.6828226, 44.247079]}}, {"type": "Feature", "properties": {"type": "way", "id": 295222509, "tags": {"building": "yes", "tourism": "museum"}}, "geometry": {"type": "Point", "coordinates": [20.6768649, 44.253349]}}, {"type": "Feature", "properties": {"type": "way", "id": 895668776, "tags": {"building": "yes", "museum": "history", "name": "Muzej Prvog Srpskog Ustanka", "tourism": "museum"}}, "geometry": {"type": "Point", "coordinates": [20.5845506, 44.3330028]}},