{"type": "FeatureCollection", "features": [{"type": "Feature", "properties": {"type": "way", "id": 203755793, "tags": {"heritage": "2", "heritage:operator": "uzkb", "historic": "monument", "loc_name": "Zlatna vrata", "name": "Slavoluk Sergijevaca", "name:de": "Sergierbogen", "name:en": "Arch of the Sergi", "name:es": "Arco de los Sergi", "name:hr": "Slavoluk Sergijevaca", "name:it": "Arco dei Sergi", "name:pl": "\u0141uk Sergiusza (Z\u0142ota Brama)", "ref:hr:uzkb": "N-33", "start_date": "1 BC", "wikidata": "Q952381", "wikipedia": "en:Arch of the Sergii"}}, "geometry": {"type": "Point", "coordinates": [13.8470155, 44.8682612]}}, {"type": "Feature", "properties": {"type": "way", "id": 119102927, "tags": {"building": "yes", "dedicated:wikidata": "Q1405", "heritage": "2", "heritage:operator": "uzkb", "historic": "archaeological_site", "historic:civilization": "ancient_roman", "name": "Augustov Hram", "name:de": "Augustus-Tempel", "name:en": "Temple of Augustus", "name:es": "Templo de Augusto", "name:it": "Tempio di Augusto", "name:pl": "\u015awi\u0105tynia Oktawiana Augusta", "ref:hr:uzkb": "N-10", "wikidata": "Q770030", "wikipedia": "en:Temple of Augustus (Pula)"}}, "geometry": {"type": "Point", "coordinates": [13.8418398, 44.8701843]}}, {"type": "Feature", "properties": {"type": "way", "id": 167293705, "tags": {"building": "ruins", "heritage": "2", "heritage:operator": "uzkb", "historic": "archaeological_site", "name": "Malo rimsko kazali\u0161te", "name:hr": "Malo rimsko kazali\u0161te", "name:it": "Teatro romano minore", "name:pl": "Teatr rzymski (wykopaliska)", "ref:hr:uzkb": "N-11", "start_date": "1", "wikidata": "Q16112130", "wikimedia_commons": "File:Small_Roman_Theatre%2C_Pula.JPG", "wikipedia": "hr:Malo rimsko kazali\u0161te u Puli"}}, "geometry": {"type": "Point", "coordinates": [13.8468272, 44.8701691]}}, {"type": "Feature", "properties": {"type": "way", "id": 203756081, "tags": {"barrier": "sa", "building": "yes", "heritage": "2", "heritage:operator": "uzkb", "historic": "city_gate", "name": "Dvojna vrata", "name:en": "Roman Twin gates", "name:it": "Porta Gemina", "name:la": "Porta Gemina", "name:pl": "Podw\u00f3jna Brama", "ref:hr:uzkb": "N-7", "wikidata": "Q12630293", "wikipedia": "it:Porta Gemina (Pola)"}}, "geometry": {"type": "Point", "coordinates": [13.8476747, 44.8708948]}}, {"type": "Feature", "properties": {"type": "way", "id": 122654075, "tags": {"addr:housenumber": "7", "addr:street": "Put \u0106okovca", "alt_name": "Samostan svetog Kuzme i Damjana", "amenity": "monastery", "building": "monastery", "denomination": "catholic", "heritage": "2", "heritage:operator": "uzkb", "historic": "monastery", "name": "Samostan \u0106okovac", "ref:hr:uzkb": "N-37", "religion": "christian", "website": "https://samostan-cokovac.hr/", "wikidata": "Q3689461"}}, "geometry": {"type": "Point", "coordinates": [15.4052869, 43.9256984]}}, {"type": "Feature", "properties": {"type": "way", "id": 162544749, "tags": {"amenity": "place_of_worship", "architect:wikidata": "Q510203", "building": "cathedral", "building:colour": "#cbcbcd", "building:material": "sandstone", "charge": "30 HRK", "denomination": "roman_catholic", "fee": "yes", "heritage": "1", "heritage:operator": "uzkb", "name": "Katedrala svetog Jakova", "name:cs": "Katedr\u00e1la svat\u00e9ho Jakuba", "opening_hours": "Mo-Su 09:30-19:30", "ref:hr:uzkb": "N-2", "ref:whc": "963", "religion": "christian", "roof:colour": "#93878b", "roof:material": "roof_tiles", "whc:criteria": "(i),(ii),(iv)", "whc:inscription_date": "2000", "wikidata": "Q391973", "wikipedia": "hr:Katedrala sv. Jakova u \u0160ibeniku"}}, "geometry": {"type": "Point", "coordinates": [15.8890991, 43.7356569]}}, {"type": "Feature", "properties": {"type": "way", "id": 125389451, "tags": {"area": "yes", "barrier": "city_wall", "heritage": "2", "heritage:operator": "uzkb", "historic": "ruins", "name": "Ma\u0161kovi\u0107a han", "ref:hr:uzkb": "N-38", "tourism": "attraction"}}, "geometry": {"type": "Point", "coordinates": [15.5488393, 43.9541148]}}, {"type": "Feature", "properties": {"type": "way", "id": 298882937, "tags": {"area": "yes", "heritage": "2", "heritage:operator": "uzkb", "historic": "castle", "name": "Ka\u0161tel Benkovac", "ref:hr:uzkb": "N-27"}}, "geometry": {"type": "Point", "coordinates": [15.6097828, 44.0338694]}}, {"type": "Feature", "properties": {"type": "way", "id": 298882938, "tags": {"amenity": "place_of_worship", "building": "yes", "denomination": "catholic", "heritage": "2", "heritage:operator": "uzkb", "name": "crkva svetog Ante", "ref:hr:uzkb": "N-27", "religion": "christian"}}, "geometry": {"type": "Point", "coordinates": [15.6099279, 44.0337533]}}, {"type": "Feature", "properties": {"type": "way", "id": 740799117, "tags": {"area": "yes", "heritage": "2", "heritage:operator": "uzkb;whc", "name": "Povijesni grad Trogir", "name:de": "Altstadt von Trogir", "name:en": "Historic City of Trogir", "name:lt": "Istorinis Trogiro miestas", "ref:hr:uzkb": "N-5", "start_date": "1997", "tourism": "attraction", "wikidata": "Q17132483"}}, "geometry": {"type": "Point", "coordinates": [16.2493218, 43.516531]}}, {"type": "Feature", "properties": {"type": "way", "id": 124205148, "tags": {"heritage": "1", "heritage:operator": "uzkb", "historic": "archaeological_site", "historic:civilization": "roman", "name": "Dioklecijanova pala\u010da", "name:cs": "Diokleci\u00e1n\u016fv pal\u00e1c", "name:en": "Diocletian's Palace", "name:fr": "Palais de Diocl\u00e9tien", "name:ko": "\ub514\uc624\ud074\ub808\ud2f0\uc544\ub204\uc2a4 \uad81\uc804", "ref:hr:uzkb": "N-3", "site_type": "city", "tourism": "attraction", "wikidata": "Q322287", "wikipedia": "hr:Dioklecijanova pala\u010da"}}, "geometry": {"type": "Point", "coordinates": [16.440238, 43.5083414]}}, {"type": "Feature", "properties": {"type": "way", "id": 229297699, "tags": {"amenity": "place_of_worship", "building": "church", "denomination": "roman_catholic", "heritage": "2", "heritage:operator": "uzkb", "name": "Crkva svetog Kri\u017ea", "name:de": "Heilig-Kreuz-Kirche", "name:en": "Church of the Holy Cross", "ref:hr:uzkb": "N-34", "religion": "christian", "wikidata": "Q1140629", "wikipedia": "hr:Crkva sv. Kri\u017ea u Ninu"}}, "geometry": {"type": "Point", "coordinates": [15.184464, 44.2427871]}}, {"type": "Feature", "properties": {"type": "way", "id": 388957962, "tags": {"amenity": "place_of_worship", "building": "church", "denomination": "roman_catholic", "heritage": "2", "heritage:operator": "uzkb", "name": "\u017dupna crkva sv. Anselma", "name:de": "Pfarrkirche St. Anselmus", "ref:hr:uzkb": "N-35", "religion": "christian", "service_times": "Mo-Sa 08:30; Su 08:30,11:30"}}, "geometry": {"type": "Point", "coordinates": [15.1836823, 44.2424684]}}, {"type": "Feature", "properties": {"type": "way", "id": 388957963, "tags": {"building": "bell_tower", "heritage": "2", "heritage:operator": "uzkb", "man_made": "tower", "name": "Zvonik crkve Sv. Anselma", "ref:hr:uzkb": "N-35", "tower:type": "bell_tower"}}, "geometry": {"type": "Point", "coordinates": [15.183456, 44.2424424]}}, {"type": "Feature", "properties": {"type": "way", "id": 388956775, "tags": {"heritage": "2", "heritage:operator": "uzkb", "historic": "archaeological_site", "ref:hr:uzkb": "N-34"}}, "geometry": {"type": "Point", "coordinates": [15.184508, 44.2428378]}}, {"type": "Feature", "properties": {"type": "way", "id": 298872724, "tags": {"amenity": "place_of_worship", "building": "church", "heritage": "2", "heritage:operator": "uzkb", "name": "crkva svetog Nikole", "ref:hr:uzkb": "N-8", "religion": "christian", "start_date": "1446"}}, "geometry": {"type": "Point", "coordinates": [15.5765638, 44.0593995]}}, {"type": "Feature", "properties": {"type": "way", "id": 314127943, "tags": {"amenity": "place_of_worship", "building": "yes", "heritage": "2", "heritage:operator": "uzkb", "name": "crkva svetog Martina", "ref:hr:uzkb": "N-36", "religion": "christian", "start_date": "C6"}}, "geometry": {"type": "Point", "coordinates": [15.5680716, 44.1586726]}}, {"type": "Feature", "properties": {"type": "way", "id": 181747080, "tags": {"amenity": "place_of_worship", "building": "church", "description": "Keys are kept in the village of Beram (Vermo), house no. 38. Please call the mobile phone number posted on signs in Beram. Access fee 20 HRK (2020).", "heritage": "2", "heritage:operator": "uzkb", "name": "crkva svete Marije na \u0160kriljinah", "name:de": "Maria in den Felsen", "name:hr": "Sv.Marija na \u0160kriljinah", "name:it": "Santa Maria delle Lastre", "ref:hr:uzkb": "N-6", "religion": "christian", "start_date": "C15", "wikidata": "Q1896482"}}, "geometry": {"type": "Point", "coordinates": [13.9071355, 45.2565971]}}, {"type": "Feature", "properties": {"type": "way", "id": 351919589, "tags": {"boundary": "protected_area", "heritage": "2", "heritage:operator": "uzkb", "historic": "yes", "leisure": "park", "name": "Kulturno dobro dvorac Trako\u0161\u0107an", "name:de": "Kulturgut Schloss Trako\u0161\u0107an mit Parkanlage", "name:en": "The cultural monument of Trako\u0161\u0107an Castle with its park", "opening_hours": "Apr-Oct:9-18h; Nov-Mar:9-16h", "ref:hr:uzkb": "N-18"}}, "geometry": {"type": "Point", "coordinates": [15.9395205, 46.2603392]}}, {"type": "Feature", "properties": {"type": "way", "id": 328324342, "tags": {"amenity": "place_of_worship", "building": "church", "denomination": "catholic", "heritage": "2", "heritage:operator": "uzkb", "name": "kapelica Svetog Jurja", "ref:hr:uzkb": "N-13", "religion": "christian"}}, "geometry": {"type": "Point", "coordinates": [16.025678, 46.2132548]}}, {"type": "Feature", "properties": {"type": "way", "id": 318882306, "tags": {"amenity": "place_of_worship", "building": "church", "heritage": "2", "heritage:operator": "uzkb", "name": "crkva Bezgre\u0161nog Za\u010de\u0107a Bla\u017eene Djevice Marije", "ref:hr:uzkb": "N-12", "religion": "christian"}}, "geometry": {"type": "Point", "coordinates": [16.0398759, 46.20928]}}, {"type": "Feature", "properties": {"type": "way", "id": 318882307, "tags": {"building": "yes", "heritage": "2", "heritage:operator": "uzkb", "historic": "monastery", "name": "Pavlinski Samostan", "ref:hr:uzkb": "N-12", "religion": "christian"}}, "geometry": {"type": "Point", "coordinates": [16.0399711, 46.2095241]}}, {"type": "Feature", "properties": {"type": "way", "id": 276972695, "tags": {"building": "yes", "heritage": "2", "heritage:operator": "uzkb", "name": "Pala\u010da Pata\u010di\u0107", "ref:hr:uzkb": "N-22", "wikidata": "Q12639212", "wikipedia": "hr:Pala\u010da Pata\u010di\u0107 u Vara\u017edinu"}}, "geometry": {"type": "Point", "coordinates": [16.3370591, 46.3077024]}}, {"type": "Feature", "properties": {"type": "way", "id": 229153349, "tags": {"alt_name": "Vara\u017edinska katedrala", "amenity": "place_of_worship", "building": "church", "denomination": "catholic", "heritage": "2", "heritage:operator": "uzkb", "int_name": "Cathedral of St. Mary to Heaven Ascended", "mapillary": "lgfYotwo28nHRI7zHax1bw", "name": "crkva Uznesenja Bla\u017eene Djevice Marije", "name:de": "Domkirche St.-Maria-Himmelsk\u00f6nigin-Kirche", "name:en": "Cathedral of St. Mary to Heaven Ascended", "name:fr": "Cath\u00e9drale de l'Assomption de la Bienheureuse Vierge Marie", "name:hu": "Sz\u00e9kesegyh\u00e1z", "ref:hr:uzkb": "N-19", "religion": "christian", "wikidata": "Q2585341", "wikipedia": "hr:Vara\u017edinska katedrala"}}, "geometry": {"type": "Point", "coordinates": [16.3386434, 46.307519]}}, {"type": "Feature", "properties": {"type": "way", "id": 380626098, "tags": {"amenity": "place_of_worship", "building": "church", "building:architecture": "baroque", "denomination": "roman_catholic", "heritage": "2", "heritage:operator": "uzkb", "name": "Crkva svetog Jeronima", "ref:hr:uzkb": "N-26", "religion": "christian", "source": "local knowledge", "start_date": "1738"}}, "geometry": {"type": "Point", "coordinates": [16.2840207, 46.4998377]}}, {"type": "Feature", "properties": {"type": "way", "id": 163105777, "tags": {"addr:street": "Perivoj Zrinskih", "castle_type": "fortress", "heritage": "2", "heritage:operator": "uzkb", "historic": "castle", "name": "Stari grad Zrinskih", "name:en": "Zrinski Castle", "name:hu": "Zr\u00ednyi v\u00e1r", "ref:hr:uzkb": "N-23", "wikidata": "Q227176", "wikipedia": "hr:Stari grad \u010cakovec"}}, "geometry": {"type": "Point", "coordinates": [16.4319736, 46.3889254]}}, {"type": "Feature", "properties": {"type": "way", "id": 377967284, "tags": {"amenity": "place_of_worship", "building": "chapel", "denomination": "roman_catholic", "heritage": "2", "heritage:operator": "uzkb", "name": "Kapela svete Jelene", "ref:hr:uzkb": "N-25", "religion": "christian"}}, "geometry": {"type": "Point", "coordinates": [16.4186149, 46.4041521]}}, {"type": "Feature", "properties": {"type": "way", "id": 388955412, "tags": {"amenity": "place_of_worship", "building": "yes", "denomination": "catholic", "heritage": "2", "heritage:operator": "uzkb", "name": "crkva svetog Martina", "ref:hr:uzkb": "N-41", "religion": "christian", "start_date": "C13"}}, "geometry": {"type": "Point", "coordinates": [17.8139862, 45.2103688]}}, {"type": "Feature", "properties": {"type": "way", "id": 380051108, "tags": {"heritage": "2", "heritage:operator": "uzkb", "historic": "fort", "name": "Tvr\u0111ava Brod", "name:de": "Festung Brod", "name:en": "Brod Fortress", "name:hu": "Br\u00f3di er\u0151d", "ref:hr:uzkb": "N-42", "tourism": "attraction", "wikidata": "Q1276499", "wikipedia": "hr:Tvr\u0111ava Brod"}}, "geometry": {"type": "Point", "coordinates": [18.0073482, 45.1558696]}}, {"type": "Feature", "properties": {"type": "way", "id": 388949492, "tags": {"amenity": "place_of_worship", "building": "yes", "heritage": "2", "heritage:operator": "uzkb", "name": "crkva svetog Petra", "ref:hr:uzkb": "N-39", "religion": "christian", "start_date": "C15"}}, "geometry": {"type": "Point", "coordinates": [17.9450296, 45.2277531]}}, {"type": "Feature", "properties": {"type": "way", "id": 388950890, "tags": {"amenity": "place_of_worship", "building": "yes", "heritage": "2", "heritage:operator": "uzkb", "name": "crkva svetog Stjepana", "ref:hr:uzkb": "N-40", "religion": "christian", "start_date": "C15"}}, "geometry": {"type": "Point", "coordinates": [17.9811021, 45.2252676]}}, {"type": "Feature", "properties": {"type": "relation", "id": 3311608, "tags": {"alt_name": "Starigradsko polje", "heritage": "1", "heritage:operator": "whc", "historic": "heritage", "int_name": "Stari Grad plain", "landuse": "farmland", "name": "Starogradsko polje", "name:de": "Ebene von Stari Grad", "name:en": "Stari Grad Plain", "name:es": "Llanura de Stari Grad", "name:fr": "Plaine de Stari Grad", "name:hu": "Stari Grad-s\u00edks\u00e1g", "name:lt": "Starigrado lyguma", "ref:whc": "1240", "type": "multipolygon", "whc:criteria": "2;3;4", "whc:inscription_date": "2008", "wikidata": "Q614212", "wikipedia": "hr:Starogradsko polje"}}, "geometry": {"type": "Point", "coordinates": [16.6352463, 43.1825066]}}, {"type": "Feature", "properties": {"type": "relation", "id": 2294262, "tags": {"barrier": "city_wall", "heritage": "1", "heritage:operator": "uzkb", "name": "Dubrova\u010dke gradske zidine", "name:en": "Walls of Dubrovnik", "ref:hr:uzkb": "N-1", "tourism": "attraction", "type": "site", "wikidata": "Q931733", "wikipedia": "hr:Dubrova\u010dke gradske zidine"}}, "geometry": {"type": "Point", "coordinates": [18.1088145, 42.6409568]}}, {"type": "Feature", "properties": {"type": "relation", "id": 9425201, "tags": {"building": "yes", "height": "32", "heritage": "2", "heritage:operator": "uzkb", "historic": "archaeological_site", "historic:civilization": "ancient_roman", "loc_name": "Divi\u0107 grad", "name": "Arena Pula", "name:cs": "Amfiter\u00e1tr v Pule", "name:de": "Amphitheater Pula", "name:en": "Pula Amphitheatre", "name:it": "Arena di Pola", "name:pl": "Amfiteatr w Puli", "name:ru": "\u041a\u043e\u043b\u0438\u0437\u0435\u0439 \u0432 \u041f\u0443\u043b\u0435", "ref:hr:uzkb": "N-9", "site_type": "amphitheatre", "start_date": "79", "tourism": "attraction", "type": "multipolygon", "wikidata": "Q474998", "wikipedia": "hr:Amfiteatar u Puli"}}, "geometry": {"type": "Point", "coordinates": [13.8501587, 44.8732231]}}, {"type": "Feature", "properties": {"type": "relation", "id": 1942812, "tags": {"amenity": "monastery", "building": "yes", "heritage": "2", "heritage:operator": "uzkb", "name": "Samostan svetog Duje", "ref:hr:uzkb": "N-28", "religion": "christian", "type": "multipolygon"}}, "geometry": {"type": "Point", "coordinates": [15.3927325, 43.9364279]}}, {"type": "Feature", "properties": {"type": "relation", "id": 10047860, "tags": {"boundary": "national_park", "heritage": "1", "leisure": "nature_reserve", "name": "Nacionalni park Plitvi\u010dka jezera", "name:cs": "N\u00e1rodn\u00ed park Plitvick\u00e1 jezera", "name:en": "Plitvice Lakes National Park", "name:es": "Parque nacional de los Lagos de Plitvice", "name:it": "Parco nazionale dei laghi di Plitvice", "name:ko": "\ud50c\ub9ac\ud2b8\ube44\uccb4 \uad6d\ub9bd\uacf5\uc6d0", "name:sk": "N\u00e1rodn\u00fd park Plitvick\u00e9 jazer\u00e1", "name:sl": "Plitvi\u010dka jezera", "protect_class": "2", "start_date": "1949-04-08", "type": "boundary", "whc:criteria": "(vii),(viii),(ix)", "whc:inscription_date": "1979", "wikidata": "Q189849", "wikipedia": "hr:Nacionalni park Plitvi\u010dka jezera"}}, "geometry": {"type": "Point", "coordinates": [15.5830279, 44.8518946]}}, {"type": "Feature", "properties": {"type": "relation", "id": 3971841, "tags": {"heritage": "1", "heritage:operator": "whc;uzkb", "name": "Kompleks Eufrazijeve bazilike", "ref:hr:uzkb": "N-4", "ref:whc": "809", "type": "site", "whc:criteria": "(ii),(iii),(iv)", "whc:inscription_date": "1997"}}, "geometry": {"type": "Point", "coordinates": [13.5933934, 45.2286]}}, {"type": "Feature", "properties": {"type": "relation", "id": 3247915, "tags": {"building": "yes", "heritage": "2", "heritage:operator": "uzkb", "historic": "castle", "mapillary": "Ib9FwldQ75HUX9DLjBXD5Q", "name": "Stari grad", "name:de": "Schloss Vara\u017edin", "name:en": "Vara\u017edin Old Castle", "name:fr": "Ch\u00e2teau de Vara\u017edin", "name:hu": "Varasdi v\u00e1r", "ref:hr:uzkb": "N-21", "tourism": "attraction", "type": "multipolygon", "wikidata": "Q1392307", "wikipedia": "hr:Stari grad Vara\u017edin"}}, "geometry": {"type": "Point", "coordinates": [16.33422, 46.3101681]}}]}