{"type": "FeatureCollection", "features": [{"type": "Feature", "properties": {"type": "node", "id": 2330621038, "tags": {"name": "Arheolo\u0161ki muzej", "tourism": "museum"}}, "geometry": {"type": "Point", "coordinates": [16.7175825, 42.9609137]}}, {"type": "Feature", "properties": {"type": "node", "id": 5902432176, "tags": {"name": "Muzej Hvarske ba\u0161tine", "tourism": "museum", "website": "http://mhb.mdc.hr"}}, "geometry": {"type": "Point", "coordinates": [16.4458214, 43.1715291]}}, {"type": "Feature", "properties": {"type": "node", "id": 1390738099, "tags": {"int_name": "Fishman museum", "name": "Ribarski muzej", "tourism": "museum"}}, "geometry": {"type": "Point", "coordinates": [16.671316, 43.1813789]}}, {"type": "Feature", "properties": {"type": "node", "id": 4234037724, "tags": {"addr:city": "Jelsa", "addr:housenumber": "477", "addr:postcode": "21465", "addr:street": "Lu\u010dica", "name": "Muzej op\u0107ine Jelsa", "opening_hours": "Jun-Sep 10:00-13:00,19:00-23:00", "tourism": "museum"}}, "geometry": {"type": "Point", "coordinates": [16.6936432, 43.1614245]}}, {"type": "Feature", "properties": {"type": "node", "id": 731387731, "tags": {"name": "Etno zbirka Barilo", "tourism": "museum"}}, "geometry": {"type": "Point", "coordinates": [16.7886926, 42.9376589]}}, {"type": "Feature", "properties": {"type": "node", "id": 1720825294, "tags": {"name": "Etnographic museum \"Toreta\"", "tourism": "museum"}}, "geometry": {"type": "Point", "coordinates": [16.8920845, 42.9280984]}}, {"type": "Feature", "properties": {"type": "node", "id": 3972087361, "tags": {"name": "Pomorski muzej Orebi\u0107", "tourism": "museum"}}, "geometry": {"type": "Point", "coordinates": [17.1794393, 42.974118]}}, {"type": "Feature", "properties": {"type": "node", "id": 2391967584, "tags": {"name": "Lapidarium", "tourism": "museum"}}, "geometry": {"type": "Point", "coordinates": [17.8897173, 42.7855054]}}, {"type": "Feature", "properties": {"type": "node", "id": 2480471256, "tags": {"name": "Bukovac House", "tourism": "museum"}}, "geometry": {"type": "Point", "coordinates": [18.216933, 42.5831398]}}, {"type": "Feature", "properties": {"type": "node", "id": 7968410806, "tags": {"tourism": "museum"}}, "geometry": {"type": "Point", "coordinates": [18.3413659, 42.5488713]}}, {"type": "Feature", "properties": {"type": "node", "id": 2344407831, "tags": {"name": "Etnografski muzej", "name:en": "Etnographic Museum Rupe", "opening_hours": "Mo-Su 09:00-16:00", "tourism": "museum"}}, "geometry": {"type": "Point", "coordinates": [18.1073517, 42.6403381]}}, {"type": "Feature", "properties": {"type": "node", "id": 2941765515, "tags": {"name": "Dom Marina Dr\u017ei\u0107a", "tourism": "museum"}}, "geometry": {"type": "Point", "coordinates": [18.1080936, 42.6408475]}}, {"type": "Feature", "properties": {"type": "node", "id": 3040735714, "tags": {"name": "Pomorski muzej", "name:en": "Maritime Museum", "opening_hours": "Tu-Su 09:00-16:00", "tourism": "museum", "wikidata": "Q12640048", "wikipedia": "hr:Pomorski muzej u Dubrovniku"}}, "geometry": {"type": "Point", "coordinates": [18.1122809, 42.6399977]}}, {"type": "Feature", "properties": {"type": "node", "id": 3040735718, "tags": {"name": "Natural-History Museum", "tourism": "museum"}}, "geometry": {"type": "Point", "coordinates": [18.1095222, 42.6396709]}}, {"type": "Feature", "properties": {"type": "node", "id": 4392333491, "tags": {"name": "Kulturno-povijesni muzej", "name:de": "kulturhistorisches Museum", "name:en": "Cultural-Historical Museum", "name:hr": "Kulturno-povijesni muzej", "opening_hours": "Mo-Su 09:00-18:00", "phone": "+385020321422", "tourism": "museum"}}, "geometry": {"type": "Point", "coordinates": [18.1105466, 42.640399]}}, {"type": "Feature", "properties": {"type": "node", "id": 6355976985, "tags": {"name:en": "Dulcic Masle Pulitika Gallery", "name:zh": "\u73fe\u4ee3\u85dd\u8853\u535a\u7269\u9928", "tourism": "museum"}}, "geometry": {"type": "Point", "coordinates": [18.1108588, 42.6400173]}}, {"type": "Feature", "properties": {"type": "node", "id": 7232546785, "tags": {"addr:housenumber": "3", "addr:street": "Ulica Svetog Kri\u017ea", "name:en": "Red History Museum", "opening_hours": "Mo-Su 10:00-18:00", "phone": "+385 91 528 7744", "tourism": "museum", "website": "https://www.redhistorymuseum.com/"}}, "geometry": {"type": "Point", "coordinates": [18.0870952, 42.659166]}}, {"type": "Feature", "properties": {"type": "node", "id": 5813516443, "tags": {"addr:street": "Od Tabakarije", "name": "Love Stories Museum", "tourism": "museum", "website": "https://lovestoriesmuseum.com/"}}, "geometry": {"type": "Point", "coordinates": [18.1046945, 42.6416929]}}, {"type": "Feature", "properties": {"type": "node", "id": 7865156078, "tags": {"name": "Muzej franjeva\u010dkog samostana", "tourism": "museum"}}, "geometry": {"type": "Point", "coordinates": [18.1075454, 42.6418297]}}, {"type": "Feature", "properties": {"type": "node", "id": 1893060159, "tags": {"name": "War Photo Limited", "tourism": "museum"}}, "geometry": {"type": "Point", "coordinates": [18.1088482, 42.6415381]}}, {"type": "Feature", "properties": {"type": "node", "id": 6355957188, "tags": {"name": "Pala\u010da Sponza", "name:en": "Sponza palace", "name:zh": "\u8056\u65b9\u6fdf\u5404\u4fee\u9053\u9662", "tourism": "museum"}}, "geometry": {"type": "Point", "coordinates": [18.1106833, 42.6411407]}}, {"type": "Feature", "properties": {"type": "node", "id": 7779148644, "tags": {"museum": "history", "name": "Jewish Museum of Dubrovnik", "opening_hours": "Mo-Fr 09:00-13:00", "tourism": "museum", "wheelchair": "no"}}, "geometry": {"type": "Point", "coordinates": [18.1100752, 42.6413917]}}, {"type": "Feature", "properties": {"type": "node", "id": 7865041329, "tags": {"name": "Muzej dominikanskog samostana", "tourism": "museum"}}, "geometry": {"type": "Point", "coordinates": [18.1112717, 42.6418509]}}, {"type": "Feature", "properties": {"type": "node", "id": 5298313629, "tags": {"name": "Muzej domovinskog rata", "name:en": "Homeland War Museum", "name:ko": "\uad6d\ud1a0 \uc804\uc7c1 \ubc15\ubb3c\uad00", "tourism": "museum", "wikidata": "Q12637458", "wikipedia": "hr:Muzej Domovinskog rata (Dubrovnik)"}}, "geometry": {"type": "Point", "coordinates": [18.1106082, 42.6499358]}}, {"type": "Feature", "properties": {"type": "node", "id": 4151562789, "tags": {"name": "Lapidarium Ston", "tourism": "museum"}}, "geometry": {"type": "Point", "coordinates": [17.6954935, 42.8379414]}}, {"type": "Feature", "properties": {"type": "node", "id": 4241069692, "tags": {"addr:city": "Metkovi\u0107", "addr:housenumber": "4", "addr:postcode": "20350", "addr:street": "Kralja Zvonimira", "name": "Prirodoslovni muzej", "tourism": "museum"}}, "geometry": {"type": "Point", "coordinates": [17.648445, 43.052364]}}, {"type": "Feature", "properties": {"type": "node", "id": 1301920901, "tags": {"addr:city": "Pula", "addr:housenumber": "6", "addr:postcode": "52100", "addr:street": "Gradinski uspon", "name": "Povijesni i pomorski muzej Istre", "name:de": "Historisches und Maritimes Museum Istriens", "name:en": "Historical and Maritime Museum of Istria", "name:it": "Museo Storico e navale dell'Istria", "name:pl": "Historyczne i Muzeum Morskie w Istrii", "name:sv": "Istriens sj\u00f6historiska museum", "tourism": "museum", "website": "http://ppmi.hr/", "wheelchair": "yes", "wikidata": "Q12640247", "wikipedia": "hr:Povijesni i pomorski muzej Istre"}}, "geometry": {"type": "Point", "coordinates": [13.84528, 44.8702433]}}, {"type": "Feature", "properties": {"type": "node", "id": 2583958661, "tags": {"name": "Zerostrasse", "tourism": "museum"}}, "geometry": {"type": "Point", "coordinates": [13.8433091, 44.8707438]}}, {"type": "Feature", "properties": {"type": "node", "id": 3741196839, "tags": {"name": "Zerostrasse", "tourism": "museum"}}, "geometry": {"type": "Point", "coordinates": [13.8472841, 44.8707976]}}, {"type": "Feature", "properties": {"type": "node", "id": 5859067591, "tags": {"addr:street": "Svetog Teodora", "name": "Olive Oil", "tourism": "museum"}}, "geometry": {"type": "Point", "coordinates": [13.8456282, 44.8718845]}}, {"type": "Feature", "properties": {"type": "node", "id": 3010170999, "tags": {"name": "Arena Pula", "name:it": "Arena di Pola", "tourism": "museum"}}, "geometry": {"type": "Point", "coordinates": [13.849509, 44.873135]}}, {"type": "Feature", "properties": {"type": "node", "id": 3039988241, "tags": {"name": "Permanent exhibition of Salt", "name:de": "Salz - Ausstellung", "tourism": "museum"}}, "geometry": {"type": "Point", "coordinates": [15.0523417, 44.4427616]}}, {"type": "Feature", "properties": {"type": "node", "id": 4408241089, "tags": {"addr:city": "Mali Lo\u0161inj", "addr:housenumber": "13", "addr:postcode": "51550", "addr:street": "Riva Lo\u0161injskih Kapetana", "email": "info@muzejapoksiomena.hr", "name": "The Apoksiomen museum", "name:en": "Apoxyomenos Museum", "phone": "00385(0)51734260", "tourism": "museum", "website": "http://www.muzejapoksiomena.hr", "wheelchair": "limited"}}, "geometry": {"type": "Point", "coordinates": [14.4670299, 44.5348393]}}, {"type": "Feature", "properties": {"type": "node", "id": 5913221525, "tags": {"tourism": "museum"}}, "geometry": {"type": "Point", "coordinates": [14.3928908, 44.6936401]}}, {"type": "Feature", "properties": {"type": "node", "id": 462012378, "tags": {"tourism": "museum"}}, "geometry": {"type": "Point", "coordinates": [14.3311751, 44.8884233]}}, {"type": "Feature", "properties": {"type": "node", "id": 8078032307, "tags": {"fee": "no", "museum": "history;technology", "museum_type": "municipal", "name": "Muzej ov\u010darstva", "name:de": "Museum der Schafzucht", "name:en": "sheep Breeding Museum", "opening_hours": "24/7", "operator": "oro\u010dna grupa Muzej ov\u010darstva cres", "tourism": "museum"}}, "geometry": {"type": "Point", "coordinates": [14.3316448, 44.8883709]}}, {"type": "Feature", "properties": {"type": "node", "id": 1854827853, "tags": {"name": "Gradski muzej Novalja", "opening_hours": "Mo-Sa 9:00-13:00", "tourism": "museum", "wheelchair": "no"}}, "geometry": {"type": "Point", "coordinates": [14.8833287, 44.5580066]}}, {"type": "Feature", "properties": {"type": "node", "id": 1848767202, "tags": {"name": "Gradski lapidarij", "tourism": "museum", "wheelchair": "no"}}, "geometry": {"type": "Point", "coordinates": [14.7589535, 44.7573062]}}, {"type": "Feature", "properties": {"type": "node", "id": 293728331, "tags": {"name": "Sv. Eufemija", "tourism": "museum"}}, "geometry": {"type": "Point", "coordinates": [14.7399894, 44.7687541]}}, {"type": "Feature", "properties": {"type": "node", "id": 2416411805, "tags": {"name": "Zavi\u010dajni muzej", "tourism": "museum"}}, "geometry": {"type": "Point", "coordinates": [15.4402176, 43.937899]}}, {"type": "Feature", "properties": {"type": "node", "id": 4285894984, "tags": {"name": "Muzej Betinske drvene brodogradnje", "opening_hours": "24/7", "tourism": "museum"}}, "geometry": {"type": "Point", "coordinates": [15.6041077, 43.8232635]}}, {"type": "Feature", "properties": {"type": "node", "id": 5107831671, "tags": {"tourism": "museum"}}, "geometry": {"type": "Point", "coordinates": [15.6044886, 43.8232618]}}, {"type": "Feature", "properties": {"type": "node", "id": 3010710960, "tags": {"addr:city": "\u0160ibenik", "addr:housenumber": "3", "addr:postcode": "22000", "addr:street": "Gradska Vrata", "name": "Muzej Grada \u0160ibenika", "name:en": "\u0160ibenik Museum", "opening_hours": "Mo-Fr 08:00-20:00; Sa,Su 10:00-20:00; PH 10:00-15:00", "tourism": "museum", "website": "http://www.muzej-sibenik.hr/hrv/default.asp", "wheelchair": "limited"}}, "geometry": {"type": "Point", "coordinates": [15.8891259, 43.7353735]}}, {"type": "Feature", "properties": {"type": "node", "id": 3766874689, "tags": {"indoor": "room", "name": "Spomen soba Dra\u017een Petrovi\u0107", "tourism": "museum"}}, "geometry": {"type": "Point", "coordinates": [15.9023384, 43.7304008]}}, {"type": "Feature", "properties": {"type": "node", "id": 1378744915, "tags": {"name": "Kamenjak", "tourism": "museum"}}, "geometry": {"type": "Point", "coordinates": [15.6110762, 43.8944956]}}, {"type": "Feature", "properties": {"type": "node", "id": 1245176417, "tags": {"name": "Muzejska arheolo\u0161ka zbirka", "tourism": "museum"}}, "geometry": {"type": "Point", "coordinates": [15.8423523, 43.9244815]}}, {"type": "Feature", "properties": {"type": "node", "id": 5026119218, "tags": {"name": "Muzej Grada Trogira", "tourism": "museum"}}, "geometry": {"type": "Point", "coordinates": [16.2506656, 43.5173297]}}, {"type": "Feature", "properties": {"type": "node", "id": 1251177143, "tags": {"name": "Muzej Dominikanskog Samostana", "tourism": "museum"}}, "geometry": {"type": "Point", "coordinates": [16.6667338, 43.2607302]}}, {"type": "Feature", "properties": {"type": "node", "id": 1563850553, "tags": {"name": "Stara gradska vije\u0107nica", "opening_hours": "Tu-Su 09:00-13:00, 17:00-21:00", "tourism": "museum"}}, "geometry": {"type": "Point", "coordinates": [16.4389973, 43.5089759]}}, {"type": "Feature", "properties": {"type": "node", "id": 1563932039, "tags": {"name": "Etnografski muzej", "tourism": "museum"}}, "geometry": {"type": "Point", "coordinates": [16.4400379, 43.5076557]}}, {"type": "Feature", "properties": {"type": "node", "id": 1563932047, "tags": {"name": "Galerija Emanuela Vidovi\u0107a", "tourism": "museum"}}, "geometry": {"type": "Point", "coordinates": [16.4410824, 43.5082574]}}, {"type": "Feature", "properties": {"type": "node", "id": 1563932080, "tags": {"addr:city": "Split", "addr:country": "HR", "addr:housenumber": "1", "addr:street": "Papali\u0107eva", "email": "muzej.grada.splita@mgst.net", "name": "Muzej grada Splita", "name:zh": "\u57ce\u9547\u535a\u7269\u9986", "opening_hours": "Tu-Fr 09:00-21:00; Sa-Mo 09:00-16:00", "phone": "+385 021 360 171;+385 021 360 172;+385 021 344 917", "tourism": "museum", "website": "www.mgst.net", "wheelchair": "no", "wikidata": "Q9677526"}}, "geometry": {"type": "Point", "coordinates": [16.4408445, 43.5086348]}}, {"type": "Feature", "properties": {"type": "node", "id": 1563932273, "tags": {"tourism": "museum"}}, "geometry": {"type": "Point", "coordinates": [16.4405856, 43.5095576]}}, {"type": "Feature", "properties": {"type": "node", "id": 6613029904, "tags": {"addr:city": "Split", "addr:housenumber": "9", "addr:postcode": "21000", "addr:street": "Bosanska", "name": "Game of Thrones Museum Split", "tourism": "museum"}}, "geometry": {"type": "Point", "coordinates": [16.4392144, 43.5093044]}}, {"type": "Feature", "properties": {"type": "node", "id": 1412050462, "tags": {"addr:city": "Split", "addr:housenumber": "3", "addr:postcode": "21000", "addr:street": "Trpimirova", "name": "Prirodoslovni muzej", "opening_hours": "Mo-Fr 10:00-20:00, Sa 09:00-13:00", "tourism": "museum"}}, "geometry": {"type": "Point", "coordinates": [16.4431032, 43.5072166]}}, {"type": "Feature", "properties": {"type": "node", "id": 1563932064, "tags": {"addr:city": "Split", "addr:housenumber": "18", "addr:postcode": "21000", "addr:street": "Glagolja\u0161ka", "name": "Hrvatski Pomorski muzej", "opening_hours": "Mon-Sun 09:00-14:30", "tourism": "museum"}}, "geometry": {"type": "Point", "coordinates": [16.4472108, 43.5087203]}}, {"type": "Feature", "properties": {"type": "node", "id": 2756692556, "tags": {"name": "Muzej Grada Ka\u0161tela", "tourism": "museum"}}, "geometry": {"type": "Point", "coordinates": [16.3639658, 43.5506627]}}, {"type": "Feature", "properties": {"type": "node", "id": 1805171450, "tags": {"name": "Arheolo\u0161ki Muzej (i prodaja karata)", "name:de": "Arch\u00e4ologisches Museum Salona", "name:en": "Archeological Museum Salona", "opening_hours": "Mo-Sa 09:00-19:00; Su 09:00-14:00", "phone": "+39521213358", "tourism": "museum", "wheelchair": "no"}}, "geometry": {"type": "Point", "coordinates": [16.4833117, 43.5416891]}}, {"type": "Feature", "properties": {"type": "node", "id": 2491957156, "tags": {"name": "Gradski muzej Omi\u0161", "tourism": "museum"}}, "geometry": {"type": "Point", "coordinates": [16.6938756, 43.443614]}}, {"type": "Feature", "properties": {"type": "node", "id": 744582764, "tags": {"name": "Muzej grada Trilja", "tourism": "museum"}}, "geometry": {"type": "Point", "coordinates": [16.7253346, 43.6195479]}}, {"type": "Feature", "properties": {"type": "node", "id": 6572439012, "tags": {"historic": "trade", "name": "Stari mlin", "name:en": "Old Mill", "tourism": "museum"}}, "geometry": {"type": "Point", "coordinates": [15.9760894, 43.9022416]}}, {"type": "Feature", "properties": {"type": "node", "id": 2925630124, "tags": {"name": "Museum Burnum", "tourism": "museum"}}, "geometry": {"type": "Point", "coordinates": [16.0229993, 44.0014143]}}, {"type": "Feature", "properties": {"type": "node", "id": 1500772516, "tags": {"name": "muzej grada drni\u0161a", "tourism": "museum"}}, "geometry": {"type": "Point", "coordinates": [16.1585246, 43.8573075]}}, {"type": "Feature", "properties": {"type": "node", "id": 6417944747, "tags": {"name": "Arheolo\u0161ka zbirka", "operator": "Kninski muzej", "tourism": "museum", "website": "http://kninskimuzej.hr/en/?artwork=archaeological-collection"}}, "geometry": {"type": "Point", "coordinates": [16.1928796, 44.0330674]}}, {"type": "Feature", "properties": {"type": "node", "id": 6417944748, "tags": {"name": "Etnografska zbirka", "operator": "Kninski muzej", "tourism": "museum", "website": "http://kninskimuzej.hr/en/?artwork=ethnographic-collection"}}, "geometry": {"type": "Point", "coordinates": [16.1930889, 44.0332815]}}, {"type": "Feature", "properties": {"type": "node", "id": 6418024302, "tags": {"name": "Oluja 95", "operator": "Kninski muzej", "tourism": "museum", "website": "http://kninskimuzej.hr/en/museological-concept-of-the-display/"}}, "geometry": {"type": "Point", "coordinates": [16.1932453, 44.0349485]}}, {"type": "Feature", "properties": {"type": "node", "id": 664115484, "tags": {"name": "Franjeva\u010dki Muzej", "tourism": "museum"}}, "geometry": {"type": "Point", "coordinates": [16.6378058, 43.7020251]}}, {"type": "Feature", "properties": {"type": "node", "id": 3701509547, "tags": {"name": "Muzej Sinjske alke", "operator": "0-", "tourism": "museum"}}, "geometry": {"type": "Point", "coordinates": [16.6354523, 43.7008651]}}, {"type": "Feature", "properties": {"type": "node", "id": 2418992321, "tags": {"addr:city": "Zadar", "addr:housenumber": "1", "addr:postcode": "23000", "addr:street": "Poljana Zemaljskog Odbora", "email": "info@mas-zadar.hr", "name": "Muzej anti\u010dkog stakla", "name:en": "Museum of Ancient Glass", "name:nl": "Glasmuseum", "phone": "Tel: +385 (0)23 363 831 Tel: +385 (0)23 363 832 Fax: +385 (0)23 363 834", "tourism": "museum", "website": "http://www.mas-zadar.hr/", "wheelchair": "yes", "wheelchair:description": "RADNO VRIJEME: PON - SUB: 9:00 - 16:00 h MON - SUT: 9:00AM - 4:00 PM"}}, "geometry": {"type": "Point", "coordinates": [15.2295272, 44.1143315]}}, {"type": "Feature", "properties": {"type": "node", "id": 2432622289, "tags": {"name": "Narodni muzej - Prirodoslovni odsjek", "tourism": "museum"}}, "geometry": {"type": "Point", "coordinates": [15.2282308, 44.1127892]}}, {"type": "Feature", "properties": {"type": "node", "id": 3682747769, "tags": {"name": "Galerija keramike", "tourism": "museum"}}, "geometry": {"type": "Point", "coordinates": [15.2270399, 44.1153563]}}, {"type": "Feature", "properties": {"type": "node", "id": 3839987919, "tags": {"name": "Zlato i srebro Zadra", "tourism": "museum"}}, "geometry": {"type": "Point", "coordinates": [15.2250209, 44.1153001]}}, {"type": "Feature", "properties": {"type": "node", "id": 4324965014, "tags": {"addr:city": "Zadar", "addr:housenumber": "2", "addr:street": "Poljana Zemaljskog Odbora", "internet_access": "wlan", "name": "Muzej iluzija", "name:en": "Museum of Illusions", "name:nl": "Museum voor illusies", "opening_hours": "Mo-Su 09:00-24:00", "tourism": "museum", "website": "https://zadar.muzejiluzija.com/"}}, "geometry": {"type": "Point", "coordinates": [15.229741, 44.1141154]}}, {"type": "Feature", "properties": {"type": "node", "id": 3821591257, "tags": {"name": "Riznica samostana", "tourism": "museum"}}, "geometry": {"type": "Point", "coordinates": [15.2217213, 44.116488]}}, {"type": "Feature", "properties": {"type": "node", "id": 3673429070, "tags": {"addr:postcode": "23000", "addr:street": "Poljana Pape Aleksandra III.", "name": "Narodni muzej Zadar", "phone": "+38523251851", "tourism": "museum", "website": "http://nmz.hr/"}}, "geometry": {"type": "Point", "coordinates": [15.2266661, 44.116438]}}, {"type": "Feature", "properties": {"type": "node", "id": 6698993029, "tags": {"name": "Muzej ninskih starina", "name:en": "The Museum of Nin Antiquities", "opening_hours": "Mo-Su 09:00-22:00", "tourism": "museum"}}, "geometry": {"type": "Point", "coordinates": [15.1841274, 44.2433525]}}, {"type": "Feature", "properties": {"type": "node", "id": 1906025820, "tags": {"name": "Etnoku\u0107a Marasovi\u0107", "name:en": "Marasovi\u0107 Ethno House", "tourism": "museum", "website": "http://www.paklenica.hr/paklenica_en/Paklenica_Etno-k_Marasovici_en.htm"}}, "geometry": {"type": "Point", "coordinates": [15.4558541, 44.2926955]}}, {"type": "Feature", "properties": {"type": "node", "id": 1482611371, "tags": {"addr:city": "Donji Lapac", "addr:country": "HR", "addr:housenumber": "14e", "addr:place": "Gajine", "name": "Mali Lapa\u010dki Muzej", "opening_hours": "11:00 - 18:00", "phone": "+385 (0)989472881", "tourism": "museum", "website": "https://malilapackimuzej.wordpress.com/"}}, "geometry": {"type": "Point", "coordinates": [15.9855818, 44.5433757]}}, {"type": "Feature", "properties": {"type": "node", "id": 564987100, "tags": {"name": "Izlo\u017ebe", "name:de": "Ausstellung", "name:en": "Exhibitions", "name:it": "Mostre", "tourism": "museum"}}, "geometry": {"type": "Point", "coordinates": [13.7670864, 44.9185953]}}, {"type": "Feature", "properties": {"type": "node", "id": 2960063733, "tags": {"name": "Zavi\u010dajni muzej Grada Rovinja", "name:de": "Heimatmuseum der Stadt Rovinj", "name:hr": "Zavi\u010dajni muzej Grada Rovinja", "name:it": "Museo Civico della Citt\u00e0 di Rovigno", "name:ru": "\u041c\u0443\u0437\u0435\u0439 \u0438\u0441\u0442\u043e\u0440\u0438\u0438 \u0433\u043e\u0440\u043e\u0434\u0430", "tourism": "museum"}}, "geometry": {"type": "Point", "coordinates": [13.634139, 45.0825205]}}, {"type": "Feature", "properties": {"type": "node", "id": 294257906, "tags": {"name": "Aquarium", "name:ru": "\u0410\u043a\u0432\u0430\u0440\u0438\u0443\u043c", "tourism": "museum"}}, "geometry": {"type": "Point", "coordinates": [13.6394925, 45.0855379]}}, {"type": "Feature", "properties": {"type": "node", "id": 1317003296, "tags": {"name": "Lapidarij", "name:de": "Lapidarium", "tourism": "museum"}}, "geometry": {"type": "Point", "coordinates": [13.7875253, 45.0410053]}}, {"type": "Feature", "properties": {"type": "node", "id": 2826123026, "tags": {"name": "Ulika", "tourism": "museum"}}, "geometry": {"type": "Point", "coordinates": [13.7833451, 45.0403874]}}, {"type": "Feature", "properties": {"type": "node", "id": 1149450515, "tags": {"tourism": "museum"}}, "geometry": {"type": "Point", "coordinates": [13.7438748, 45.1754469]}}, {"type": "Feature", "properties": {"type": "node", "id": 1424233417, "tags": {"name": "Museum of Sacral Art Vodnjan", "tourism": "museum"}}, "geometry": {"type": "Point", "coordinates": [13.8476326, 44.9609174]}}, {"type": "Feature", "properties": {"type": "node", "id": 3304333541, "tags": {"addr:city": "vodnjan", "addr:housenumber": "48a", "addr:postcode": "52215", "addr:street": "Trg Statuta / Piazza dello Statuto", "name": "Ecomuseum - Istrian de Dignan", "operator": "Organisation noProfit", "phone": "00385 99 35 03 59 0", "tourism": "museum"}}, "geometry": {"type": "Point", "coordinates": [13.8494329, 44.9604465]}}, {"type": "Feature", "properties": {"type": "node", "id": 6768900086, "tags": {"name": "arsia", "tourism": "museum"}}, "geometry": {"type": "Point", "coordinates": [14.0840661, 45.0811293]}}, {"type": "Feature", "properties": {"type": "node", "id": 2357423754, "tags": {"name": "Museum", "tourism": "museum"}}, "geometry": {"type": "Point", "coordinates": [14.2488572, 45.2265971]}}, {"type": "Feature", "properties": {"type": "node", "id": 2051350016, "tags": {"fax": "+385 (0) 52 720 866", "fee": "yes", "name": "Gallerion", "phone": "+385 (0) 98 254 279", "tourism": "museum", "website": "http://www.kuk-marine-museum.net/"}}, "geometry": {"type": "Point", "coordinates": [13.5600595, 45.3167281]}}, {"type": "Feature", "properties": {"type": "node", "id": 2985593631, "tags": {"name": "Etnografski Muzej", "tourism": "museum"}}, "geometry": {"type": "Point", "coordinates": [13.6561074, 45.4097138]}}, {"type": "Feature", "properties": {"type": "node", "id": 7637353451, "tags": {"name": "Motovun: povijest u pokretu", "name:en": "Motovun: A History in Motion", "tourism": "museum"}}, "geometry": {"type": "Point", "coordinates": [13.8285311, 45.3365785]}}, {"type": "Feature", "properties": {"type": "node", "id": 7660455485, "tags": {"name:en": "Motuvun - A History In Motion", "tourism": "museum"}}, "geometry": {"type": "Point", "coordinates": [13.8286715, 45.336496]}}, {"type": "Feature", "properties": {"type": "node", "id": 1385009644, "tags": {"name": "mini Parenzana museum", "tourism": "museum"}}, "geometry": {"type": "Point", "coordinates": [13.8285792, 45.3546974]}}, {"type": "Feature", "properties": {"type": "node", "id": 5867694065, "tags": {"fee": "no", "name": "Muzej narodnih instrumenata", "name:de": "Museum f\u00fcr Volksmusikinstrumente", "name:en": "Museum of musical instruments", "opening_hours": "Tu 10:30-13:00; Th 17:00-19:30; Fr 10:30-13:00; Su 10:30-13:00", "tourism": "museum"}}, "geometry": {"type": "Point", "coordinates": [13.7743037, 45.3723047]}}, {"type": "Feature", "properties": {"type": "node", "id": 3159793385, "tags": {"name": "Ko\u0161ljun - samostan, Arholo\u0161ka zbirka i Povijesni muzej", "name:en": "Archeology Collection and History Museum and Monastery", "name:pl": "wyspa Ko\u0161ljun: klasztor, muzeum archeologiczne, muzeum etnograficzne", "tourism": "museum"}}, "geometry": {"type": "Point", "coordinates": [14.6186008, 45.0265837]}}, {"type": "Feature", "properties": {"type": "node", "id": 3159793388, "tags": {"name": "Muzej sakralne umjetnosti", "name:en": "The Museum of Church Art", "tourism": "museum"}}, "geometry": {"type": "Point", "coordinates": [14.6184448, 45.0265492]}}, {"type": "Feature", "properties": {"type": "node", "id": 3159793698, "tags": {"name": "etnografska i prirodoslovna zbirka", "name:en": "The Ethnographic and natural history collection", "tourism": "museum"}}, "geometry": {"type": "Point", "coordinates": [14.6178933, 45.0266525]}}, {"type": "Feature", "properties": {"type": "node", "id": 409153789, "tags": {"addr:city": "Beli", "addr:housenumber": "4", "addr:street": "Beli", "museum": "nature", "name": "Centar za posjetitelje i oporavili\u0161te za bjeloglave supove", "name:en": "Beli Visitor Center and Rescue Center for Griffon Vultures", "opening_hours": "Jan-Mar: Tu-Su,PH 10:00-14:00; Apr: Tu-Su,PH 10:00-16:00; May: Mo-Su,PH 10:00-16:00; Jun-Aug: Mo-Su,PH 10:00-18:00; Sep 01-Oct 14 Tu-Su,PH 10:00-16:00; Oct 15-Dec 31, Tu-Su,PH 10:00-14:00; Jan 01,Nov 01,Dec 25,26,easter off", "operator": "Javna ustanova Priroda", "operator:type": "public", "short_name": "Centar za posjetitelje Beli", "short_name:en": "Beli Visitor Center", "tourism": "museum", "website": "https://belivisitorcentre.eu/"}}, "geometry": {"type": "Point", "coordinates": [14.3512303, 45.114361]}}, {"type": "Feature", "properties": {"type": "node", "id": 4332710293, "tags": {"addr:postcode": "51264", "addr:street": "Obala", "email": "mgc@mgc.hr", "fee": "no", "name": "Ku\u0107ica od ribari", "opening_hours": "Mo-Su 9:00-11:00, 19:00-21:00", "phone": "0038551781000", "tourism": "museum", "website": "http://www.mgc.hr"}}, "geometry": {"type": "Point", "coordinates": [14.6135247, 45.2251367]}}, {"type": "Feature", "properties": {"type": "node", "id": 1317817025, "tags": {"tourism": "museum"}}, "geometry": {"type": "Point", "coordinates": [14.7571849, 44.9698886]}}, {"type": "Feature", "properties": {"type": "node", "id": 1427683412, "tags": {"tourism": "museum"}}, "geometry": {"type": "Point", "coordinates": [14.7378015, 44.9778515]}}, {"type": "Feature", "properties": {"type": "node", "id": 2259960533, "tags": {"charge": "20Kn/person;10Kn/child", "fee": "yes", "name": "Gradski muzej Senj", "name:en": "City Museum of Senj", "opening_hours": "Mo-Fr 07:00-15:00; Jul-Aug Mo-Fr 18:00-20:00; Jul-Aug Sa-Su 10:00-12:00", "tourism": "museum"}}, "geometry": {"type": "Point", "coordinates": [14.9017504, 44.9905977]}}, {"type": "Feature", "properties": {"type": "node", "id": 4348996690, "tags": {"addr:housenumber": "1", "addr:street": "Preradovi\u0107eva ulica", "name": "Muzej Grada Crikvenice", "name:en": "Crikvenica Municipal Museum", "tourism": "museum", "website": "http://www.mgc.hr/"}}, "geometry": {"type": "Point", "coordinates": [14.6916996, 45.1729489]}}, {"type": "Feature", "properties": {"type": "node", "id": 6869270416, "tags": {"name": "Narodni Muzej i Galerija Novi Vinodolski", "tourism": "museum"}}, "geometry": {"type": "Point", "coordinates": [14.7889236, 45.1283862]}}, {"type": "Feature", "properties": {"type": "node", "id": 3578059499, "tags": {"name": "\u0160vicarska ku\u0107a", "name:en": "Swiss House", "tourism": "museum"}}, "geometry": {"type": "Point", "coordinates": [14.3087973, 45.3361982]}}, {"type": "Feature", "properties": {"type": "node", "id": 8232084702, "tags": {"addr:city": "Rijeka", "addr:housenumber": "26c", "addr:postcode": "51000", "addr:street": "Kre\u0161imirova ulica", "museum": "art", "name": "Muzej moderne i suvremene umjetnosti", "name:en": "Museum of Modern and Contemporary Art", "opening_hours": "Tu-Fr 12:00-19:00; Sa-Su 10:00-17:00; Mo CLOSED", "opening_hours:covid19": "open", "tourism": "museum", "wikidata": "Q12637465"}}, "geometry": {"type": "Point", "coordinates": [14.431833, 45.3305247]}}, {"type": "Feature", "properties": {"type": "node", "id": 8232084703, "tags": {"addr:city": "Rijeka", "addr:housenumber": "28", "addr:postcode": "51000", "addr:street": "Kre\u0161imirova ulica", "museum": "general_culture_and_history;art", "name": "Muzej Grada Rijeke", "name:en": "City of Rijeka museum", "opening_hours": "Tu-Su 11:00-19:00; Mo and holidays CLOSED", "opening_hours:covid19": "open", "operator": "Muzej Grada Rijeke", "operator:type": "public", "tourism": "museum"}}, "geometry": {"type": "Point", "coordinates": [14.4312564, 45.3306097]}}, {"type": "Feature", "properties": {"type": "node", "id": 5037761227, "tags": {"name": "Pomorski i povijesni muzej Hrvatskog primorja Rijeka", "name:en": "The Maritime and History Museum of the Croatian Littoral", "name:ru": "\u041c\u043e\u0440\u0441\u043a\u043e\u0439 \u0438 \u0438\u0441\u0442\u043e\u0440\u0438\u0447\u0435\u0441\u043a\u0438\u0439 \u043c\u0443\u0437\u0435\u0439 \u0445\u043e\u0440\u0432\u0430\u0442\u0441\u043a\u043e\u0433\u043e \u043f\u043e\u0431\u0435\u0440\u0435\u0436\u044c\u044f", "opening_hours": "Mo 09:00-16:00; Tu-Sa 09:00-20:00; Su 16:00-20:00", "phone": "+38551553667", "start_date": "1961", "tourism": "museum", "website": "http://ppmhp.hr/", "wikidata": "Q12640047", "wikipedia": "hr:Pomorski i povijesni muzej Hrvatskog primorja"}}, "geometry": {"type": "Point", "coordinates": [14.44269, 45.3296049]}}, {"type": "Feature", "properties": {"type": "node", "id": 3508896324, "tags": {"addr:city": "Rijeka", "addr:postcode": "51000", "addr:street": "Ivana Grohovca", "name": "\"Peek & Poke\" old computers museum", "opening_hours": "Mo-Fr 10:00-18:00; Sa 11:00-16:00", "tourism": "museum"}}, "geometry": {"type": "Point", "coordinates": [14.4452605, 45.3281115]}}, {"type": "Feature", "properties": {"type": "node", "id": 2783775996, "tags": {"name": "Muzej lova, ribolova i \u0161umarstva", "tourism": "museum", "website": "http://www.kastel-zrinskih.hr/"}}, "geometry": {"type": "Point", "coordinates": [14.8535071, 45.463278]}}, {"type": "Feature", "properties": {"type": "node", "id": 1588319018, "tags": {"addr:housenumber": "7", "addr:postcode": "47000", "addr:street": "Trg Josipa Jurja Strossmayera", "email": "gradski-muzej@ka.t-com.hr", "name": "Gradski muzej Karlovac", "opening_hours": "Tu, Th-Fr 08:00-16:00; We 08:00-19:00; Sa 10:00-16:00; Su 10:00-12:00", "phone": "+38547615980", "tourism": "museum", "website": "http://www.gmk.hr/", "wikidata": "Q9206609"}}, "geometry": {"type": "Point", "coordinates": [15.5540582, 45.4938232]}}, {"type": "Feature", "properties": {"type": "node", "id": 2303834924, "tags": {"addr:housenumber": "7", "addr:postcode": "47000", "addr:street": "Trg bana Josipa Jela\u010di\u0107a", "email": "fra.karlovac@ofm.hr", "name": "Franjeva\u010dki muzej", "phone": "+38547615950", "tourism": "museum"}}, "geometry": {"type": "Point", "coordinates": [15.5554809, 45.4926336]}}, {"type": "Feature", "properties": {"type": "node", "id": 2399756610, "tags": {"name": "zavi\u010dajni muzej Donja kup\u010dina", "tourism": "museum"}}, "geometry": {"type": "Point", "coordinates": [15.8105547, 45.548547]}}, {"type": "Feature", "properties": {"type": "node", "id": 913509997, "tags": {"tourism": "museum"}}, "geometry": {"type": "Point", "coordinates": [15.8578224, 45.5286969]}}, {"type": "Feature", "properties": {"type": "node", "id": 3012645781, "tags": {"name": "Vatrogasni muzej", "operator": "DVD Prelo\u0161\u010dica", "tourism": "museum"}}, "geometry": {"type": "Point", "coordinates": [16.4797967, 45.4414651]}}, {"type": "Feature", "properties": {"type": "node", "id": 2399756558, "tags": {"name": "etno zbirka", "tourism": "museum"}}, "geometry": {"type": "Point", "coordinates": [16.6299025, 45.4153179]}}, {"type": "Feature", "properties": {"type": "node", "id": 5290157004, "tags": {"name": "Muzej Moslavine", "tourism": "museum"}}, "geometry": {"type": "Point", "coordinates": [16.775715, 45.4837937]}}, {"type": "Feature", "properties": {"type": "node", "id": 6982587456, "tags": {"addr:city": "So\u0161ice", "name": "\u017dumbera\u010dka etnografska zbirka So\u0161ice", "operator": "\u010casne sestre Bazilijanke", "tourism": "museum"}}, "geometry": {"type": "Point", "coordinates": [15.3831521, 45.7471503]}}, {"type": "Feature", "properties": {"type": "node", "id": 5037767915, "tags": {"name": "Samoborski muzej", "tourism": "museum", "website": "https://www.samobor.hr/muzej"}}, "geometry": {"type": "Point", "coordinates": [15.7078824, 45.8011347]}}, {"type": "Feature", "properties": {"type": "node", "id": 1366258327, "tags": {"name": "Galerija Skurjeni", "tourism": "museum"}}, "geometry": {"type": "Point", "coordinates": [15.8045578, 45.8709016]}}, {"type": "Feature", "properties": {"type": "node", "id": 1714660379, "tags": {"tourism": "museum"}}, "geometry": {"type": "Point", "coordinates": [15.9092302, 46.0814566]}}, {"type": "Feature", "properties": {"type": "node", "id": 4162680828, "tags": {"addr:postcode": "10000", "email": "info@drazenpetrovic.net", "name": "Muzejsko-memorijalni centar Dra\u017een Petrovi\u0107", "opening_hours": "Mo-Fr 10:00-17:00; Sa 10:00-14:00", "phone": "+38514843146", "tourism": "museum", "website": "http://www.drazenpetrovic.net/"}}, "geometry": {"type": "Point", "coordinates": [15.963573, 45.803064]}}, {"type": "Feature", "properties": {"type": "node", "id": 7791063885, "tags": {"name": "Greta Gallery", "tourism": "museum"}}, "geometry": {"type": "Point", "coordinates": [15.9641344, 45.8124905]}}, {"type": "Feature", "properties": {"type": "node", "id": 2750011731, "tags": {"addr:housenumber": "4", "addr:postcode": "10000", "addr:street": "Trg Republike Hrvatske", "email": "hsm@hsmuzej.hr", "name": "Hrvatski \u0161kolski muzej", "name:ko": "\ud06c\ub85c\uc544\ud2f0\uc544 \ud559\uad50 \ubc15\ubb3c\uad00", "opening_hours": "Tu-We,Fr 10:00-17:00; Th 10:00-20:00; Sa 09:00-14:00", "phone": "+38514855716", "tourism": "museum", "website": "http://www.hsmuzej.hr/index.asp", "wikidata": "Q1567326"}}, "geometry": {"type": "Point", "coordinates": [15.971061, 45.8092347]}}, {"type": "Feature", "properties": {"type": "node", "id": 419207577, "tags": {"addr:housenumber": "19", "addr:postcode": "10000", "addr:street": "Trg Nikole \u0160ubi\u0107a Zrinskog", "email": "amz@amz.hr", "name": "Arheolo\u0161ki muzej", "opening_hours": "Tu-We,Fr-Sa 10:00-18:00; Th 10:00-20:00; Su 10:00-13:00", "phone": "+38514873101", "tourism": "museum", "website": "http://www.amz.hr/", "wheelchair": "no", "wikidata": "Q2986831", "wikipedia": "hr:Arheolo\u0161ki muzej u Zagrebu"}}, "geometry": {"type": "Point", "coordinates": [15.9772888, 45.810981]}}, {"type": "Feature", "properties": {"type": "node", "id": 990288980, "tags": {"addr:city": "Zagreb", "addr:country": "HR", "addr:housenumber": "2", "addr:postcode": "10000", "addr:street": "Pra\u0161ka ulica", "email": "hrvatski.sportski.muzej@zg.t-com.hr", "name": "Hrvatski \u0161portski muzej", "opening_hours": "Mo-Fr 08:00-16:00", "phone": "+38514833483", "tourism": "museum", "website": "https://sportski-muzej.hr/"}}, "geometry": {"type": "Point", "coordinates": [15.9775051, 45.8124886]}}, {"type": "Feature", "properties": {"type": "node", "id": 2884714406, "tags": {"addr:housenumber": "1", "addr:street": "Ulica Andrije Hebranga", "email": "moderna-galerija@zg.t-com.hr", "name": "Moderna galerija", "opening_hours": "Tu-Fr 11:00-19:00; Sa-Su 11:00-14:00", "phone": "+38516041040", "tourism": "museum", "website": "https://www.moderna-galerija.hr/", "wikidata": "Q2350879"}}, "geometry": {"type": "Point", "coordinates": [15.9775482, 45.8091324]}}, {"type": "Feature", "properties": {"type": "node", "id": 7057619585, "tags": {"addr:city": "Zagreb", "addr:housenumber": "4", "addr:postcode": "10000", "addr:street": "Gunduli\u0107eva ulica", "museum": "transport", "name": "Muzej vlaki\u0107a Backo mini express", "name:en": "Model train museum Backo Mini Express", "opening_hours": "Tu-Sa 10:00-18:00", "railway": "miniature", "tourism": "museum", "website": "https://www.backo.hr/"}}, "geometry": {"type": "Point", "coordinates": [15.97168, 45.8127042]}}, {"type": "Feature", "properties": {"type": "node", "id": 7791059489, "tags": {"name": "Galerija Nova", "tourism": "museum"}}, "geometry": {"type": "Point", "coordinates": [15.9762675, 45.8112587]}}, {"type": "Feature", "properties": {"type": "node", "id": 1718635555, "tags": {"addr:city": "Zagreb", "addr:housenumber": "80", "addr:postcode": "10000", "addr:street": "Dra\u0161kovi\u0107eva ulica", "email": "info@tifoloskimuzej.hr", "name": "Tiflolo\u0161ki muzej", "opening_hours": "Mo-We,Fr 10:00-17:00; Th 10:00-20:00", "phone": "+38514811102", "tourism": "museum", "website": "http://www.tifloloskimuzej.hr/"}}, "geometry": {"type": "Point", "coordinates": [15.9837672, 45.8062987]}}, {"type": "Feature", "properties": {"type": "node", "id": 3919451273, "tags": {"addr:housenumber": "47", "addr:postcode": "10000", "addr:street": "Ulica grada Vukovara", "name": "Hrvatski \u017eeljezni\u010dki muzej", "phone": "+38513782862", "start": "1991", "tourism": "museum", "website": "http://muzej.hzinfra.hr/", "wikidata": "Q725066"}}, "geometry": {"type": "Point", "coordinates": [15.983981, 45.8013218]}}, {"type": "Feature", "properties": {"type": "node", "id": 1711392385, "tags": {"addr:city": "Zagreb", "addr:housenumber": "13", "addr:postcode": "10000", "addr:street": "Juri\u0161i\u0107eva ulica", "email": "htmuzej@t.ht.hr", "name": "HT muzej", "opening_hours": "Mo-We,Fr 10:00-14:00; Th 10:00-18:00", "phone": "+38514911589", "tourism": "museum"}}, "geometry": {"type": "Point", "coordinates": [15.9814336, 45.8124669]}}, {"type": "Feature", "properties": {"type": "node", "id": 4281766192, "tags": {"email": "sgallery@hazu.hr", "name": "Strossmayerova galerija starih majstora", "opening_hours": "Tu 10:00-19:00; We-Fr 10:00-16:00; Sa-Su 10:00-13:00", "phone": "+38514895117", "tourism": "museum", "website": "http://info.hazu.hr/hr/o-akademiji/jedinice/strossmayerova_galerija_starih_majstora/", "wikidata": "Q1258421"}}, "geometry": {"type": "Point", "coordinates": [15.9785844, 45.8090793]}}, {"type": "Feature", "properties": {"type": "node", "id": 2528733254, "tags": {"name": "Hrvatsko dru\u0161tvo likovnih umjetnika", "office": "yes", "tourism": "museum", "website": "http://www.hdlu.hr/"}}, "geometry": {"type": "Point", "coordinates": [15.9870252, 45.8099731]}}, {"type": "Feature", "properties": {"type": "node", "id": 3617997605, "tags": {"addr:postcode": "10000", "email": "info@muzejiluzija.hr", "name": "Muzej Iluzija", "name:en": "Museum of ilusions", "opening_hours": "Mo-Su 09:00-22:00", "phone": "+38517999609", "tourism": "museum", "website": "https://muzejiluzija.com/"}}, "geometry": {"type": "Point", "coordinates": [15.9664694, 45.8130592]}}, {"type": "Feature", "properties": {"type": "node", "id": 325705511, "tags": {"addr:city": "Zagreb", "addr:housenumber": "1", "addr:postcode": "10000", "addr:street": "Demetrova ulica", "email": "hpm@hpm.hr", "name": "Prirodoslovni muzej", "name:en": "Museum Natural History", "opening_hours": "Tu-We,Fr 10:00-17:00; Th 10:00-20:00; Sa 10:00-19:00; Su 10:00-13:00", "phone": "+38514851700", "tourism": "museum", "website": "http://www.hpm.hr/", "wheelchair": "yes", "wikidata": "Q8366704"}}, "geometry": {"type": "Point", "coordinates": [15.9722497, 45.8171563]}}, {"type": "Feature", "properties": {"type": "node", "id": 1396431169, "tags": {"addr:city": "Zagreb", "addr:housenumber": "2", "addr:postcode": "10000", "addr:street": "Ulica sv. \u0106irila i Metoda", "email": "info@brokenships.com", "internet_access": "wlan", "name": "Muzej prekinutih veza", "name:de": "Museum der zerbrochenen Beziehungen", "name:en": "Museum of Broken Relationships", "name:fr": "Mus\u00e9e des relations rompues", "name:uk": "\u041c\u0443\u0437\u0435\u0439 \u0440\u043e\u0437\u043b\u0443\u0447\u0435\u043d\u044c", "opening_hours": "Jun-Sep Mo-Su 09:00-22:30, Oct-May Mo-Su 09:00-21:00", "phone": "+38514851021", "tourism": "museum", "website": "https://brokenships.com/", "wheelchair": "limited", "wikidata": "Q1954595", "wikipedia": "en:Museum of Broken Relationships"}}, "geometry": {"type": "Point", "coordinates": [15.9735299, 45.8149694]}}, {"type": "Feature", "properties": {"type": "node", "id": 1711410842, "tags": {"addr:housenumber": "9", "addr:postcode": "10000", "addr:street": "Ulica Antuna Gustava Mato\u0161a", "email": "hismus@hismus.hr", "name": "Hrvatski povijesni muzej", "opening_hours": "Mo-Fr 10:00-18:00; Sa-Su 10:00-13:00", "phone": "+38514851900", "tourism": "museum", "website": "http://www.hismus.hr/", "wikidata": "Q2353812"}}, "geometry": {"type": "Point", "coordinates": [15.9723414, 45.8160204]}}, {"type": "Feature", "properties": {"type": "node", "id": 1711410885, "tags": {"addr:housenumber": "4", "addr:postcode": "10000", "addr:street": "Jezuitski trg", "name": "Galerija Klovi\u0107evi dvori", "name:ko": "\ud074\ub85c\ube44\uccb4\ube44 \ub4dc\ubcf4\ub9ac \uac24\ub7ec\ub9ac", "opening_hours": "Tu-Su 11:00-19:00", "tourism": "museum", "website": "http://gkd.hr/", "wikidata": "Q6421422"}}, "geometry": {"type": "Point", "coordinates": [15.9746427, 45.8150278]}}, {"type": "Feature", "properties": {"type": "node", "id": 4202221914, "tags": {"addr:city": "Zagreb", "addr:housenumber": "3", "addr:postcode": "10000", "addr:street": "Ulica sv. \u0106irila i Metoda", "email": "info@hmnu.hr", "name": "Hrvatski muzej naivne umjetnosti", "opening_hours": "Mo-Sa 10:00-18:00; Su 10:00-13:00", "phone": "+38514851911", "tourism": "museum", "website": "http://www.hmnu.hr/", "wikidata": "Q5187140"}}, "geometry": {"type": "Point", "coordinates": [15.9732804, 45.8153802]}}, {"type": "Feature", "properties": {"type": "node", "id": 4281766490, "tags": {"addr:housenumber": "3", "addr:postcode": "10000", "addr:street": "Trg bana Josipa Jela\u010di\u0107a", "name": "Muzej gljiva", "opening_hours": "Mo-Fr 10:00-17:00", "phone": "+38516383420", "tourism": "museum"}}, "geometry": {"type": "Point", "coordinates": [15.976565, 45.8136353]}}, {"type": "Feature", "properties": {"type": "node", "id": 4281801489, "tags": {"addr:city": "Zagreb", "addr:housenumber": "14", "addr:postcode": "10000", "addr:street": "Ulica Pavla Radi\u0107a", "email": "tortureum@gmail.com", "name": "Tortureum - Muzej torture", "opening_hours": "Mo-Su 11:00-19:00", "phone": "+38516459803", "tourism": "museum", "website": "http://www.tortureum.com/"}}, "geometry": {"type": "Point", "coordinates": [15.9758733, 45.8143495]}}, {"type": "Feature", "properties": {"type": "node", "id": 6553122285, "tags": {"name": "Zagreb 80's museum", "tourism": "museum"}}, "geometry": {"type": "Point", "coordinates": [15.975696, 45.8161624]}}, {"type": "Feature", "properties": {"type": "node", "id": 6713054210, "tags": {"charge": "20 HRK/adult; 10 HRK/child", "fee": "yes", "name": "Kula Lotr\u0161\u0107ak", "opening_hours": "Mo-Fr 09:00-21:00; Sa,Su 10:00-21:00", "tourism": "museum", "website": "http://gkd.hr/kula-lotrscak/"}}, "geometry": {"type": "Point", "coordinates": [15.9732722, 45.8146362]}}, {"type": "Feature", "properties": {"type": "node", "id": 987835234, "tags": {"addr:housenumber": "63", "addr:postcode": "10000", "addr:street": "Ulica Vladimira Nazora", "name": "Lova\u010dki muzej", "opening_hours": "We, Fr-Sa 08:00-13:00; Tu, Th 12:00-17:00", "phone": "+38514876567", "tourism": "museum", "website": "http://www.hls.com.hr/"}}, "geometry": {"type": "Point", "coordinates": [15.9679146, 45.8213219]}}, {"type": "Feature", "properties": {"type": "node", "id": 4281766193, "tags": {"addr:housenumber": "2", "addr:postcode": "10000", "addr:street": "Medvedgradska ulica", "email": "gliptoteka@hazu.hr", "name": "Gliptoteka HAZU", "opening_hours": "Tu-Fr 11:00-19:00; Sa-Su 10:00-14:00", "phone": "+38514686050", "tourism": "museum", "website": "http://gliptoteka.mdc.hr/"}}, "geometry": {"type": "Point", "coordinates": [15.9774209, 45.8221083]}}, {"type": "Feature", "properties": {"type": "node", "id": 3190084478, "tags": {"addr:housenumber": "31", "addr:postcode": "10000", "addr:street": "Kaptol", "email": "muzejstepinac@zg-nadbiskupija.hr", "name": "Muzej bla\u017eenog Alojzija Stepinca", "opening_hours": "Tu-Fr 08:00-17:00; Sa 09:00-13:00", "phone": "+38514894879", "tourism": "museum"}}, "geometry": {"type": "Point", "coordinates": [15.97908, 45.8143537]}}, {"type": "Feature", "properties": {"type": "node", "id": 2470850726, "tags": {"addr:city": "Zagreb", "addr:country": "HR", "addr:housenumber": "48", "addr:postcode": "10000", "addr:street": "Ulica kneza Ljudevita Posavskog", "name": "Muzej automobila Ferdinand Budicki", "opening_hours": "Mo-Su 10:00-19:00", "phone": "+385992290161", "tourism": "museum", "website": "http://www.otk-ferdinandbudicki.hr/"}}, "geometry": {"type": "Point", "coordinates": [15.9986474, 45.8087854]}}, {"type": "Feature", "properties": {"type": "node", "id": 6227942730, "tags": {"name": "Muzejska zbirka", "tourism": "museum"}}, "geometry": {"type": "Point", "coordinates": [16.4174163, 45.8842066]}}, {"type": "Feature", "properties": {"type": "node", "id": 448144521, "tags": {"name": "Gradski muzej", "tourism": "museum", "website": "http://www.mdc.hr/krizevci/povijest.htm"}}, "geometry": {"type": "Point", "coordinates": [16.544387, 46.0257278]}}, {"type": "Feature", "properties": {"type": "node", "id": 3577216648, "tags": {"tourism": "museum"}}, "geometry": {"type": "Point", "coordinates": [15.9451679, 46.257775]}}, {"type": "Feature", "properties": {"type": "node", "id": 1712555686, "tags": {"addr:city": "Vara\u017edin", "addr:housenumber": "3", "addr:postcode": "42000", "addr:street": "Trg M. Stan\u010di\u0107a", "name": "Galerija starih i novih majstora", "opening_hours": "Tu-Fr 09:00-17:00, Sa-Su 09:00-13:00", "operator": "Gradski muzej Vara\u017edin", "tourism": "museum", "website": "http://www.gmv.hr/hr/o-muzeju/odjeli/galerija-starih-i-novih-majstora/"}}, "geometry": {"type": "Point", "coordinates": [16.3364113, 46.3094464]}}, {"type": "Feature", "properties": {"type": "node", "id": 2824996306, "tags": {"name": "Etnografski muzej", "tourism": "museum"}}, "geometry": {"type": "Point", "coordinates": [16.422454, 46.2091122]}}, {"type": "Feature", "properties": {"type": "node", "id": 7003131348, "tags": {"addr:city": "Selnica", "addr:housenumber": "1", "addr:postcode": "40314", "addr:street": "Trg bana Josipa Jela\u010di\u0107a", "museum": "transport", "museum_type": "private", "name": "Oldtimer Muzej \u0160ardi", "tourism": "museum", "website": "http://sardi.com.hr/"}}, "geometry": {"type": "Point", "coordinates": [16.3979015, 46.493324]}}, {"type": "Feature", "properties": {"type": "node", "id": 6348439806, "tags": {"addr:city": "Mursko Sredi\u0161\u0107e", "addr:housenumber": "1", "addr:postcode": "40315", "addr:street": "Rudarska ulica", "name": "Spomen dom rudarstva", "name:hu": "B\u00e1ny\u00e1szati eml\u00e9kh\u00e1z", "tourism": "museum", "website": "http://www.cimper.com.hr"}}, "geometry": {"type": "Point", "coordinates": [16.447689, 46.5048665]}}, {"type": "Feature", "properties": {"type": "node", "id": 6989282024, "tags": {"addr:city": "Kri\u017eovec", "addr:housenumber": "1", "addr:street": "Trg me\u0111imurske prirode", "museum": "nature", "name": "Centar za posjetitelje Med dvemi vodami", "opening_hours": "Tu-Fr 08:00-15:00; Sa-Su 10:00-17:00", "operator": "Me\u0111imurska priroda", "operator:type": "public", "tourism": "museum", "website": "http://www.medjimurska-priroda.info/"}}, "geometry": {"type": "Point", "coordinates": [16.4948418, 46.4893048]}}, {"type": "Feature", "properties": {"type": "node", "id": 4140969493, "tags": {"name": "Malakolo\u0161ki muzej", "tourism": "museum"}}, "geometry": {"type": "Point", "coordinates": [17.0217468, 43.2919451]}}, {"type": "Feature", "properties": {"type": "node", "id": 286819550, "tags": {"name": "Etno ku\u0107a Palai\u0107", "tourism": "museum"}}, "geometry": {"type": "Point", "coordinates": [16.8258846, 45.2901615]}}, {"type": "Feature", "properties": {"type": "node", "id": 3200614195, "tags": {"name": "Muzej tambure", "name:hu": "Tamburam\u00fazeum", "tourism": "museum", "website": "http://www.but.hr/muzej_tambure.php"}}, "geometry": {"type": "Point", "coordinates": [18.0060796, 45.1560513]}}, {"type": "Feature", "properties": {"type": "node", "id": 1588922574, "tags": {"addr:housenumber": "40", "addr:postcode": "35000", "addr:street": "Ante Star\u010devi\u0107a", "email": "muzej-bp@sb.t-com.hr", "name": "Muzej Brodskog Posavlja", "name:hu": "Br\u00f3d-Sz\u00e1vamente Megyei M\u00fazeum", "opening_hours": "Mo-Fr 07:00-15:00", "phone": "+38535447415", "tourism": "museum", "website": "http://www.muzejbp.hr/"}}, "geometry": {"type": "Point", "coordinates": [18.0165119, 45.152707]}}, {"type": "Feature", "properties": {"type": "node", "id": 798375920, "tags": {"addr:housenumber": "34", "addr:street": "Ante Star\u010devi\u0107a", "name": "Muzej \u0110akov\u0161tine", "tourism": "museum", "website": "http://www.muzej-djakovstine.hr/index.php"}}, "geometry": {"type": "Point", "coordinates": [18.4090968, 45.3134275]}}, {"type": "Feature", "properties": {"type": "node", "id": 1609454969, "tags": {"name": "Zavi\u010dajni muzej Slatina", "tourism": "museum"}}, "geometry": {"type": "Point", "coordinates": [17.7007951, 45.7011663]}}, {"type": "Feature", "properties": {"type": "node", "id": 455914125, "tags": {"addr:city": "Na\u0161ice", "addr:housenumber": "5", "addr:postcode": "31500", "addr:street": "Trg dr. Franje Tu\u0111mana", "name": "Zavi\u010dajni muzej Na\u0161ice", "phone": "+38531613414", "tourism": "museum", "website": "http://www.zmn.hr/"}}, "geometry": {"type": "Point", "coordinates": [18.0930424, 45.4918092]}}, {"type": "Feature", "properties": {"type": "node", "id": 2872338772, "tags": {"name": "Galerija naive Josip Generali\u0107", "tourism": "museum"}}, "geometry": {"type": "Point", "coordinates": [16.9677782, 46.1482759]}}, {"type": "Feature", "properties": {"type": "node", "id": 2872338773, "tags": {"name": "Galerija naive Ivan Generali\u0107", "tourism": "museum"}}, "geometry": {"type": "Point", "coordinates": [16.9674486, 46.1531309]}}, {"type": "Feature", "properties": {"type": "node", "id": 1575821283, "tags": {"addr:housenumber": "23", "addr:postcode": "33000", "addr:street": "Trg bana Josipa Jela\u010di\u0107a", "email": "info@muzejvirovitica.hr", "name": "Gradski muzej Virovitica", "opening_hours": "Mo,Fr 08:00-15:00; Tu-Th 08:00-19:00; Sa 10:00-13:00", "phone": "+38533722127", "tourism": "museum", "website": "http://www.muzejvirovitica.hr/"}}, "geometry": {"type": "Point", "coordinates": [17.3853993, 45.833605]}}, {"type": "Feature", "properties": {"type": "node", "id": 1722968041, "tags": {"name": "Muzej prehrane", "tourism": "museum"}}, "geometry": {"type": "Point", "coordinates": [16.8244496, 46.1539303]}}, {"type": "Feature", "properties": {"type": "node", "id": 1780522083, "tags": {"addr:housenumber": "1a", "addr:street": "Veliki kraj", "name": "Zavi\u010dajni muzej Stjepana Grubera", "tourism": "museum"}}, "geometry": {"type": "Point", "coordinates": [18.6867547, 45.0734918]}}, {"type": "Feature", "properties": {"type": "node", "id": 1154258045, "tags": {"name": "Gradski muzej Vinkovci", "tourism": "museum", "website": "http://hvm.mdc.hr/gradski-muzej-vinkovci,510%3AVNK/hr/info/"}}, "geometry": {"type": "Point", "coordinates": [18.8036958, 45.2883186]}}, {"type": "Feature", "properties": {"type": "node", "id": 995539779, "tags": {"name": "Muzej OS", "tourism": "museum", "website": "https://www.osijek.hr/"}}, "geometry": {"type": "Point", "coordinates": [18.6758594, 45.5611605]}}, {"type": "Feature", "properties": {"type": "node", "id": 659061257, "tags": {"addr:country": "HR", "addr:postcode": "31000", "addr:street": "Svodovi bb", "email": "udrugagloriamaris@gmail.com", "name": "Muzej \u0161koljaka i vodenog svijeta Osijek", "opening_hours": "Tu-We, Fr 10:00-16:00; Th 10:00-20:00; Sa-Su 10:00-13:00", "phone": "+38531322907", "tourism": "museum", "website": "http://www.gloria-maris.hr/"}}, "geometry": {"type": "Point", "coordinates": [18.6978715, 45.5611254]}}, {"type": "Feature", "properties": {"type": "node", "id": 5240835388, "tags": {"description": "Domovinski rat", "tourism": "museum"}}, "geometry": {"type": "Point", "coordinates": [18.9303982, 45.3381914]}}, {"type": "Feature", "properties": {"type": "node", "id": 8075544741, "tags": {"name": "Memorijalni centar Domovinskog rata", "tourism": "museum"}}, "geometry": {"type": "Point", "coordinates": [19.004682, 45.3380481]}}, {"type": "Feature", "properties": {"type": "node", "id": 8075690716, "tags": {"name": "Mjesto sje\u0107anja - Vukovarska bolnica", "name:en": "Place of Remembrance - Vukovar Hospital", "tourism": "museum"}}, "geometry": {"type": "Point", "coordinates": [18.9929044, 45.3580447]}}, {"type": "Feature", "properties": {"type": "node", "id": 1139407774, "tags": {"addr:city": "Vukovar", "addr:housenumber": "2", "addr:postcode": "32000", "addr:street": "\u017dupanijska ulica", "email": "gmv@muzej-vukovar.hr", "name": "Gradski muzej Vukovar", "opening_hours": "Tu-Su 10:00-18:00", "phone": "032/638-470;032/638-475;032/638-474", "tourism": "museum", "website": "http://www.muzej-vukovar.hr", "wikidata": "Q12631743", "wikipedia": "hr:Gradski muzej Vukovar"}}, "geometry": {"type": "Point", "coordinates": [19.0001579, 45.3547608]}}, {"type": "Feature", "properties": {"type": "node", "id": 5996411970, "tags": {"addr:city": "Dalj", "addr:housenumber": "3", "addr:postcode": "31226", "addr:street": "Zagreba\u010dka ulica", "name": "Kulturni i znanstveni centar Milutin Milankovi\u0107", "name:sr": "\u041a\u0443\u043b\u0442\u0443\u0440\u043d\u0438 \u0438 \u043d\u0430\u0443\u0447\u043d\u0438 \u0446\u0435\u043d\u0442\u0430\u0440 \u041c\u0438\u043b\u0443\u0442\u0438\u043d \u041c\u0438\u043b\u0430\u043d\u043a\u043e\u0432\u0438\u045b", "phone": "+385992191294", "tourism": "museum", "website": "http://www.milutin-milankovic.com"}}, "geometry": {"type": "Point", "coordinates": [18.986928, 45.484739]}}, {"type": "Feature", "properties": {"type": "node", "id": 5996411971, "tags": {"addr:housenumber": "2 C", "addr:street": "Zagreba\u010dka", "craft": "winery", "name": "Vinski muzej Teutoburgium", "tourism": "museum"}}, "geometry": {"type": "Point", "coordinates": [18.986628, 45.4841008]}}, {"type": "Feature", "properties": {"type": "node", "id": 8356163778, "tags": {"name": "Stari vinski podrumi", "tourism": "museum"}}, "geometry": {"type": "Point", "coordinates": [19.3720889, 45.2240563]}}, {"type": "Feature", "properties": {"type": "node", "id": 8080410218, "tags": {"addr:housenumber": "70", "addr:street": "Ulica kralja Tomislava", "name": "Etnoloski centar baranjske bastine", "name:en": "Baranja etno centre", "tourism": "museum", "website": "http://etnobaranja.eu"}}, "geometry": {"type": "Point", "coordinates": [18.6089012, 45.7722802]}}, {"type": "Feature", "properties": {"type": "way", "id": 203872374, "tags": {"addr:city": "Vis", "addr:country": "HR", "addr:housenumber": "12", "addr:postcode": "21480", "addr:street": "\u0160etali\u0161te Vi\u0161ki boj", "building": "yes", "name": "Arheolo\u0161ka zbirka", "roof:material": "roof_tiles", "roof:shape": "gabled", "tourism": "museum"}}, "geometry": {"type": "Point", "coordinates": [16.1931353, 43.0571518]}}, {"type": "Feature", "properties": {"type": "way", "id": 90990375, "tags": {"addr:city": "Stari Grad", "addr:housenumber": "4", "addr:postcode": "21460", "addr:street": "Bra\u0107e Biankini", "building": "yes", "email": "info@msg.hr", "int_name": "Stari Grad Museum", "name": "Muzej Staroga Grada", "name:en": "Stari Grad Museum", "tourism": "museum", "website": "https://msg.hr/", "wheelchair": "no"}}, "geometry": {"type": "Point", "coordinates": [16.5953742, 43.182775]}}, {"type": "Feature", "properties": {"type": "way", "id": 194553565, "tags": {"building": "yes", "name": "Opatska riznica", "tourism": "museum"}}, "geometry": {"type": "Point", "coordinates": [17.1361163, 42.9614505]}}, {"type": "Feature", "properties": {"type": "way", "id": 194560316, "tags": {"building": "yes", "name": "Zbirka ikona", "tourism": "museum"}}, "geometry": {"type": "Point", "coordinates": [17.1366311, 42.9609978]}}, {"type": "Feature", "properties": {"type": "way", "id": 194921948, "tags": {"addr:city": "Kor\u010dula", "addr:housenumber": "1", "addr:postcode": "20260", "addr:street": "Trg svetog Marka", "building": "yes", "email": "info@gm-korcula.com", "name": "Gradski Muzej Kor\u010dula", "phone": "+385 20 711 420", "tourism": "museum", "website": "https://www.gm-korcula.com"}}, "geometry": {"type": "Point", "coordinates": [17.1358198, 42.9615377]}}, {"type": "Feature", "properties": {"type": "way", "id": 349498949, "tags": {"addr:city": "\u010cilipi", "addr:housenumber": "49", "addr:postcode": "20213", "addr:street": "Beroje", "building": "yes", "name": "Zvi\u010dajni muzej Konavla", "tourism": "museum", "website": "https://www.migk.hr"}}, "geometry": {"type": "Point", "coordinates": [18.2851055, 42.5500433]}}, {"type": "Feature", "properties": {"type": "way", "id": 182879558, "tags": {"addr:city": "Vid", "addr:housenumber": "6", "addr:postcode": "20352", "addr:street": "Naronski trg", "building": "museum", "name": "Arheolo\u0161ki muzej Narona", "opening_hours": "Tu-Fr 09:00-16:00; Sa 09:00-17:00; Su 09:00-13:00", "tourism": "museum", "website": "http://www.a-m-narona.hr/", "wikidata": "Q12627202"}}, "geometry": {"type": "Point", "coordinates": [17.6280297, 43.0803743]}}, {"type": "Feature", "properties": {"type": "way", "id": 129004392, "tags": {"alt_name": "House of Nature", "building": "yes", "name": "Kuca Prirode", "tourism": "museum", "website": "http://www.kamenjak.hr/kuca_prirode.html"}}, "geometry": {"type": "Point", "coordinates": [13.9093297, 44.8012436]}}, {"type": "Feature", "properties": {"type": "way", "id": 119104798, "tags": {"addr:city": "Pula", "addr:country": "HR", "addr:housenumber": "2", "addr:postcode": "52100", "addr:street": "De Villeov uspon", "building": "yes", "name": "Muzej / galerija - Crkva Srca Isusova i Marijina (Sveta Srca)", "name:de": "Museum - Galerie des Heiligen Herzensi", "name:en": "Museum - Gallery \"Sacred Hearts\"", "name:es": "Iglesia Sagrado Coraz\u00f3n ", "name:hr": "Muzejsko-galerijski prostor \"Sveta Srca\"", "name:it": "Museo - Galleria \"Sacro Cuore\"", "tourism": "museum"}}, "geometry": {"type": "Point", "coordinates": [13.8451119, 44.8689712]}}, {"type": "Feature", "properties": {"type": "way", "id": 203755793, "tags": {"heritage": "2", "heritage:operator": "uzkb", "historic": "monument", "loc_name": "Zlatna vrata", "name": "Slavoluk Sergijevaca", "name:de": "Sergierbogen", "name:en": "Arch of the Sergi", "name:es": "Arco de los Sergi", "name:hr": "Slavoluk Sergijevaca", "name:it": "Arco dei Sergi", "name:pl": "\u0141uk Sergiusza (Z\u0142ota Brama)", "ref:hr:uzkb": "N-33", "start_date": "1 BC", "wikidata": "Q952381", "wikipedia": "en:Arch of the Sergii"}}, "geometry": {"type": "Point", "coordinates": [13.8470155, 44.8682612]}}, {"type": "Feature", "properties": {"type": "way", "id": 119102927, "tags": {"building": "yes", "dedicated:wikidata": "Q1405", "heritage": "2", "heritage:operator": "uzkb", "historic": "archaeological_site", "historic:civilization": "ancient_roman", "name": "Augustov Hram", "name:de": "Augustus-Tempel", "name:en": "Temple of Augustus", "name:es": "Templo de Augusto", "name:it": "Tempio di Augusto", "name:pl": "\u015awi\u0105tynia Oktawiana Augusta", "ref:hr:uzkb": "N-10", "wikidata": "Q770030", "wikipedia": "en:Temple of Augustus (Pula)"}}, "geometry": {"type": "Point", "coordinates": [13.8418398, 44.8701843]}}, {"type": "Feature", "properties": {"type": "way", "id": 135898183, "tags": {"addr:city": "Pula", "addr:country": "HR", "addr:housenumber": "3", "addr:postcode": "52100", "addr:street": "Carrarina", "building": "yes", "email": "info@ami-pula.hr", "fax": "+385 52 351 333", "name": "Arheolo\u0161ki muzej Istre", "name:de": "Arch\u00e4ologisches Museum Istriens", "name:en": "Archaeological Museum of Istria", "name:es": "Museo arqueol\u00f3gico de Istria", "name:hr": "Arheolo\u0161ki muzej Istre", "name:it": "Museo archeologico dell'Istria", "phone": "+385 52 351 300", "short_name": "AMI", "tourism": "museum", "website": "http://www.ami-pula.hr/", "wikidata": "Q636981"}}, "geometry": {"type": "Point", "coordinates": [13.8474002, 44.8704549]}}, {"type": "Feature", "properties": {"type": "way", "id": 167293705, "tags": {"building": "ruins", "heritage": "2", "heritage:operator": "uzkb", "historic": "archaeological_site", "name": "Malo rimsko kazali\u0161te", "name:hr": "Malo rimsko kazali\u0161te", "name:it": "Teatro romano minore", "name:pl": "Teatr rzymski (wykopaliska)", "ref:hr:uzkb": "N-11", "start_date": "1", "wikidata": "Q16112130", "wikimedia_commons": "File:Small_Roman_Theatre%2C_Pula.JPG", "wikipedia": "hr:Malo rimsko kazali\u0161te u Puli"}}, "geometry": {"type": "Point", "coordinates": [13.8468272, 44.8701691]}}, {"type": "Feature", "properties": {"type": "way", "id": 203756081, "tags": {"barrier": "sa", "building": "yes", "heritage": "2", "heritage:operator": "uzkb", "historic": "city_gate", "name": "Dvojna vrata", "name:en": "Roman Twin gates", "name:it": "Porta Gemina", "name:la": "Porta Gemina", "name:pl": "Podw\u00f3jna Brama", "ref:hr:uzkb": "N-7", "wikidata": "Q12630293", "wikipedia": "it:Porta Gemina (Pola)"}}, "geometry": {"type": "Point", "coordinates": [13.8476747, 44.8708948]}}, {"type": "Feature", "properties": {"type": "way", "id": 302315753, "tags": {"abandoned:amenity": "prison_camp", "concentration_camp": "fascism", "historic": "memorial", "name": "Koncentracijski logor Kampor", "name:de": "Konzentrationslager Kampor (Rab)", "name:en": "Rab concentration camp", "name:it": "Campo di concentramento di Arbe", "name:sl": "Koncentracijsko tabori\u0161\u010de Rab", "prison_camp": "concentration_camp", "subject:wikidata": "Q701901", "tourism": "museum", "wikidata": "Q701901", "wikipedia": "en:Rab concentration camp"}}, "geometry": {"type": "Point", "coordinates": [14.7122708, 44.7826217]}}, {"type": "Feature", "properties": {"type": "way", "id": 122654075, "tags": {"addr:housenumber": "7", "addr:street": "Put \u0106okovca", "alt_name": "Samostan svetog Kuzme i Damjana", "amenity": "monastery", "building": "monastery", "denomination": "catholic", "heritage": "2", "heritage:operator": "uzkb", "historic": "monastery", "name": "Samostan \u0106okovac", "ref:hr:uzkb": "N-37", "religion": "christian", "website": "https://samostan-cokovac.hr/", "wikidata": "Q3689461"}}, "geometry": {"type": "Point", "coordinates": [15.4052869, 43.9256984]}}, {"type": "Feature", "properties": {"type": "way", "id": 227114176, "tags": {"addr:city": "Prvi\u0107 Luka", "addr:housenumber": "1a", "addr:postcode": "22233", "addr:street": "Ulica I", "building": "commercial", "email": "info@mc-faustvrancic.com", "name": "Memorijalni centar \"Faust Vran\u010di\u0107", "opening_hours": "Mo-Sa 08:00-16:00", "phone": "+385 22 448 128", "tourism": "museum", "website": "http://mc-faustvrancic.com/"}}, "geometry": {"type": "Point", "coordinates": [15.8005913, 43.7240469]}}, {"type": "Feature", "properties": {"type": "way", "id": 730898455, "tags": {"museum": "open_air", "name": "Dalmation Ethno Village", "tourism": "museum"}}, "geometry": {"type": "Point", "coordinates": [15.8864558, 43.6948554]}}, {"type": "Feature", "properties": {"type": "way", "id": 162544749, "tags": {"amenity": "place_of_worship", "architect:wikidata": "Q510203", "building": "cathedral", "building:colour": "#cbcbcd", "building:material": "sandstone", "charge": "30 HRK", "denomination": "roman_catholic", "fee": "yes", "heritage": "1", "heritage:operator": "uzkb", "name": "Katedrala svetog Jakova", "name:cs": "Katedr\u00e1la svat\u00e9ho Jakuba", "opening_hours": "Mo-Su 09:30-19:30", "ref:hr:uzkb": "N-2", "ref:whc": "963", "religion": "christian", "roof:colour": "#93878b", "roof:material": "roof_tiles", "whc:criteria": "(i),(ii),(iv)", "whc:inscription_date": "2000", "wikidata": "Q391973", "wikipedia": "hr:Katedrala sv. Jakova u \u0160ibeniku"}}, "geometry": {"type": "Point", "coordinates": [15.8890991, 43.7356569]}}, {"type": "Feature", "properties": {"type": "way", "id": 125389451, "tags": {"area": "yes", "barrier": "city_wall", "heritage": "2", "heritage:operator": "uzkb", "historic": "ruins", "name": "Ma\u0161kovi\u0107a han", "ref:hr:uzkb": "N-38", "tourism": "attraction"}}, "geometry": {"type": "Point", "coordinates": [15.5488393, 43.9541148]}}, {"type": "Feature", "properties": {"type": "way", "id": 298882937, "tags": {"area": "yes", "heritage": "2", "heritage:operator": "uzkb", "historic": "castle", "name": "Ka\u0161tel Benkovac", "ref:hr:uzkb": "N-27"}}, "geometry": {"type": "Point", "coordinates": [15.6097828, 44.0338694]}}, {"type": "Feature", "properties": {"type": "way", "id": 298882938, "tags": {"amenity": "place_of_worship", "building": "yes", "denomination": "catholic", "heritage": "2", "heritage:operator": "uzkb", "name": "crkva svetog Ante", "ref:hr:uzkb": "N-27", "religion": "christian"}}, "geometry": {"type": "Point", "coordinates": [15.6099279, 44.0337533]}}, {"type": "Feature", "properties": {"type": "way", "id": 740799117, "tags": {"area": "yes", "heritage": "2", "heritage:operator": "uzkb;whc", "name": "Povijesni grad Trogir", "name:de": "Altstadt von Trogir", "name:en": "Historic City of Trogir", "name:lt": "Istorinis Trogiro miestas", "ref:hr:uzkb": "N-5", "start_date": "1997", "tourism": "attraction", "wikidata": "Q17132483"}}, "geometry": {"type": "Point", "coordinates": [16.2493218, 43.516531]}}, {"type": "Feature", "properties": {"type": "way", "id": 173181734, "tags": {"building": "yes", "name": "Muzej uljarstva", "roof:material": "roof_tiles", "roof:shape": "gabled", "source": "survey", "tourism": "museum"}}, "geometry": {"type": "Point", "coordinates": [16.5223718, 43.3847789]}}, {"type": "Feature", "properties": {"type": "way", "id": 214381894, "tags": {"building": "house", "name": "Muzej Otoka Bra\u010da", "tourism": "museum"}}, "geometry": {"type": "Point", "coordinates": [16.612058, 43.3556271]}}, {"type": "Feature", "properties": {"type": "way", "id": 397585883, "tags": {"building": "house", "name": "Muzej Uja", "tourism": "museum"}}, "geometry": {"type": "Point", "coordinates": [16.6104799, 43.3568425]}}, {"type": "Feature", "properties": {"type": "way", "id": 83238358, "tags": {"addr:city": "Split", "addr:housenumber": "18", "addr:street": "\u0160etali\u0161te Ivana Me\u0161trovi\u0107a", "building": "yes", "building:levels": "3", "name": "Muzej hrvatskih arheolo\u0161kih spomenika", "tourism": "museum", "wheelchair": "no"}}, "geometry": {"type": "Point", "coordinates": [16.4221183, 43.5044249]}}, {"type": "Feature", "properties": {"type": "way", "id": 84629308, "tags": {"addr:city": "Split", "addr:housenumber": "46", "addr:street": "\u0160etali\u0161te Ivana Me\u0161trovi\u0107a", "architect:wikidata": "Q313828;Q6502800;Q16216453", "building": "yes", "name": "Galerija Me\u0161trovi\u0107", "roof:colour": "#800000", "roof:shape": "hipped", "tourism": "museum", "wheelchair": "no", "wikidata": "Q6096967"}}, "geometry": {"type": "Point", "coordinates": [16.4179409, 43.5048988]}}, {"type": "Feature", "properties": {"type": "way", "id": 118154598, "tags": {"addr:city": "Split", "addr:country": "HR", "addr:housenumber": "25", "addr:postcode": "21000", "addr:street": "Zrinsko-Frankopanska", "building": "yes", "name": "Arheolo\u0161ki muzej", "roof:material": "roof_tiles", "roof:shape": "gabled", "tourism": "museum"}}, "geometry": {"type": "Point", "coordinates": [16.4348605, 43.5158699]}}, {"type": "Feature", "properties": {"type": "way", "id": 124205148, "tags": {"heritage": "1", "heritage:operator": "uzkb", "historic": "archaeological_site", "historic:civilization": "roman", "name": "Dioklecijanova pala\u010da", "name:cs": "Diokleci\u00e1n\u016fv pal\u00e1c", "name:en": "Diocletian's Palace", "name:fr": "Palais de Diocl\u00e9tien", "name:ko": "\ub514\uc624\ud074\ub808\ud2f0\uc544\ub204\uc2a4 \uad81\uc804", "ref:hr:uzkb": "N-3", "site_type": "city", "tourism": "attraction", "wikidata": "Q322287", "wikipedia": "hr:Dioklecijanova pala\u010da"}}, "geometry": {"type": "Point", "coordinates": [16.440238, 43.5083414]}}, {"type": "Feature", "properties": {"type": "way", "id": 360816061, "tags": {"building": "yes", "name": "Muzej grada Ka\u0161tela-Nadbiskupski ka\u0161tel", "tourism": "museum"}}, "geometry": {"type": "Point", "coordinates": [16.4256502, 43.5457643]}}, {"type": "Feature", "properties": {"type": "way", "id": 39519262, "tags": {"addr:housenumber": "5", "addr:street": "Ulica Andrije Ka\u010di\u0107a Mio\u0161i\u0107a", "building": "yes", "description": "Op\u0107i muzej - zavi\u010dajni", "name": "Muzej Cetinske Krajine", "opening_hours": "Mo-Fr 08:00-16:00; Sa 08:00-13:00", "phone": "+38521821949", "roof:material": "roof_tiles", "roof:shape": "gabled", "tourism": "museum"}}, "geometry": {"type": "Point", "coordinates": [16.6356631, 43.7018048]}}, {"type": "Feature", "properties": {"type": "way", "id": 305269448, "tags": {"addr:city": "Zadar", "addr:housenumber": "1", "addr:postcode": "23000", "addr:street": "Trg opatice \u010cike", "building": "yes", "building:levels": "2", "name": "Arheolo\u0161ki muzej Zadar", "name:en": "Archeological museum", "name:it": "Museo Archeologico", "name:nl": "Archeologisch museum", "opening_hours": "Mo-Su 09:00-21:00", "phone": "+38523250542", "tourism": "museum", "website": "http://amzd.hr/", "wheelchair": "no", "wikidata": "Q4070688"}}, "geometry": {"type": "Point", "coordinates": [15.2250421, 44.115484]}}, {"type": "Feature", "properties": {"type": "way", "id": 229297699, "tags": {"amenity": "place_of_worship", "building": "church", "denomination": "roman_catholic", "heritage": "2", "heritage:operator": "uzkb", "name": "Crkva svetog Kri\u017ea", "name:de": "Heilig-Kreuz-Kirche", "name:en": "Church of the Holy Cross", "ref:hr:uzkb": "N-34", "religion": "christian", "wikidata": "Q1140629", "wikipedia": "hr:Crkva sv. Kri\u017ea u Ninu"}}, "geometry": {"type": "Point", "coordinates": [15.184464, 44.2427871]}}, {"type": "Feature", "properties": {"type": "way", "id": 388957962, "tags": {"amenity": "place_of_worship", "building": "church", "denomination": "roman_catholic", "heritage": "2", "heritage:operator": "uzkb", "name": "\u017dupna crkva sv. Anselma", "name:de": "Pfarrkirche St. Anselmus", "ref:hr:uzkb": "N-35", "religion": "christian", "service_times": "Mo-Sa 08:30; Su 08:30,11:30"}}, "geometry": {"type": "Point", "coordinates": [15.1836823, 44.2424684]}}, {"type": "Feature", "properties": {"type": "way", "id": 388957963, "tags": {"building": "bell_tower", "heritage": "2", "heritage:operator": "uzkb", "man_made": "tower", "name": "Zvonik crkve Sv. Anselma", "ref:hr:uzkb": "N-35", "tower:type": "bell_tower"}}, "geometry": {"type": "Point", "coordinates": [15.183456, 44.2424424]}}, {"type": "Feature", "properties": {"type": "way", "id": 388956775, "tags": {"heritage": "2", "heritage:operator": "uzkb", "historic": "archaeological_site", "ref:hr:uzkb": "N-34"}}, "geometry": {"type": "Point", "coordinates": [15.184508, 44.2428378]}}, {"type": "Feature", "properties": {"type": "way", "id": 364810349, "tags": {"building": "yes", "building:levels": "1", "name": "Muzej soli", "name:en": "Salt museum", "tourism": "museum", "website": "http://www.solananin.hr/hr/muzej-i-kuca-soli/muzej-soli/"}}, "geometry": {"type": "Point", "coordinates": [15.1920572, 44.243905]}}, {"type": "Feature", "properties": {"type": "way", "id": 298872724, "tags": {"amenity": "place_of_worship", "building": "church", "heritage": "2", "heritage:operator": "uzkb", "name": "crkva svetog Nikole", "ref:hr:uzkb": "N-8", "religion": "christian", "start_date": "1446"}}, "geometry": {"type": "Point", "coordinates": [15.5765638, 44.0593995]}}, {"type": "Feature", "properties": {"type": "way", "id": 314127943, "tags": {"amenity": "place_of_worship", "building": "yes", "heritage": "2", "heritage:operator": "uzkb", "name": "crkva svetog Martina", "ref:hr:uzkb": "N-36", "religion": "christian", "start_date": "C6"}}, "geometry": {"type": "Point", "coordinates": [15.5680716, 44.1586726]}}, {"type": "Feature", "properties": {"type": "way", "id": 253655227, "tags": {"addr:city": "Gospi\u0107", "addr:housenumber": "3", "addr:postcode": "53000", "addr:street": "Ulica dr. Franje Tu\u0111mana", "building": "yes", "email": "info@muzejlike.hr", "fax": "+385 53 560 545", "name": "Muzej Like", "phone": "+385 53 572 051", "start_date": "1958", "tourism": "museum", "website": "http://muzejlike.hr"}}, "geometry": {"type": "Point", "coordinates": [15.3749122, 44.5463549]}}, {"type": "Feature", "properties": {"type": "way", "id": 753931459, "tags": {"building": "house", "name": "Spomen-dom dr. Ante Star\u010devi\u0107a", "notable_tenant:wikidata": "Q571619", "tourism": "museum", "website": "http://www.arhiv-gospic.hr/spomen-dom-dr-ante-starcevica"}}, "geometry": {"type": "Point", "coordinates": [15.3429144, 44.5961705]}}, {"type": "Feature", "properties": {"type": "way", "id": 408268483, "tags": {"building": "yes", "name": "\u010cama\u010darnica", "name:en": "The Boathouse", "name:sl": "\u010colnarna", "start_date": "1902", "tourism": "museum"}}, "geometry": {"type": "Point", "coordinates": [13.7704856, 44.9166529]}}, {"type": "Feature", "properties": {"type": "way", "id": 263323367, "tags": {"addr:housenumber": "2", "addr:street": "Pino Budicin", "building": "yes", "name": "Ecomuseo BATANA", "name:de": "Batana Eco-Museum", "tourism": "museum"}}, "geometry": {"type": "Point", "coordinates": [13.6328929, 45.0816703]}}, {"type": "Feature", "properties": {"type": "way", "id": 232268079, "tags": {"name": "AeroPark", "tourism": "museum"}}, "geometry": {"type": "Point", "coordinates": [13.6276162, 45.1426668]}}, {"type": "Feature", "properties": {"type": "way", "id": 298160635, "tags": {"building": "yes", "heritage": "3", "heritage:operator": "uzkb", "museum": "history", "name": "Pala\u010da Sin\u010di\u0107- Zavi\u010dajni muzej Pore\u0161tine", "name:de": "Sin\u010di\u0107 Palast - Regionales Museum Porec", "name:en": "Sin\u010di\u0107 Palace - Regional Museum Porec", "name:hr": "Pala\u010da Sin\u010di\u0107 - Zavi\u010dajni muzej Pore\u0161tine", "ref:hr:uzkb": "Z-2436", "start_date": "C17", "tourism": "museum"}}, "geometry": {"type": "Point", "coordinates": [13.5932558, 45.2277584]}}, {"type": "Feature", "properties": {"type": "way", "id": 544665063, "tags": {"addr:city": "Nova Vas", "addr:housenumber": "14", "addr:postcode": "52446", "addr:street": "Tarska", "email": "info@baredine.com", "name": "Traktor Story", "opening_hours": "Mo-Su 10:00-15:00", "operator": "Baredine doo", "phone": "+385 95 421 4210", "tourism": "museum", "website": "www.traktorstory.com"}}, "geometry": {"type": "Point", "coordinates": [13.6602872, 45.2682849]}}, {"type": "Feature", "properties": {"type": "way", "id": 426766670, "tags": {"historic": "archaeological_site", "name": "Nesactium", "name:hr": "Nezakcij", "name:it": "Nesazio", "name:la": "Nesactium", "tourism": "museum", "wikidata": "Q923561"}}, "geometry": {"type": "Point", "coordinates": [13.9691902, 44.9166304]}}, {"type": "Feature", "properties": {"type": "way", "id": 817802847, "tags": {"addr:housenumber": "6", "addr:postcode": "52220", "addr:street": "Ulica 1. maja", "building": "yes", "email": "narodni.muzej.labin@pu.t-com.hr", "name": "Narodni muzej Labin", "name:it": "Museo civico di Albona", "phone": "+38552852477", "tourism": "museum"}}, "geometry": {"type": "Point", "coordinates": [14.1242547, 45.0860524]}}, {"type": "Feature", "properties": {"type": "way", "id": 181747080, "tags": {"amenity": "place_of_worship", "building": "church", "description": "Keys are kept in the village of Beram (Vermo), house no. 38. Please call the mobile phone number posted on signs in Beram. Access fee 20 HRK (2020).", "heritage": "2", "heritage:operator": "uzkb", "name": "crkva svete Marije na \u0160kriljinah", "name:de": "Maria in den Felsen", "name:hr": "Sv.Marija na \u0160kriljinah", "name:it": "Santa Maria delle Lastre", "ref:hr:uzkb": "N-6", "religion": "christian", "start_date": "C15", "wikidata": "Q1896482"}}, "geometry": {"type": "Point", "coordinates": [13.9071355, 45.2565971]}}, {"type": "Feature", "properties": {"type": "way", "id": 537902178, "tags": {"building": "yes", "name": "Lapidarium", "tourism": "museum"}}, "geometry": {"type": "Point", "coordinates": [13.5589485, 45.3164313]}}, {"type": "Feature", "properties": {"type": "way", "id": 678408525, "tags": {"building": "yes", "tourism": "museum"}}, "geometry": {"type": "Point", "coordinates": [13.6282041, 45.3798851]}}, {"type": "Feature", "properties": {"type": "way", "id": 90274557, "tags": {"building": "yes", "name": "Muzej grada Umaga", "tourism": "museum"}}, "geometry": {"type": "Point", "coordinates": [13.5160614, 45.4336012]}}, {"type": "Feature", "properties": {"type": "way", "id": 102184433, "tags": {"building": "yes", "name": "Ka\u0161tel Gro\u017enjan", "source": "http://www.putovnica.net/galerije-slika/groznjan-slike-galerija", "tourism": "museum"}}, "geometry": {"type": "Point", "coordinates": [13.7224031, 45.3794277]}}, {"type": "Feature", "properties": {"type": "way", "id": 315104190, "tags": {"addr:city": "Buzet", "addr:housenumber": "5", "addr:postcode": "52420", "addr:street": "Ra\u0161porskih kapetana", "building": "yes", "building:levels": "3", "name": "Zavi\u010dajni muzej Buzet", "source": "bing;local knowledge", "tourism": "museum"}}, "geometry": {"type": "Point", "coordinates": [13.9682898, 45.4068063]}}, {"type": "Feature", "properties": {"type": "way", "id": 356813740, "tags": {"building": "yes", "name": "Muzej \"Arsan\"", "tourism": "museum"}}, "geometry": {"type": "Point", "coordinates": [14.4090907, 44.9593753]}}, {"type": "Feature", "properties": {"type": "way", "id": 617950089, "tags": {"addr:housenumber": "45", "addr:street": "Gri\u017eane", "building": "yes", "name": "Ku\u0107a Klovi\u0107", "name:en": "Giulio Clovio House", "tourism": "museum"}}, "geometry": {"type": "Point", "coordinates": [14.7199623, 45.2005601]}}, {"type": "Feature", "properties": {"type": "way", "id": 279411231, "tags": {"addr:city": "Rijeka", "addr:housenumber": "1/1", "addr:postcode": "51000", "addr:street": "Muzejski trg", "architect:wikidata": "Q17280263", "building": "yes", "building:levels": "3", "email": "info@muzej-rijeka.hr", "name": "Muzej grada Rijeke", "name:en": "City of Rijeka museum", "opening_hours": "Mo-Sa 10:00-19:00; Su 10:00-15:00; PH off", "phone": "+38551336711", "tourism": "museum", "website": "http://www.muzej-rijeka.hr/"}}, "geometry": {"type": "Point", "coordinates": [14.4421154, 45.3299634]}}, {"type": "Feature", "properties": {"type": "way", "id": 160509581, "tags": {"addr:city": "Rijeka", "addr:housenumber": "1", "addr:postcode": "51000", "addr:street": "Lorenzov prolaz", "building": "yes", "name": "Prirodoslovni muzej Rijeka", "name:en": "Natural History Museum", "tourism": "museum", "website": "www.prirodoslovni.com", "wikidata": "Q15410090", "wikipedia": "hr:Prirodoslovni muzej Rijeka"}}, "geometry": {"type": "Point", "coordinates": [14.4440762, 45.3296225]}}, {"type": "Feature", "properties": {"type": "way", "id": 837917539, "tags": {"addr:city": "Rijeka", "addr:housenumber": "bb", "addr:postcode": "51000", "addr:street": "Grobni\u010dka riva", "building": "commercial", "building:levels": "2", "description": "In 2020, the Exportdrvo building became a new old location where the residence of Rijeka, numerous visitors and passers-by are able to enjoy exhibitions, concerts and festivals at the hall.", "image": "https://rijeka2020.eu/wp-content/uploads/2019/11/Exportdvo-smanjene-5.jpg", "landuse": "commercial", "name": "Exportdrvo", "tourism": "museum"}}, "geometry": {"type": "Point", "coordinates": [14.4454477, 45.3233998]}}, {"type": "Feature", "properties": {"type": "way", "id": 103303137, "tags": {"addr:city": "Rijeka", "addr:housenumber": "2", "addr:postcode": "51000", "addr:street": "Park Nikole Hosta", "building": "yes", "name": "Rije\u010dki arhiv", "name:en": "State Archives in Rijeka", "name:it": "Archivio di Stato di Fiume", "start_date": "C18", "tourism": "museum", "website": "http://www.riarhiv.hr/"}}, "geometry": {"type": "Point", "coordinates": [14.4444322, 45.3290744]}}, {"type": "Feature", "properties": {"type": "way", "id": 625788632, "tags": {"addr:city": "Rijeka", "addr:housenumber": "138A", "addr:postcode": "51000", "addr:street": "Drenovski put", "air_conditioning": "yes", "building": "yes", "building:levels": "1", "ele": "305", "fee": "no", "height": "9", "internet_access": "wlan", "name": "Zavi\u010dajni muzej Drenove", "opening_hours": "18:00-21:00", "operator": "Dru\u0161tvo \u0161tovatelja ba\u0161tine \"Bez granica\"", "operator:type": "ngo", "tourism": "museum", "wikidata": "Q16112457", "wikipedia": "hr:Dru\u0161tvo \u0161tovatelja ba\u0161tine \"Bez granica\""}}, "geometry": {"type": "Point", "coordinates": [14.4274039, 45.3586143]}}, {"type": "Feature", "properties": {"type": "way", "id": 542256449, "tags": {"addr:city": "Lipa", "addr:housenumber": "35", "addr:postcode": "51214", "addr:street": "Lipa", "building": "yes", "name": "Memorijalni centar 'Lipa pamti'", "tourism": "museum", "wikidata": "Q28408337"}}, "geometry": {"type": "Point", "coordinates": [14.3043186, 45.4664732]}}, {"type": "Feature", "properties": {"type": "way", "id": 402147622, "tags": {"addr:housenumber": "50", "addr:street": "\u0160etali\u0161te Golubinjak", "building": "yes", "name": "Muzej \u017eaba", "tourism": "museum", "website": "http://tz-lokve.hr/muzej-zaba/?menu=9"}}, "geometry": {"type": "Point", "coordinates": [14.7540612, 45.3581162]}}, {"type": "Feature", "properties": {"type": "way", "id": 428977594, "tags": {"building": "yes", "name": "Ivanina ku\u0107a bajke", "tourism": "museum"}}, "geometry": {"type": "Point", "coordinates": [15.2241571, 45.2674171]}}, {"type": "Feature", "properties": {"type": "way", "id": 632886029, "tags": {"building": "yes", "heritage": "3", "heritage:operator": "uzkb", "man_made": "watermill", "museum": "local", "name": "Vodenica \u0160poljari\u0107", "name:de": "\u0160poljari\u0107 Wasserm\u00fchle", "name:en": "\u0160poljari\u0107 Watermill", "ref:hr:uzkb": "Z-6960", "start_date": "C19", "tourism": "museum"}}, "geometry": {"type": "Point", "coordinates": [15.6194326, 44.926357]}}, {"type": "Feature", "properties": {"type": "way", "id": 632886030, "tags": {"alt_name": "\u017eaga", "building": "yes", "heritage": "3", "heritage:operator": "uzkb", "historic": "building", "industrial": "sawmill", "museum": "local", "name": "\u0160poljari\u0107eva pilana", "name:de": "\u0160poljari\u0107 S\u00e4gewerk", "name:en": "\u0160poljari\u0107 Sawmill", "ref:hr:uzkb": "Z-6270", "start_date": "1922", "tourism": "museum"}}, "geometry": {"type": "Point", "coordinates": [15.6198673, 44.9262854]}}, {"type": "Feature", "properties": {"type": "way", "id": 333577471, "tags": {"addr:city": "Lukovdol", "addr:housenumber": "8", "building": "house", "name": "Memorijalni muzej Ivan Goran Kova\u010di\u0107", "notable_tenant:wikidata": "Q835790", "tourism": "museum", "website": "http://hvm.mdc.hr/hrvatski-povijesni-muzej---memorijalni-muzej-ivan-goran-kovacic,762%3ALKD/hr/info/"}}, "geometry": {"type": "Point", "coordinates": [15.1258796, 45.4281243]}}, {"type": "Feature", "properties": {"type": "way", "id": 446832839, "tags": {"addr:city": "Turanj", "addr:country": "HR", "addr:postcode": "47106", "area": "yes", "name": "Muzej Domovinskog rata", "name:de": "Museum des Kroatischen Unabh\u00e4ngigkeitskrieges", "name:en": "Croatian War of Independence Museum", "name:hr": "Muzej Domovinskog rata", "tourism": "museum", "website": "http://www.gmk.hr/O%20nama/U%20sastavu%20muzeja/Vojni%20kompleks%20Turanj"}}, "geometry": {"type": "Point", "coordinates": [15.5670537, 45.462685]}}, {"type": "Feature", "properties": {"type": "way", "id": 564281701, "tags": {"addr:city": "Jastrebarsko", "addr:housenumber": "1", "addr:postcode": "10450", "addr:street": "Ulica Vladka Ma\u010deka", "building": "yes", "email": "muzej@czk-jastrebarsko.hr", "name": "Gradski muzej i galerija Jastrebarsko", "note": "http://www.tzgj.hr/hr/sto_vidjeti/gradski_muzej_i_galerija.html", "opening_hours": "Mo-Tu 10:00-14:00; We-Th 14:00-18:00; Fr 10:00-14:00", "phone": "+385 1 6283991", "roof:material": "roof_tiles", "roof:shape": "gabled", "tourism": "museum", "website": "http://www.czk-jastrebarsko.hr/index/index.php/kultura/muzej"}}, "geometry": {"type": "Point", "coordinates": [15.6531854, 45.6746305]}}, {"type": "Feature", "properties": {"type": "way", "id": 113041575, "tags": {"building": "yes", "building:levels": "2", "name": "Muzej Turopolja", "roof:shape": "hipped", "tourism": "museum"}}, "geometry": {"type": "Point", "coordinates": [16.076073, 45.714127]}}, {"type": "Feature", "properties": {"type": "way", "id": 535219216, "tags": {"building": "yes", "name": "Spomen dom \"Stjepan Radi\u0107\"", "roof:material": "roof_tiles", "roof:shape": "gabled", "tourism": "museum"}}, "geometry": {"type": "Point", "coordinates": [16.3463456, 45.592924]}}, {"type": "Feature", "properties": {"type": "way", "id": 170355605, "tags": {"addr:city": "Sisak", "addr:housenumber": "10", "addr:postcode": "44000", "addr:street": "Rimska ulica", "building": "yes", "historic": "yes", "historic:period": "1699 - 1870", "name": "Holandska ku\u0107a", "operator": "Gradski muzej Sisak", "operator:type": "public", "ref:addr": "SisakRimska ulica10", "roof:material": "roof_tiles", "roof:shape": "gabled", "source:addr": "DGU", "source:addr:date": "2021-01-01", "tourism": "museum"}}, "geometry": {"type": "Point", "coordinates": [16.3710091, 45.4870445]}}, {"type": "Feature", "properties": {"type": "way", "id": 547488438, "tags": {"building": "yes", "name": "Muzej Moslavine", "tourism": "museum"}}, "geometry": {"type": "Point", "coordinates": [16.7756944, 45.4838497]}}, {"type": "Feature", "properties": {"type": "way", "id": 295713931, "tags": {"addr:city": "Samobor", "addr:housenumber": "7", "addr:postcode": "10430", "addr:street": "Jurjevska ulica", "building": "commercial", "height": "10", "name": "Muzej Marton", "roof:height": "3", "roof:material": "roof_tiles", "roof:shape": "gabled", "tourism": "museum", "wikidata": "Q1710909"}}, "geometry": {"type": "Point", "coordinates": [15.7092221, 45.8006248]}}, {"type": "Feature", "properties": {"type": "way", "id": 122448832, "tags": {"building": "yes", "name": "Muzej Brdovec", "tourism": "museum"}}, "geometry": {"type": "Point", "coordinates": [15.7699587, 45.8644761]}}, {"type": "Feature", "properties": {"type": "way", "id": 907148238, "tags": {"building:part": "yes", "name": "Muzej automobila Ferdinand Budicki", "tourism": "museum"}}, "geometry": {"type": "Point", "coordinates": [15.8256399, 45.8720015]}}, {"type": "Feature", "properties": {"type": "way", "id": 131409817, "tags": {"name": "Staro Selo \"Kumrovec\"", "tourism": "museum", "wikidata": "Q16116815", "wikipedia": "hr:Muzej \"Staro selo\", Kumrovec"}}, "geometry": {"type": "Point", "coordinates": [15.6773678, 46.0763097]}}, {"type": "Feature", "properties": {"type": "way", "id": 242164729, "tags": {"addr:housenumber": "10", "addr:street": "Trg Antuna Mihanovi\u0107a", "building": "yes", "name": "Galerija Antuna Augustin\u010di\u0107a", "tourism": "museum"}}, "geometry": {"type": "Point", "coordinates": [15.7422338, 46.0506936]}}, {"type": "Feature", "properties": {"type": "way", "id": 191434912, "tags": {"addr:city": "Krapina", "addr:housenumber": "bb", "addr:postcode": "49000", "addr:street": "\u0160etali\u0161te Vilibalda Sluge", "building": "yes", "email": "mkn@mhz.hr", "fax": "+385 49 374 969", "name": "Muzej krapinskih neandertalaca", "phone": "+385 49 371 491", "start_date": "1969", "tourism": "museum", "website": "http://www.mkn.mhz.hr/", "wikidata": "Q162198", "wikipedia": "hr:Muzej krapinskih neandertalaca"}}, "geometry": {"type": "Point", "coordinates": [15.8635342, 46.1646685]}}, {"type": "Feature", "properties": {"type": "way", "id": 717666994, "tags": {"addr:city": "Radoboj", "addr:housenumber": "34", "addr:postcode": "49232", "addr:street": "Radoboj", "building": "yes", "name": "Radboa", "tourism": "museum", "website": "www.radboa.hr"}}, "geometry": {"type": "Point", "coordinates": [15.920657, 46.1663227]}}, {"type": "Feature", "properties": {"type": "way", "id": 351919589, "tags": {"boundary": "protected_area", "heritage": "2", "heritage:operator": "uzkb", "historic": "yes", "leisure": "park", "name": "Kulturno dobro dvorac Trako\u0161\u0107an", "name:de": "Kulturgut Schloss Trako\u0161\u0107an mit Parkanlage", "name:en": "The cultural monument of Trako\u0161\u0107an Castle with its park", "opening_hours": "Apr-Oct:9-18h; Nov-Mar:9-16h", "ref:hr:uzkb": "N-18"}}, "geometry": {"type": "Point", "coordinates": [15.9395205, 46.2603392]}}, {"type": "Feature", "properties": {"type": "way", "id": 30453995, "tags": {"addr:city": "Zagreb", "addr:housenumber": "17", "addr:postcode": "10010", "addr:street": "Avenija Dubrovnik", "alt_name": "MSU", "building": "yes", "fee": "yes", "height": "28", "name": "Muzej suvremene umjetnosti", "name:en": "Museum of Contemporary Art", "opening_hours": "Tu-Su,Su 11:00-18:00; Sa 11:00-20:00", "tourism": "museum", "website": "http://www.msu.hr/", "wheelchair": "yes", "wikidata": "Q3503103", "wikipedia": "en:Museum of Contemporary Art, Zagreb"}}, "geometry": {"type": "Point", "coordinates": [15.9818588, 45.7788133]}}, {"type": "Feature", "properties": {"type": "way", "id": 29233452, "tags": {"addr:city": "Zagreb", "addr:housenumber": "18", "addr:postcode": "10000", "addr:street": "Savska cesta", "architect:wikidata": "Q4494378", "building": "yes", "email": "info@tmnt.hr", "fax": "+385 1 4843 568", "heritage": "3", "heritage:operator": "uzkb", "name": "Tehni\u010dki muzej Nikola Tesla", "opening_hours:covid19": "Mo-Fr 09:00-17:00, Sa-Su 09:00-13:00", "phone": "+385 1 4844 050", "ref:hr:uzkb": "Z-2133", "start_date": "December 21, 1954", "tourism": "museum", "website": "http://www.tehnicki-muzej.hr/", "wikidata": "Q2618661", "wikipedia": "hr:Tehni\u010dki muzej Nikola Tesla"}}, "geometry": {"type": "Point", "coordinates": [15.9643255, 45.8039979]}}, {"type": "Feature", "properties": {"type": "way", "id": 29354977, "tags": {"addr:city": "Zagreb", "addr:housenumber": "10", "addr:postcode": "10000", "addr:street": "Trg Republike Hrvatske", "building:levels": "3", "building:part": "yes", "email": "muo@muo.hr", "name": "Muzej za umjetnost i obrt", "opening_hours": "Tu-Sa 11:00-20:00; Su 10:00-14:00", "phone": "+ 38514882111", "tourism": "museum", "website": "https://www.muo.hr/", "wheelchair": "limited", "wikidata": "Q406652"}}, "geometry": {"type": "Point", "coordinates": [15.9685272, 45.8094017]}}, {"type": "Feature", "properties": {"type": "way", "id": 248806370, "tags": {"addr:city": "Zagreb", "addr:housenumber": "14", "addr:postcode": "10000", "addr:street": "Trg Ivana, Antuna i Vladimira Ma\u017eurani\u0107a", "architect:wikidata": "Q7938107", "building": "yes", "email": "EMZ@emz.hr", "name": "Etnografski muzej", "opening_hours": "Tu-Fr 10:00-18:00; Sa-Su 10:00-13:00", "phone": "+38514826220", "roof:material": "roof_tiles", "roof:shape": "gabled", "tourism": "museum", "website": "http://www.emz.hr/", "wheelchair": "no", "wikidata": "Q502157"}}, "geometry": {"type": "Point", "coordinates": [15.9689767, 45.8083539]}}, {"type": "Feature", "properties": {"type": "way", "id": 618782388, "tags": {"building": "yes", "building:part": "yes", "email": "mimara@mimara.hr", "name": "Muzej Mimara", "opening_hours": "Tu,We,Fr,Sa 10:00-17:00; Th 10:00-19:00; Su 10:00-14:00", "phone": "01/4828-100", "tourism": "museum", "website": "http://www.mimara.hr/", "wheelchair": "no", "wikidata": "Q1936046"}}, "geometry": {"type": "Point", "coordinates": [15.9668551, 45.8081868]}}, {"type": "Feature", "properties": {"type": "way", "id": 392439336, "tags": {"addr:housenumber": "22", "addr:postcode": "10000", "addr:street": "Trg kralja Tomislava", "amenity": "arts_centre", "architect:wikidata": "Q572063;Q358140", "building": "yes", "email": "info@umjetnicki-paviljon.hr", "heritage": "3", "heritage:operator": "uzkb", "name": "Umjetni\u010dki paviljon", "name:de": "Kunstpavillon Zagreb", "opening_hours": "Tu-Th,Sa-Su 11:00-20:00; Fr 11:00-21:00", "ref:hr:uzkb": "Z-0222", "roof:material": "roof_tiles", "roof:shape": "gabled", "start_date": "1897..1898", "tourism": "museum", "website": "https://www.umjetnicki-paviljon.hr/", "wheelchair": "no", "wikidata": "Q391613", "wikipedia": "hr:Umjetni\u010dki paviljon"}}, "geometry": {"type": "Point", "coordinates": [15.9786271, 45.8070838]}}, {"type": "Feature", "properties": {"type": "way", "id": 272805462, "tags": {"addr:housenumber": "8", "addr:street": "Mleta\u010dka ulica", "architect:wikidata": "Q1266191", "fee": "yes", "heritage": "3", "heritage:operator": "uzkb", "name": "Atelijer Me\u0161trovi\u0107", "opening_hours": "Tu-Fr 10:00-18:00; Sa-Su 10:00-14:00", "ref:hr:uzkb": "Z-0191", "tourism": "museum", "website": "http://www.mdc.hr/mestrovic/atelijer/index-en.htm", "wheelchair": "no"}}, "geometry": {"type": "Point", "coordinates": [15.9734644, 45.81728]}}, {"type": "Feature", "properties": {"type": "way", "id": 137117928, "tags": {"addr:housenumber": "37", "addr:postcode": "10000", "addr:street": "Ulica Ivana Gorana Kova\u010di\u0107a", "building": "yes", "building:levels": "2", "email": "hma@hazu.hr", "name": "Hrvatski muzej arhitekture", "name:en": "Croatian Architecture Museum", "opening_hours": "Mo-We, Fr 10:00-16:00; Th 10:00-19:00", "phone": "+38514834551", "roof:material": "roof_tiles", "roof:shape": "gabled", "tourism": "museum", "website": "http://info.hazu.hr/hr/o-akademiji/jedinice/hrvatski_muzej_arhitekture/"}}, "geometry": {"type": "Point", "coordinates": [15.9686043, 45.8209956]}}, {"type": "Feature", "properties": {"type": "way", "id": 113422819, "tags": {"building": "yes", "name": "Muzej Turopolja", "roof:material": "roof_tiles", "roof:shape": "gabled", "tourism": "museum"}}, "geometry": {"type": "Point", "coordinates": [16.1165723, 45.7738178]}}, {"type": "Feature", "properties": {"type": "way", "id": 859016775, "tags": {"addr:city": "Samci", "addr:housenumber": "10", "addr:postcode": "49245", "addr:street": "Ulica grofova Or\u0161i\u0107", "building:part": "yes", "name": "Muzej selja\u010dkih buna", "phone": "+385 49 587 880", "tourism": "museum", "website": "http://www.mdc.hr/msb", "wikidata": "Q16116845", "wikipedia": "hr:Muzej selja\u010dkih buna, Gornja Stubica"}}, "geometry": {"type": "Point", "coordinates": [16.0166663, 45.9846455]}}, {"type": "Feature", "properties": {"type": "way", "id": 226514059, "tags": {"addr:city": "Sveti Ivan Zelina", "addr:postcode": "10380", "building": "yes", "name": "Muzej Sveti Ivan Zelina", "tourism": "museum"}}, "geometry": {"type": "Point", "coordinates": [16.2428425, 45.9591037]}}, {"type": "Feature", "properties": {"type": "way", "id": 445440231, "tags": {"addr:city": "\u010cazma", "addr:postcode": "43240", "building": "yes", "name": "Zavi\u010dajni muzej \u010cazma", "tourism": "museum", "website": "https://www.cazma.hr/kultura/muzej/"}}, "geometry": {"type": "Point", "coordinates": [16.6112531, 45.7481973]}}, {"type": "Feature", "properties": {"type": "way", "id": 328324342, "tags": {"amenity": "place_of_worship", "building": "church", "denomination": "catholic", "heritage": "2", "heritage:operator": "uzkb", "name": "kapelica Svetog Jurja", "ref:hr:uzkb": "N-13", "religion": "christian"}}, "geometry": {"type": "Point", "coordinates": [16.025678, 46.2132548]}}, {"type": "Feature", "properties": {"type": "way", "id": 318882306, "tags": {"amenity": "place_of_worship", "building": "church", "heritage": "2", "heritage:operator": "uzkb", "name": "crkva Bezgre\u0161nog Za\u010de\u0107a Bla\u017eene Djevice Marije", "ref:hr:uzkb": "N-12", "religion": "christian"}}, "geometry": {"type": "Point", "coordinates": [16.0398759, 46.20928]}}, {"type": "Feature", "properties": {"type": "way", "id": 318882307, "tags": {"building": "yes", "heritage": "2", "heritage:operator": "uzkb", "historic": "monastery", "name": "Pavlinski Samostan", "ref:hr:uzkb": "N-12", "religion": "christian"}}, "geometry": {"type": "Point", "coordinates": [16.0399711, 46.2095241]}}, {"type": "Feature", "properties": {"type": "way", "id": 486369704, "tags": {"addr:city": "Ivanec", "addr:postcode": "42240", "building": "yes", "name": "Muzej planinarstva Ivanec", "tourism": "museum"}}, "geometry": {"type": "Point", "coordinates": [16.125571, 46.2216357]}}, {"type": "Feature", "properties": {"type": "way", "id": 229126021, "tags": {"addr:housenumber": "6", "addr:street": "Franjeva\u010dki trg", "building": "yes", "name": "Muzej kukaca", "name:de": "Naturkundemuseum", "tourism": "museum"}}, "geometry": {"type": "Point", "coordinates": [16.3357747, 46.3078625]}}, {"type": "Feature", "properties": {"type": "way", "id": 276972695, "tags": {"building": "yes", "heritage": "2", "heritage:operator": "uzkb", "name": "Pala\u010da Pata\u010di\u0107", "ref:hr:uzkb": "N-22", "wikidata": "Q12639212", "wikipedia": "hr:Pala\u010da Pata\u010di\u0107 u Vara\u017edinu"}}, "geometry": {"type": "Point", "coordinates": [16.3370591, 46.3077024]}},