{"version": 0.6, "generator": "Overpass API 0.7.56.7 b85c4387", "osm3s": {"timestamp_osm_base": "2021-03-03T09:59:28Z", "timestamp_areas_base": "2021-03-03T08:19:27Z", "copyright": "The data included in this document is from www.openstreetmap.org. The data is made available under ODbL."}, "elements": [{"type": "node", "id": 5134090162, "lat": 27.6412726, "lon": -17.9808562, "tags": {"contact:phone": "+34 922557137", "contact:website": "http://elhierro.travel/lugares-interes/museo-de-las-restingolitas/", "name": "Museo de las Restingolitas", "opening_hours": "We-Su 10:30-17:30", "tourism": "museum", "wheelchair": "limited"}}, {"type": "node", "id": 1621560272, "lat": 27.7037589, "lon": -17.981033, "tags": {"name": "Centro de Interpretaci\u00f3n Geol\u00f3gica", "old_name": "Centro de Interpretaci\u00f3n Cabecera Sur", "opening_hours": "Tu-Su 10:00-18:00", "operator": "Cabildo Insular de El Hierro", "tourism": "museum", "website": "https://elhierro.travel/que-hacer/centro-de-interpretacion-geologica/"}}, {"type": "node", "id": 382223080, "lat": 27.7737163, "lon": -17.999137, "tags": {"internet_access": "wlan", "internet_access:fee": "no", "name": "Ecomuseo de Guinea", "tourism": "museum", "wheelchair": "limited"}}, {"type": "node", "id": 5194015169, "lat": 28.0829243, "lon": -17.3343913, "tags": {"addr:city": "Valle Gran Rey", "addr:postcode": "38870", "addr:street": "Calle Tel\u00e9maco", "exhibition": "science", "name": "Dolphins and Whales of La Gomera", "name:de": "Delfine und Wale vor La Gomera \u2013 Artenvielfalt im Wandel", "name:es": "Delfines y Ballenas de La Gomera", "opening_hours": "Mo-Sa 09:30-13:00, Mo-Fr 17:00-19:00", "operator": "M.e.e.r. e.V.", "tourism": "museum", "website": "https://m-e-e-r.de/ausstellung/", "wheelchair": "no"}}, {"type": "node", "id": 318421718, "lat": 28.0925263, "lon": -17.1107826, "tags": {"name": "Museo Arqueol\u00f3gico de la Gomera", "opening_hours": "Mo-Fr 09:00-14:00, 15:00-17:00", "tourism": "museum", "website": "https://museoslagomera.es/es/museos-de-la-gomera/san-sebastian-de-la-gomera/museo-arqueologico/", "wikidata": "Q63928616"}}, {"type": "node", "id": 6402057429, "lat": 28.4553866, "lon": -17.8433549, "tags": {"name": "Centro de interpretaciob de la reserva marina", "opening_hours": "Tu-Sa 09:00-17:00", "tourism": "museum", "website": "http://www.lapalmabiosfera.es/es/la-palma/lugares-visitables/item/ctro-de-interpretacion-reserva-marina-de-la-palma"}}, {"type": "node", "id": 945654327, "lat": 28.5955277, "lon": -17.8880813, "tags": {"addr:city": "Los Llanos de Aridane", "addr:country": "ES", "addr:housenumber": "88", "addr:postcode": "38760", "addr:street": "Camino el Callej\u00f3n", "email": "museodelvino@aridane.org", "name": "Casa Museo del Vino", "opening_hours": "Oct-Jun Mo-Fr 09:30-16:00; Oct-Jun Sa 09:30-14:00; Jul-Sep Mo-Fr 09:30-15:00; Jul-Sep Sa 09:30-14:00; Su,PH off", "phone": "+34 922 49 43 20", "tourism": "museum", "website": "http://www.aridane.org/index/index.php?option=com_content&view=article&id=23:casa-museo-del-vino-las-manchas&catid=50:lugares-de-interes&Itemid=135", "wheelchair": "yes"}}, {"type": "node", "id": 945652779, "lat": 28.6426349, "lon": -17.9349105, "tags": {"name": "Museo del Platano", "tourism": "museum", "wikidata": "Q98923089"}}, {"type": "node", "id": 945652782, "lat": 28.6428984, "lon": -17.9345455, "tags": {"name": "Museo del Mojo", "tourism": "museum", "wikidata": "Q98923873"}}, {"type": "node", "id": 6360351759, "lat": 28.710974, "lon": -17.9557638, "tags": {"name": "Museo etnografico", "tourism": "museum"}}, {"type": "node", "id": 945106831, "lat": 28.6516907, "lon": -17.8799745, "tags": {"addr:city": "El Paso", "addr:housenumber": "4", "addr:postcode": "38750", "addr:street": "Calle Manuel Ta\u00f1o", "name": "Las Hilanderas  Museo de Seda", "opening_hours": "Mo-Fr 10:00-14:00", "tourism": "museum", "website": "www.lashilanderaselpaso.com"}}, {"type": "node", "id": 1667666995, "lat": 28.5780432, "lon": -17.7764963, "tags": {"name": "Parque Arqueologico de Belmaco", "tourism": "museum"}}, {"type": "node", "id": 5031726215, "lat": 28.6674226, "lon": -17.7873404, "tags": {"name": "Museo del Puro Palmero", "name:es": "Museo del Puro Palmero", "tourism": "museum", "website": "http://museodelpuropalmero.com/de/", "wikidata": "Q98923808"}}, {"type": "node", "id": 6267565809, "lat": 28.6676964, "lon": -17.7876799, "tags": {"name": "Museo de la Fiesta de las Cruces", "tourism": "museum", "wikidata": "Q98923573"}}, {"type": "node", "id": 945024320, "lat": 28.6872598, "lon": -17.7622319, "tags": {"fee": "yes", "historic": "monument", "name": "Museo Insular de Bellas Artes, Ciencias Naturales y Etnograf\u00eda", "protection_title": "Bien de Inter\u00e9s Cultural", "protection_title:category": "Monumento", "ref:bic": "RI-51-0001341", "tourism": "museum"}}, {"type": "node", "id": 1199338021, "lat": 28.6881957, "lon": -17.7610887, "tags": {"name": "Museo Naval (Barco)", "tourism": "museum"}}, {"type": "node", "id": 3942001606, "lat": 28.6824425, "lon": -17.7661822, "tags": {"addr:housenumber": "13", "addr:street": "Calle Virgen de la Luz", "name": "Centro de Interpretaci\u00f3n de la Bajada de la Virgen", "opening_hours": "Mo-Fr 10:00-14:00", "operator": "Ayuntamiento de Santa Cruz de La Palma", "phone": "+34 922416304", "tourism": "museum", "website": "http://www.santacruzdelapalma.es/sclapalma/museos", "wheelchair": "yes"}}, {"type": "node", "id": 3942064919, "lat": 28.6828768, "lon": -17.7661355, "tags": {"name": "El Museo de la Educaci\u00f3n \u201cGerm\u00e1n Gonz\u00e1lez Gonz\u00e1lez\u201d", "tourism": "museum"}}, {"type": "node", "id": 1718200532, "lat": 28.8054679, "lon": -17.9074474, "tags": {"name": "La Zarza Centro de Visitantes", "opening_hours": "Summer 11:00-19:00; Mo off; Winter 11:00-17:00", "tourism": "museum"}}, {"type": "node", "id": 7020717169, "lat": 28.8086759, "lon": -17.7623869, "tags": {"alt_name": "Centro de Interpretaci\u00f3n de la Ca\u00f1a de Az\u00facar y el Ron", "int_name": "Destiler\u00edas Aldea", "museum_type": "regional", "name": "Trapiche El Melonar", "opening_hours": "Mo-Fr 09:00-14:00,15:00-18:00, Sa-Su 10:00-14:00,15:00-18:00", "operator": "Destiler\u00edas Aldea", "phone": "+34 922 45 05 68;+34 648 72 98 23", "tourism": "museum"}}, {"type": "node", "id": 1574754351, "lat": 28.1530236, "lon": -17.199445, "tags": {"name": "PEG Los Telares, El Parque Etnogr\u00e1fico de La Gomera", "opening_hours": "Mo-Sa 09:30-16:30", "operator": "PEG Los Telares, El Parque Etnogr\u00e1fico de La Gomera", "tourism": "museum", "website": "https://www.molinodegofiogomera.com"}}, {"type": "node", "id": 1575684610, "lat": 28.1601682, "lon": -17.1984213, "tags": {"addr:city": "Hermigua", "addr:housenumber": "99", "addr:postcode": "38820", "addr:street": "Carretera General", "name": "Museo Etnogr\u00e1fico", "opening_hours": "Tu-Fr 10:00-18:00;Sa,Su 10:00-14:00", "phone": "+34 922 88 19 60", "tourism": "museum", "website": "https://museoslagomera.es/es/museos-de-la-gomera/hermigua/museo-etnografico/"}}, {"type": "node", "id": 5469343248, "lat": 28.2364123, "lon": -16.8421267, "tags": {"name": "Museo del Pescador", "tourism": "museum"}}, {"type": "node", "id": 3649529027, "lat": 28.2685296, "lon": -16.808134, "tags": {"name": "Museo Etnogr\u00e1fico Cha Domitila", "opening_hours": "Mo-Sa 10:00-13:00, 16:00-19:00; Su 10:00-14:00", "operator": "Cabildo Insular de Tenerife", "tourism": "museum"}}, {"type": "node", "id": 1107013546, "lat": 28.0965973, "lon": -16.6206609, "tags": {"building": "yes", "name": "Museo Casa de el Capit\u00e1n", "note": "Etnography", "opening_hours": "Mo 9:00-13:30, 16:30-19:00; Tu-Fr 8:00-14:30, 16:00-20:00; Sa 9:00-14:00", "phone": "34 922700887", "tourism": "museum"}}, {"type": "node", "id": 5939841605, "lat": 28.0702498, "lon": -16.5134799, "tags": {"name": "Iter", "tourism": "museum"}}, {"type": "node", "id": 3689554010, "lat": 27.9045205, "lon": -15.7248283, "tags": {"name": "Museo", "tourism": "museum"}}, {"type": "node", "id": 7281040626, "lat": 27.812404, "lon": -15.5825669, "tags": {"name": "Mundo Aborigen", "tourism": "museum"}}, {"type": "node", "id": 1686716478, "lat": 27.8456206, "lon": -15.5693353, "tags": {"name": "Necr\u00f3polis de Arteara", "phone": "+34 638 810 591", "tourism": "museum", "wikidata": "Q6039283"}}, {"type": "node", "id": 5251463537, "lat": 27.9953556, "lon": -15.6196739, "tags": {"addr:housenumber": "84", "addr:street": "Calle Doctor Heraclio S\u00e1nchez", "name": "Museo Tres Cruces", "tourism": "museum"}}, {"type": "node", "id": 6760725605, "lat": 27.9965614, "lon": -15.6149865, "tags": {"name": "Museo de las Tradiciones", "tourism": "museum"}}, {"type": "node", "id": 6760726891, "lat": 27.9974818, "lon": -15.6137922, "tags": {"name": "Centro de Plantas Medicinales", "tourism": "museum"}}, {"type": "node", "id": 3263994199, "lat": 28.0192386, "lon": -15.6455895, "tags": {"addr:city": "Artenara", "addr:housenumber": "13", "addr:postcode": "35350", "addr:street": "Calle P\u00e1rroco Domingo B\u00e1ez", "description": "El h\u00e1bitat de Artenara est\u00e1 definido por la vivienda en cueva, lo que constituye un singular patrimonio etnogr\u00e1fico", "fee": "no", "name": "Museo Etnogr\u00e1fico Casas Cuevas", "name:de": "Artenara - Museo Etnogr\u00e1fico Casas Cuevas - Das Museum der H\u00f6hlen H\u00e4user", "note": "Free entrance / Entrada gratu\u00edta", "opening_hours": "11:30-16:30", "operator": "Ayuntamiento de Artenara", "phone": "+34 928 66 61 02", "tourism": "museum", "website": "http://www.artenara.es/turismo/index.php/es/que-hacer-men/15-noticias-que-ver/28-casas-cueva-de-artenara"}}, {"type": "node", "id": 1895118920, "lat": 28.0431531, "lon": -15.6519309, "tags": {"name": "Museo Cueva Etnogr\u00e1fico de Barranco Hondo Bajo", "tourism": "museum"}}, {"type": "node", "id": 1526116156, "lat": 28.1002176, "lon": -15.7012731, "tags": {"description": "\"Branch Museum\" - museum about the main event  in the town of Agaete., the celebration Our Lady of the Snows\u2019 Festivity", "name": "Museo de La Rama", "tourism": "museum"}}, {"type": "node", "id": 1528713072, "lat": 28.1018716, "lon": -15.7017717, "tags": {"name": "Museo Poeta", "opening_hours": "Mo-Fr 10:00-13:30; Mo-Fr 17:30-19:00; Sa 10:00-13:00", "tourism": "museum"}}, {"type": "node", "id": 5528996427, "lat": 28.0590968, "lon": -15.5478902, "tags": {"name": "Museo y Camar\u00edn de la Virgen", "opening_hours": "Mo-Fr 12:00-15:00, Sa,Su 11:00-14:30", "tourism": "museum"}}, {"type": "node", "id": 6711906553, "lat": 28.0596045, "lon": -15.5478598, "tags": {"tourism": "museum"}}, {"type": "node", "id": 5295494021, "lat": 28.0857217, "lon": -15.6210162, "tags": {"name": "Gu\u00eda - Casa del Queso/Museum", "tourism": "museum"}}, {"type": "node", "id": 5340569121, "lat": 28.0861355, "lon": -15.6180837, "tags": {"name": "Casa del Queso", "name:en": "Dom Sera", "name:es": "Casa del Queso", "tourism": "museum"}}, {"type": "node", "id": 2529534673, "lat": 27.8145011, "lon": -15.4225533, "tags": {"name": "Centro de Interpretaci\u00f3n de las Salinas de Tenef\u00e9", "tourism": "museum", "website": "http://www.santaluciagc.com/tacgestorcontenidos_stalucia09/modules.php?mod=portal2&file=ver_contenido&id=2334"}}, {"type": "node", "id": 7856944735, "lat": 27.8521973, "lon": -15.4409085, "tags": {"museum": "history", "tourism": "museum"}}, {"type": "node", "id": 3507616765, "lat": 27.9058851, "lon": -15.4451616, "tags": {"tourism": "museum"}}, {"type": "node", "id": 4996081621, "lat": 27.8578553, "lon": -15.3869377, "tags": {"museum": "technology", "name": "Museo de cal de-risco-verde-arinaga", "name:de": "Kalkmuseum-von-risco-verde-arinaga", "tourism": "museum", "website": "https://patrimoniodegrancanaria.wordpress.com/museos/museo-de-la-cal-de-risco-verde/"}}, {"type": "node", "id": 2681839948, "lat": 27.9267725, "lon": -15.4290822, "tags": {"addr:city": "Ingenio", "addr:country": "ES", "addr:housenumber": "1", "addr:postcode": "35250", "addr:street": "Calle Camino Real de Ganado", "name": "Museo de Piedras", "tourism": "museum"}}, {"type": "node", "id": 5268381455, "lat": 28.0015347, "lon": -15.4159762, "tags": {"name": "Casa-Museo Le\u00f3n y Castillo", "tourism": "museum", "wikidata": "Q5553271", "wikipedia": "es:Casa-Museo Le\u00f3n y Castillo"}}, {"type": "node", "id": 2604734736, "lat": 27.9308389, "lon": -15.380729, "tags": {"name": "Museo de Aeron\u00e1utica Canaria", "opening_hours": "We", "operator": "Ministerio de Defensa", "tourism": "museum", "website": "http://www.portalcultura.mde.es/cultural/fortificaciones/canarias/fortificacion_93.html"}}, {"type": "node", "id": 4540147191, "lat": 28.0644838, "lon": -15.4617402, "tags": {"name": "Jard\u00edn Bot\u00e1nico Viera y Clavijo", "name:es": "Jard\u00edn Bot\u00e1nico Viera y Clavijo", "name:et": "Botaanika aed", "opening_hours": "Mo-Su 09:00-18:00", "tourism": "museum", "website": "http://www.jardincanario.org", "wikidata": "Q1303386"}}, {"type": "node", "id": 4410740732, "lat": 28.1071948, "lon": -15.4214946, "tags": {"addr:street": "Calle Domingo Guerra del R\u00edo", "fee": "no", "name": "Museo de la Ciudad y el Mar Castillo de Mata", "name:en": "Museum of the City and the Sea Castillo de Mata", "name:es": "Museo de la Ciudad y el Mar Castillo de Mata", "operator": "Ayuntamiento de Las Palmas de gran Canaria", "tourism": "museum", "wheelchair": "yes", "wikidata": "Q5757430", "wikipedia": "es:Castillo de Mata"}}, {"type": "node", "id": 310011119, "lat": 28.1233511, "lon": -16.576523, "tags": {"name": "Museo de Historia de Granadilla Abona", "tourism": "museum"}}, {"type": "node", "id": 5750082459, "lat": 28.3665837, "lon": -16.7210688, "tags": {"tourism": "museum"}}, {"type": "node", "id": 4966103967, "lat": 28.3690688, "lon": -16.7217384, "tags": {"name": "Museo Guanche", "tourism": "museum", "wikidata": "Q92314246"}}, {"type": "node", "id": 5270199421, "lat": 28.3677505, "lon": -16.6941504, "tags": {"addr:housenumber": "21", "addr:postcode": "38430", "addr:street": "Calle el Moleiro", "name": "Museo Mu\u00f1ecas ARTlandya", "name:en": "Doll Museum", "name:ru": "\u041c\u0443\u0437\u0435\u0439 \u041a\u0443\u043a\u043e\u043b", "opening_hours": "Tu-Su 10:00-18:00", "tourism": "museum", "website": "https://www.artlandya.com/"}}, {"type": "node", "id": 609954984, "lat": 28.3784833, "lon": -16.4991648, "tags": {"name": "Museo Etnogr\u00e1fico de Pinolere", "tourism": "museum"}}, {"type": "node", "id": 5400974271, "lat": 28.3923656, "lon": -16.5248496, "tags": {"addr:city": "La Orotava", "addr:country": "ES", "addr:housenumber": "34", "addr:postcode": "38300", "addr:street": "Calle Tom\u00e1s Zerolo", "email": "mait@tenerife.es", "name": "Museo de Artesan\u00eda Iberoamericana de Tenerife", "name:ru": "\u041c\u0443\u0437\u0435\u0439 \u0438\u0431\u0435\u0440\u043e-\u0430\u043c\u0435\u0440\u0438\u043a\u0430\u043d\u0441\u043a\u0438\u0445 \u0440\u0435\u043c\u0435\u0441\u0435\u043b \u0422\u0435\u043d\u0435\u0440\u0438\u0444\u0435", "opening_hours": "Mo-Fr 10:00-15:00; Sa off; Su off", "phone": "+34922328160", "short_name": "MAIT", "tourism": "museum", "website": "http://artenerife.com/"}}, {"type": "node", "id": 5750081017, "lat": 28.3897773, "lon": -16.5257287, "tags": {"addr:city": "La Orotava", "museum": "local", "name": "Museo de Arte Sacro", "tourism": "museum"}}, {"type": "node", "id": 5750081018, "lat": 28.3881841, "lon": -16.5258178, "tags": {"addr:postcode": "38300", "name": "Museo de las Alfombras", "name:ru": "\u041c\u0443\u0437\u0435\u0439 \u043a\u043e\u0432\u0440\u043e\u0432", "tourism": "museum"}}, {"type": "node", "id": 5750081019, "lat": 28.3884146, "lon": -16.5258374, "tags": {"craft": "handicraft", "name": "Casa M\u00e9ndez Fonseca - Casa de los Balcones", "tourism": "museum"}}, {"type": "node", "id": 698818299, "lat": 28.4156542, "lon": -16.5493114, "tags": {"name": "Museo Naval", "tourism": "museum"}}, {"type": "node", "id": 5261079021, "lat": 28.4179787, "lon": -16.5500837, "tags": {"name": "Museo de Arte Contempor\u00e1neo Eduardo Westerdahl", "tourism": "museum", "wikidata": "Q1954280"}}, {"type": "node", "id": 6087005910, "lat": 28.4559389, "lon": -16.3614736, "tags": {"name": "Aloe Lanzarote Museum", "name:ru": "\u041c\u0443\u0437\u0435\u0439 \u0410\u043b\u043e\u044d \u0412\u0435\u0440\u0430", "tourism": "museum"}}, {"type": "node", "id": 919600208, "lat": 28.4895242, "lon": -16.3149608, "tags": {"name": "Museo de Historia de Tenerife", "tourism": "museum", "wikidata": "Q6941091", "wikipedia": "es:Museo de Historia de Tenerife"}}, {"type": "node", "id": 1036673662, "lat": 28.4857715, "lon": -16.3159422, "tags": {"admin_level": "8", "capital": "8", "ele": "549", "heritage": "1", "heritage:operator": "whc", "heritage:operator_1": "Gobierno de Canarias", "heritage_1": "3", "loc_name": "La Laguna", "name": "San Crist\u00f3bal de La Laguna", "name:ko": "\uc0b0\ud06c\ub9ac\uc2a4\ud1a0\ubc1c\ub370\ub77c\ub77c\uad6c\ub098", "name:lt": "San Kristobal de la Lag\u016bna", "name:ru": "\u0421\u0430\u043d-\u041a\u0440\u0438\u0441\u0442\u043e\u0431\u0430\u043b\u044c-\u0434\u0435-\u041b\u0430-\u041b\u0430\u0433\u0443\u043d\u0430", "name:uk": "\u0421\u0430\u043d-\u041a\u0440\u0456\u0441\u0442\u043e\u0431\u0430\u043b\u044c-\u0434\u0435-\u043b\u0430-\u041b\u0430\u0433\u0443\u043d\u0430", "name:zh": "\u62c9\u53e4\u7eb3\u7684\u5723\u514b\u91cc\u65af\u6258\u74e6\u5c14", "place": "city", "population": "31337", "ref:ine": "38023001700", "source": "Instituto Geogr\u00e1fico Nacional", "source:date": "2011-06", "source:ele": "MDT5", "source:file": "http://centrodedescargas.cnig.es/CentroDescargas/equipamiento/BD_Municipios-Entidades.zip", "source:name": "Nomencl\u00e1tor Geogr\u00e1fico de Municipios y Entidades de Poblaci\u00f3n", "wikidata": "Q54898", "wikipedia": "es:San Crist\u00f3bal de La Laguna"}}, {"type": "node", "id": 2587900119, "lat": 28.4894904, "lon": -16.3171475, "tags": {"name": "Casa Museo los Sabande\u00f1os", "tourism": "museum"}}, {"type": "node", "id": 5757163700, "lat": 28.4900479, "lon": -16.3139152, "tags": {"name": "Museo Santa Clara de arte sacro", "opening_hours": "Mo 10:00-14:00; Tu-Fr 10:00-17:00", "tourism": "museum"}}, {"type": "node", "id": 5752482281, "lat": 28.4638654, "lon": -16.2494781, "tags": {"name": "Museo de la Naturaleza y el Hombre", "note": "no entrance fee on Fr, Sa 16:00-20:00; otherwise 2 to 5 \u20ac", "opening_hours": "Tu-Sa 09:00-20:00, Mo,Su 10:00-17:00", "phone": "+34 922535816", "tourism": "museum", "website": "https://www.museosdetenerife.org/mnh-museo-de-la-naturaleza-y-el-hombre", "wikidata": "Q1451968", "wikipedia": "es:Museo de la Naturaleza y el Hombre"}}, {"type": "node", "id": 280739134, "lat": 28.4754552, "lon": -16.2476658, "tags": {"name": "Museo Hist\u00f3rico Militar de Canarias", "tourism": "museum", "website": "http://www.ejercito.mde.es/unidades/Madrid/ihycm/Museos/canarias.html", "wikidata": "Q29938014"}}, {"type": "node", "id": 3920835689, "lat": 28.1393665, "lon": -15.6321861, "tags": {"name": "Museo N\u00e9stor \u00c1lamo", "tourism": "museum"}}, {"type": "node", "id": 1402497222, "lat": 28.1456632, "lon": -15.6547093, "tags": {"name": "Casa-Museo Antonio Padr\u00f3n", "note:es": "Incoado Bien de Inter\u00e9s Cultural", "tourism": "museum", "website": "http://www.antoniopadron.com/", "wikidata": "Q5481014", "wikipedia": "es:Casa-Museo Antonio Padr\u00f3n"}}, {"type": "node", "id": 1402497493, "lat": 28.1448659, "lon": -15.6563467, "tags": {"name": "Museo de Arte Sacro Santiago de los Caballeros", "tourism": "museum"}}, {"type": "node", "id": 4815337682, "lat": 28.1208514, "lon": -15.4271206, "tags": {"name": "Museo N\u00e9stor", "name:en": "Nestor Museum", "tourism": "museum", "wikidata": "Q2884470"}}, {"type": "node", "id": 335686723, "lat": 28.1413491, "lon": -15.4295732, "tags": {"name": "Museo Elder de la Ciencia y la Tecnolog\u00eda", "name:en": "Museum of Science and Technology", "name:es": "Museo Elder de la Ciencia y la Tecnolog\u00eda", "tourism": "museum", "website": "http://www.museoelder.org", "wheelchair": "yes", "wikidata": "Q6033305"}}, {"type": "node", "id": 3434399979, "lat": 28.1386661, "lon": -15.4306618, "tags": {"name": "Centro de Arte La Regenta", "tourism": "museum", "wikidata": "Q60242383"}}, {"type": "node", "id": 1631897753, "lat": 28.3234226, "lon": -13.9281183, "tags": {"name": "Centro de Interpretaci\u00f3n Poblado de La Atalayita", "tourism": "museum", "website": "http://www.cabildofuer.es/portal/p_46_final_Distribuidor_3.jsp?seccion=s_fdes_d4_v1.jsp&codbusqueda=111&language=es&codResi=1&codMenuPN=55&codMenuSN=76&codMenu=189&layout=p_46_final_Distribuidor_3.jsp"}}, {"type": "node", "id": 3182712397, "lat": 28.4242181, "lon": -14.0574128, "tags": {"name": "Museo de Arte Sacro", "tourism": "museum"}}, {"type": "node", "id": 2138739584, "lat": 28.4309731, "lon": -14.0124668, "tags": {"addr:postcode": "35630", "addr:street": "Calle Virgen de Antigua", "name": "Museo del Queso Majorero", "opening_hours": "Tu-Sa 10:00-18:00", "tourism": "museum", "website": "http://museoquesomajorero.es", "wheelchair": "yes"}}, {"type": "node", "id": 4037292338, "lat": 28.4384634, "lon": -14.0501026, "tags": {"name": "Centro de Interpretaci\u00f3n Morro Vellosa", "opening_hours": "close", "source": "survey", "tourism": "museum"}}, {"type": "node", "id": 8149004220, "lat": 28.4645041, "lon": -13.9944188, "tags": {"name": "Casa Doctor Mena", "opening_hours": "Tu-Sa 09:00-18:00", "tourism": "museum"}}, {"type": "node", "id": 8149051117, "lat": 28.4637126, "lon": -13.9945691, "tags": {"name": "Hospital La Caridad de San Conrado y San Gaspar", "name:de": "Hospital", "name:en": "Hospital", "opening_hours": "Tu-Sa 09:00-18:00", "tourism": "museum"}}, {"type": "node", "id": 5434310535, "lat": 28.4987406, "lon": -13.8610845, "tags": {"image": "https://commons.wikimedia.org/wiki/File:Puerto_del_Rosario_-_Calle_Virgen_Del_Rosario_-_Casa_Museo_Unamuno_01_ies.jpg", "name": "Casa Museo de Unamuno", "subject:wikidata": "Q185085", "subject:wikipedia": "en:Miguel de Unamuno", "tourism": "museum", "wikimedia_commons": "File:Puerto_del_Rosario_-_Calle_Virgen_Del_Rosario_-_Casa_Museo_Unamuno_01_ies.jpg"}}, {"type": "node", "id": 5634524322, "lat": 28.60845, "lon": -13.9257078, "tags": {"name": "Centro de arte Canario", "opening_hours": "Mo-Su 10:00-16:00", "tourism": "museum"}}, {"type": "node", "id": 8137327317, "lat": 28.6119291, "lon": -13.9294548, "tags": {"addr:housenumber": "5", "addr:postcode": "35640", "addr:street": "Calle La Orilla", "name": "La Cilla", "name:de": "La Cilla, Kornmuseum", "name:es": "La Cilla, Museo del Grano", "opening_hours": "Tu-Sa 10:00-17:00", "phone": "+34 928 86 87 29", "tourism": "museum", "website": "https://www.lacilladelaoliva.org/"}}, {"type": "node", "id": 2788061648, "lat": 28.6141345, "lon": -13.9250047, "tags": {"name": "Museo Aloe Vera", "tourism": "museum"}}, {"type": "node", "id": 1052870254, "lat": 28.6531847, "lon": -13.9027433, "tags": {"description": "The volcanic tube remains closed due to landslides at the entrance. For your safety, access is prohibited (status from 2018-03-10)", "name": "Cueva del Llano", "opening_hours": "Tu-Sa 10:00-17:30", "tourism": "museum"}}, {"type": "node", "id": 4857190226, "lat": 28.862319, "lon": -13.8541101, "tags": {"addr:housenumber": "1", "addr:postcode": "35580", "addr:street": "Calle Lanzarote", "email": "info@underwatermuseumlanzarote.com", "name": "Museo Atl\u00e1ntico", "name:en": "Atlantic Museum", "name:ru": "\u041f\u043e\u0434\u0432\u043e\u0434\u043d\u044b\u0439 \u043c\u0443\u0437\u0435\u0439", "phone": "+34606853109", "tourism": "museum", "website": "https://underwatermuseumlanzarote.com/"}}, {"type": "node", "id": 2352406231, "lat": 28.9541994, "lon": -13.7737854, "tags": {"addr:city": "Yaiza", "addr:country": "ES", "addr:housenumber": "20", "addr:postcode": "35570", "addr:street": "Vista de Yaiza", "name": "Museo Alo\u00e9 +", "phone": "+34 928 836 268", "shop": "cosmetics", "tourism": "museum", "website": "http://www.aloepluslanzarote.es/"}}, {"type": "node", "id": 316968023, "lat": 29.0164979, "lon": -13.6155689, "tags": {"name": "Monumento al Campesino", "opening_hours": "Mo-Su 10:00-18:00", "tourism": "museum"}}, {"type": "node", "id": 624420338, "lat": 29.0570664, "lon": -13.6308187, "tags": {"addr:city": "Tiagua", "addr:housenumber": "18", "addr:postcode": "35558", "addr:street": "Calle Echeyde", "name": "Museo Agricola El Patio", "opening_hours": "Mo-Fr 10:00-17:00; Sa 10:00-14:00; Su Off", "phone": "+34 928 529 134", "tourism": "museum", "website": "http://alacenadigital.com/museo/", "wheelchair": "limited"}}, {"type": "node", "id": 1888848642, "lat": 29.0451893, "lon": -13.555102, "tags": {"name": "LagOmar", "opening_hours": "Tu-Su 10:00-18:00", "tourism": "museum", "website": "http://www.lag-o-mar.com/", "wheelchair": "no"}}, {"type": "node", "id": 631756703, "lat": 29.059447, "lon": -13.5603966, "tags": {"castle_type": "stately", "historic": "castle", "name": "Palacio Spinola", "opening_hours": "Mo-Fr 09:00-15:00; Su 10:00-14:00", "tourism": "museum"}}, {"type": "node", "id": 631758185, "lat": 29.0585441, "lon": -13.5605658, "tags": {"castle_type": "stately", "historic": "castle", "name": "Palacio Herrera", "opening_hours": "Mo-Fr 10:00-15:00", "tourism": "museum"}}, {"type": "node", "id": 5514259421, "lat": 29.0580004, "lon": -13.5626363, "tags": {"addr:street": "Calle Jos\u00e9 Betancort", "name": "CASA MUSEO MARA MAO", "tourism": "museum"}}, {"type": "node", "id": 5834954018, "lat": 29.0598806, "lon": -13.5604365, "tags": {"name": "Aloe Vera Museum", "opening_hours": "Mo-Fr 10:00-18:00; Sa 10:00-17:00; Su 09:30-15:00", "tourism": "museum"}}, {"type": "node", "id": 5834978338, "lat": 29.0582126, "lon": -13.5593102, "tags": {"description": "Last admission is 30 minutes before closing.", "name": "Museo Diocesano De Arte Sacro", "opening_hours": "Tu-Sa 09:30-16:30; Su 10:00-14:00; Mo off", "tourism": "museum"}}, {"type": "node", "id": 1842899277, "lat": 29.0578684, "lon": -13.5500861, "tags": {"name": "Museo de la Pirater\u00eda", "name:en": "Museum of Piracy", "opening_hours": "Mo-Sa 09:00-15:30; Su, PH 10:00-15:30", "tourism": "museum", "website": "http://museodelapirateria.com/"}}, {"type": "node", "id": 5628236427, "lat": 29.0934156, "lon": -13.4708645, "tags": {"name": "Centro de la cochinilla", "tourism": "museum"}}, {"type": "node", "id": 3598866671, "lat": 29.1418399, "lon": -13.50368, "tags": {"name": "Casa Museo C\u00e9sar Manrique", "opening_hours": "Mo-Su, PH 10:30-18:00", "tourism": "museum", "website": "http://fcmanrique.org"}}, {"type": "node", "id": 5832289946, "lat": 29.1466551, "lon": -13.4981378, "tags": {"addr:city": "Har\u00eda", "addr:street": "Plaza Le\u00f3n y Castillo", "name": "Museo De Arte Sacro", "tourism": "museum"}}, {"type": "node", "id": 7054343385, "lat": 29.1570687, "lon": -13.4308932, "tags": {"tourism": "museum"}}, {"type": "node", "id": 7128250631, "lat": 29.231502, "lon": -13.502591, "tags": {"addr:city": "Caleta del Sebo", "addr:housenumber": "27", "addr:postcode": "35540", "addr:street": "Calle Margarona", "email": "museochinijo@gmail.com", "name": "Museo Chinijo", "opening_hours": "Mo-Sa 10:00-17:00", "phone": "+34 928 177 461", "tourism": "museum", "website": "http://www.museochinijo.com/", "wikidata": "Q60983391"}}, {"type": "node", "id": 5208061169, "lat": 36.2734802, "lon": -6.0882454, "tags": {"description": "Centro de interpretaci\u00f3n y documentaci\u00f3n del mar, el at\u00fan y las almadabras", "name": "La Chanca", "tourism": "museum", "website": "http://lachancaconil.es"}}, {"type": "node", "id": 7263594985, "lat": 36.2428416, "lon": -5.9073458, "tags": {"name": "Fundaci\u00f3n NMAC", "name:en": "NMAC Foundation", "name:pt": "Funda\u00e7\u00e3o NMAC", "tourism": "museum", "website": "https://fundacionnmac.org/es/", "wikidata": "Q256777"}}, {"type": "node", "id": 5226301923, "lat": 36.4676618, "lon": -6.1937487, "tags": {"addr:street": "Calle Esca\u00f1o", "name": "Museo Naval", "opening_hours": "Mo-Fr 10:00-14:00; Sa 10:30-14:00", "phone": "+34 956545248", "tourism": "museum"}}, {"type": "node", "id": 4594031058, "lat": 36.4681806, "lon": -6.1903633, "tags": {"building": "construction", "name": "Museo Camar\u00f3n de la Isla", "tourism": "museum"}}, {"type": "node", "id": 6708297959, "lat": 36.4683878, "lon": -6.1915418, "tags": {"name": "Museo Municipal", "tourism": "museum", "wheelchair": "yes", "wikidata": "Q3276868", "wikipedia": "es:Museo Hist\u00f3rico Municipal de San Fernando"}}, {"type": "node", "id": 457480815, "lat": 36.0898088, "lon": -5.7714139, "tags": {"name": "Baelo Claudia", "tourism": "museum", "wikidata": "Q799737", "wikipedia": "en:Baelo Claudia"}}, {"type": "node", "id": 4893356551, "lat": 36.3471712, "lon": -5.8124274, "tags": {"addr:city": "Benalup-Casas Viejas", "addr:postcode": "11190", "addr:street": "Calle Huelva", "name": "Centro de Interpretaci\u00f3n \"C\u00e1diz Prehist\u00f3rico\"", "nohousenumber": "yes", "phone": "+34 956 41 79 27", "tourism": "museum", "website": "https://www.centroprehistoricobenalup.com"}}, {"type": "node", "id": 4583638799, "lat": 36.1278392, "lon": -5.4480573, "tags": {"addr:city": "Algeciras", "addr:postcode": "11201", "addr:street": "Calle Teniente Miranda", "name": "Museo Municipal de Algesiras", "tourism": "museum", "website": "http://www.algeciras.es/es/temas/cultura-y-ocio/museo/", "wikidata": "Q4266586"}}, {"type": "node", "id": 4582936125, "lat": 36.1343987, "lon": -5.4469942, "tags": {"addr:city": "Algeciras", "name": "Centro de Interpretacion de la Cultura Andalusi", "tourism": "museum", "wikidata": "Q5762062", "wikipedia": "es:Centro de interpretaci\u00f3n de la cultura andalus\u00ed"}}, {"type": "node", "id": 3342757970, "lat": 36.2096416, "lon": -5.3862902, "tags": {"addr:street": "Santa Ana", "name": "Museo Arqueol\u00f3gico San Roque", "tourism": "museum"}}, {"type": "node", "id": 4569478550, "lat": 36.3762648, "lon": -5.2476267, "tags": {"addr:city": "Manilva", "addr:postcode": "29691", "addr:street": "Calle del Doctor \u00c1lvarez Leiva", "name": "NILVA Enoturismo", "tourism": "museum", "website": "www.nilva.es"}}, {"type": "node", "id": 4549740450, "lat": 36.4181837, "lon": -5.1575129, "tags": {"name": "Museo Etnogr\u00e1fico", "tourism": "museum"}}, {"type": "node", "id": 7392953324, "lat": 36.4180255, "lon": -5.1574695, "tags": {"name": "Museo Paleontologico", "tourism": "museum"}}, {"type": "node", "id": 7392953325, "lat": 36.4178766, "lon": -5.15744, "tags": {"name": "Museo Taurino", "tourism": "museum"}}, {"type": "node", "id": 8393642160, "lat": 36.428438, "lon": -5.1276333, "tags": {"tourism": "museum"}}, {"type": "node", "id": 3093686185, "lat": 35.2943528, "lon": -2.9427523, "tags": {"addr:city": "Melilla", "name": "Sala de Exposiciones \"Valerio Manch\u00f3n\"", "tourism": "museum"}}, {"type": "node", "id": 5553458443, "lat": 35.2934766, "lon": -2.9338644, "tags": {"addr:city": "Melilla", "addr:postcode": "52001", "addr:street": "Plaza de la Maestranza", "name": "Museo Etnogr\u00e1fico de las Culturas Amazigt y Sefard\u00ed", "tourism": "museum"}}, {"type": "node", "id": 5553458445, "lat": 35.2935794, "lon": -2.933857, "tags": {"addr:city": "Melilla", "addr:postcode": "52001", "addr:street": "Plaza de la Maestranza", "name": "Museo de Arqueolog\u00eda y Historia de Melilla", "tourism": "museum"}}, {"type": "node", "id": 5553486831, "lat": 35.2937778, "lon": -2.9344139, "tags": {"addr:city": "Melilla", "addr:postcode": "52001", "name": "Museo Ib\u00e1\u00f1ez de Melilla", "tourism": "museum", "wikidata": "Q47486950"}}, {"type": "node", "id": 6992331152, "lat": 35.2932481, "lon": -2.9336413, "tags": {"addr:housenumber": "8", "addr:postcode": "52001", "addr:street": "Almacenes de San Juan", "name": "Museo de la Asociaci\u00f3n de Estudios Melillenses", "operator": "Asociaci\u00f3n de Estudios Melillenses", "phone": "+34 951198998", "tourism": "museum"}}, {"type": "node", "id": 8462817579, "lat": 35.2943633, "lon": -2.9335329, "tags": {"addr:city": "Melilla", "addr:postcode": "52001", "addr:street": "Calle Miguel Acosta", "name": "Museo de Arte Sacro", "tourism": "museum"}}, {"type": "node", "id": 5553477097, "lat": 35.2951688, "lon": -2.933952, "tags": {"addr:city": "Melilla", "addr:postcode": "52001", "name": "Museo Militar de Melilal", "tourism": "museum"}}, {"type": "node", "id": 6854013485, "lat": 37.2039159, "lon": -7.3277906, "tags": {"addr:housenumber": "14", "addr:postcode": "21410", "addr:street": "Calle San Francisco", "name": "Museo del Carnaval", "name:es": "Museo del Carnaval (Casa PatioSan Francisco)", "opening_hours": "Mo-Su 09:00-14:00", "phone": "+34959332694", "tourism": "museum", "wikidata": "Q6034401", "wikipedia": "es:Museo del Carnaval (Isla Cristina)"}}, {"type": "node", "id": 3352130974, "lat": 37.2549944, "lon": -6.9435923, "tags": {"name": "Museo Provincial de Huelva", "tourism": "museum", "wikidata": "Q6034594"}}, {"type": "node", "id": 6346970706, "lat": 37.3527262, "lon": -6.7513116, "tags": {"name": "Dolmen de Soto. Centro de recepci\u00f3n de visitantes", "tourism": "museum"}}, {"type": "node", "id": 6832947985, "lat": 37.5801871, "lon": -6.7513423, "tags": {"name": "Casa Direcci\u00f3n (Museo Etnogr\u00e1fico)", "opening_hours": "Tu-Sa 11:00-14:00", "tourism": "museum"}}, {"type": "node", "id": 6833045985, "lat": 37.5776691, "lon": -6.7502869, "tags": {"name": "Museo del Ferrocarril", "tourism": "museum"}}, {"type": "node", "id": 6881453686, "lat": 37.9436138, "lon": -6.9544744, "tags": {"name": "Museo Arqueol\u00f3gico Municipal", "tourism": "museum"}}, {"type": "node", "id": 6881453985, "lat": 37.9442626, "lon": -6.9523577, "tags": {"addr:street": "Ord\u00f3\u00f1ez Valdes", "name": "Museo del Santo Rosario", "tourism": "museum"}}, {"type": "node", "id": 6966427582, "lat": 38.685187, "lon": -7.0989348, "tags": {"name": "Consorcio Museo Etnogr\u00e1fico Extreme\u00f1o \"Gonz\u00e1lez Santana\"", "phone": "+34 924 49 02 22", "tourism": "museum", "website": "https://museodeolivenza.com/"}}, {"type": "node", "id": 5587069247, "lat": 38.8798446, "lon": -6.965375, "tags": {"name": "Acceso a la Galer\u00eda de Fusileros de San Pedro", "tourism": "museum"}}, {"type": "node", "id": 6033220501, "lat": 39.4138287, "lon": -7.2427747, "tags": {"name": "Centro de Interpretaci\u00f3n de Valencia de Alc\u00e1ntara", "tourism": "museum"}}, {"type": "node", "id": 2392216638, "lat": 39.3630552, "lon": -7.1389683, "tags": {"name": "Museo del Corcho", "tourism": "museum"}}, {"type": "node", "id": 2392216650, "lat": 39.3628393, "lon": -7.1390011, "tags": {"name": "Centro de Interpretaci\u00f3n", "tourism": "museum"}}, {"type": "node", "id": 6138028921, "lat": 39.6506216, "lon": -7.4958183, "tags": {"name": "Museo Etnogr\u00e1fico El Cas\u00f3n del Cedillo", "tourism": "museum"}}, {"type": "node", "id": 6137974397, "lat": 39.5921316, "lon": -7.2359052, "tags": {"name": "Centro de Interpretaci\u00f3n de la Cultura Dolm\u00e9nica", "tourism": "museum"}}, {"type": "node", "id": 6261663484, "lat": 40.2958572, "lon": -6.8191351, "tags": {"addr:city": "Navasfr\u00edas", "addr:country": "ES", "addr:housenumber": "1", "addr:postcode": "37542", "addr:province": "Salamanca", "addr:street": "Plaza Mayor", "name": "Museo Etnogr\u00e1fico \"Ramos Andrade\"", "tourism": "museum"}}, {"type": "node", "id": 5575551598, "lat": 40.8505181, "lon": -6.711475, "tags": {"name": "Aula de interpretaci\u00f3n del Castillo", "opening_hours": "Sa 11:00-14:00,16:30-19:00;Su 11:00-14:00", "phone": "+34 657477593; +34 923521517", "tourism": "museum", "website": "http://sanfelicesdelosgallegos.es/Nuestro-pueblo/Patrimonio-Cultural/Museos"}}, {"type": "node", "id": 6348073817, "lat": 40.9860213, "lon": -6.7911018, "tags": {"name": "Colecci\u00f3n de Mariposas", "tourism": "museum"}}, {"type": "node", "id": 1739099029, "lat": 41.1048664, "lon": -6.7266286, "tags": {"name": "Museo Casa de los Frailes", "tourism": "museum"}}, {"type": "node", "id": 5333712420, "lat": 42.1521254, "lon": -8.6329064, "tags": {"contact:phone": "+34 986348964", "contact:website": "http://www.fctgranito.es/minergal", "fee": "no", "name": "Museo dos Minerais de Galicia", "opening_hours": "Tu,Th 09:00-15:00; PH off", "short_name": "Minergal", "source": "survey", "tourism": "museum"}}, {"type": "node", "id": 2470193428, "lat": 42.2115044, "lon": -8.7408496, "tags": {"name": "Museo Real Club Celta de Vigo", "operator": "Fundaci\u00f3n Celta de Vigo", "tourism": "museum"}}, {"type": "node", "id": 2455114170, "lat": 42.3061527, "lon": -8.7905969, "tags": {"name": "Museo do Lume e os Bombeiros", "operator": "Asociacion Museo do Lume e os Bombeiros / Parque de Bombeiros do Morrazo / Consorcio Provincial Contra Incendios e Salvamento de Pontevedra", "tourism": "museum"}}, {"type": "node", "id": 5875349885, "lat": 42.3268931, "lon": -8.7851724, "tags": {"addr:city": "Bueu", "addr:postcode": "36930", "addr:street": "Montero Rios", "name": "Museo Mass\u00f3", "nohousenumber": "yes", "tourism": "museum"}}, {"type": "node", "id": 2035591230, "lat": 42.2850486, "lon": -8.6561421, "tags": {"name": "Meirande", "official_name": "Centro de Interpretaci\u00f3n da Batalla e o Patrimonio Cultural de Rande", "tourism": "museum"}}, {"type": "node", "id": 1935634685, "lat": 42.1744919, "lon": -8.5082349, "tags": {"name": "Museo municipal", "operator": "Concello de Ponteareas", "tourism": "museum"}}, {"type": "node", "id": 2798567201, "lat": 42.2059554, "lon": -8.4638108, "tags": {"name": "Centro de Recuperaci\u00f3n de la Cultura Popular", "tourism": "museum"}}, {"type": "node", "id": 5073919921, "lat": 42.4696808, "lon": -8.9286244, "tags": {"name": "Casa Museio O Quinteiro", "opening_hours": "11:00-13:30,17:00-20:00", "tourism": "museum"}}, {"type": "node", "id": 6828723203, "lat": 42.5539736, "lon": -8.9904598, "tags": {"name": "Museo Municipal de Ribeira", "tourism": "museum"}}, {"type": "node", "id": 2432975310, "lat": 42.5627951, "lon": -8.8275562, "tags": {"addr:city": "Vilanova de Arosa", "name": "Museo de Valle-Incl\u00e1n", "tourism": "museum"}}, {"type": "node", "id": 2789569674, "lat": 42.6661076, "lon": -8.843277, "tags": {"name": "Centro Arqueol\u00f3xico do Barbanza", "phone": "+34 981 843 810", "tourism": "museum", "website": "http://centroarqueoloxicodobarbanza.org"}}, {"type": "node", "id": 3662753746, "lat": 42.6530284, "lon": -8.8182306, "tags": {"name": "Museo do Mar", "tourism": "museum"}}, {"type": "node", "id": 1772803691, "lat": 42.7258146, "lon": -9.0049125, "tags": {"designation": "Museo do Mar", "name": "Museo do Mar", "source": "Survey", "tourism": "museum"}}, {"type": "node", "id": 1812424355, "lat": 42.7251006, "lon": -9.0052052, "tags": {"name": "Centro de Interpretaci\u00f3n Castro de Baro\u00f1a", "tourism": "museum"}}, {"type": "node", "id": 1821177682, "lat": 42.724139, "lon": -9.0054787, "tags": {"name": "Museo etnogr\u00e1fico de Porto do Son", "tourism": "museum"}}, {"type": "node", "id": 1769328244, "lat": 42.7818771, "lon": -8.8878728, "tags": {"name": "Museo do Mar de Noia", "tourism": "museum", "wheelchair": "limited"}}, {"type": "node", "id": 1821119402, "lat": 42.7834919, "lon": -8.8859659, "tags": {"name": "Museo das Laudas - Santa Mar\u00eda A Nova", "tourism": "museum"}}, {"type": "node", "id": 1821098391, "lat": 42.7800932, "lon": -8.8103479, "tags": {"name": "Centro de interpretaci\u00f3n das minas de San Finx", "tourism": "museum"}}, {"type": "node", "id": 491583538, "lat": 42.3928479, "lon": -8.7002811, "tags": {"name": "Museo Manuel Torres", "tourism": "museum"}}, {"type": "node", "id": 3042515835, "lat": 42.4832031, "lon": -8.5399962, "tags": {"name": "Casa da Gaita", "tourism": "museum"}}, {"type": "node", "id": 1846599207, "lat": 42.5419322, "lon": -8.5300922, "tags": {"addr:city": "Campo Lameiro", "addr:street": "Praderrei", "name": "Parque Arqueol\u00f3xico da Arte Rupestre de Campo Lameiro", "name:en": "Archaeological Park of Campo Lameiro", "name:es": "Parque Arqueol\u00f3gico de la Arte Rupestre de Campo Lameiro", "name:gl": "Parque Arqueol\u00f3xico da Arte Rupestre de Campo Lameiro", "name:pt": "Parque Arqueol\u00f3gico da Arte Rupestre de Campo Lameiro", "nohousenumber": "yes", "opening_hours": "10:00-18:00; Su 10:00-15:00", "operator": "Xunta de Galicia", "tourism": "museum", "wikidata": "Q9055873", "wikipedia": "gl:Parque Arqueol\u00f3xico da Arte Rupestre"}}, {"type": "node", "id": 7522670619, "lat": 42.5903467, "lon": -8.6557568, "tags": {"tourism": "museum"}}, {"type": "node", "id": 1815411616, "lat": 42.6881986, "lon": -8.485971, "tags": {"addr:city": "A Estrada", "addr:postcode": "36680", "addr:street": "Avenida Benito Vigo, 92, baixo", "name": "Museo do Moble e da Madeira (MOME)", "phone": "+34 986 572 163", "tourism": "museum", "website": "http://fundacioncultural.aestrada.com/index.php/mome"}}, {"type": "node", "id": 5256181772, "lat": 42.759777, "lon": -8.5481079, "tags": {"bic:criteria": "M", "bic:inscription_date": "27-11-2017", "heritage": "2", "historic": "monument", "man_made": "bridge", "name": "Ponte Medieval de Ponte Vea", "name:en": "Medieval Bridge of Ponte Vea", "protection_title": "Bien de Inter\u00e9s Cultural", "protection_title:category": "monument"}}, {"type": "node", "id": 2221808941, "lat": 43.1843389, "lon": -9.091267, "tags": {"addr:city": "Camari\u00f1as", "addr:street": "Paseo Mar\u00edtimo, Camelle", "name": "Museo do Alem\u00e1n de Camelle", "operator": "Concello de Camari\u00f1as", "tourism": "museum"}}, {"type": "node", "id": 466518076, "lat": 42.8814147, "lon": -8.5447276, "tags": {"name": "Galicia Dixital", "tourism": "museum"}}, {"type": "node", "id": 998649870, "lat": 42.8804219, "lon": -8.5458608, "tags": {"admin_level": "8", "alt_name:ar": "\u0634\u0646\u062a \u064a\u0627\u0642\u0648\u0647;\u0634\u0646\u062a \u064a\u0627\u0642\u0648\u0628;\u0634\u0646\u062a \u064a\u0627\u0642;\u0633\u0646\u062a\u064a\u0627\u063a\u0648 \u062f\u064a \u0643\u0648\u0645\u0628\u0648\u0633\u062a\u064a\u0644\u0627;\u0633\u0627\u0646\u062a\u064a\u0627\u063a\u0648 \u062f\u064a \u0643\u0648\u0645\u0628\u0648\u0633\u062a\u064a\u0644\u0627", "alt_name:hr": "Sveti Jakov na Svjetlosnom Polju", "capital": "4", "ele": "260", "heritage": "1", "heritage:operator": "whc", "int_name": "Santiago de Compostela", "name": "Santiago de Compostela", "name:ar": "\u0634\u0646\u062a \u064a\u0627\u0642\u0628", "name:be": "\u0421\u0430\u043d\u0442'\u044f\u0433\u0430-\u0434\u044d-\u041a\u0430\u043c\u043f\u0430\u0441\u0442\u044d\u043b\u0430", "name:bg": "\u0421\u0430\u043d\u0442\u044f\u0433\u043e \u0434\u0435 \u041a\u043e\u043c\u043f\u043e\u0441\u0442\u0435\u043b\u0430", "name:br": "Sant-Jakez a Gompostela", "name:ca": "Santiago de Compostel\u00b7la", "name:el": "\u03a3\u03b1\u03bd\u03c4\u03b9\u03ac\u03b3\u03bf \u03bd\u03c4\u03b5 \u039a\u03bf\u03bc\u03c0\u03bf\u03c3\u03c4\u03ad\u03bb\u03b1", "name:es": "Santiago de Compostela", "name:eu": "Compostelako Donejakue", "name:fa": "\u0633\u0627\u0646\u062a\u06cc\u0627\u06af\u0648 \u062f \u06a9\u0627\u0645\u067e\u0648\u0633\u062a\u0644\u0627", "name:fr": "Saint-Jacques-de-Compostelle", "name:gl": "Santiago de Compostela", "name:he": "\u05e1\u05e0\u05d8\u05d9\u05d0\u05d2\u05d5 \u05d3\u05d4 \u05e7\u05d5\u05de\u05e4\u05d5\u05e1\u05d8\u05dc\u05d4", "name:hr": "Santiago de Compostela", "name:it": "Santiago di Compostela", "name:ja": "\u30b5\u30f3\u30c6\u30a3\u30a2\u30b4\u30fb\u30c7\u30fb\u30b3\u30f3\u30dd\u30b9\u30c6\u30fc\u30e9", "name:la": "Compostella", "name:lt": "Santjago de Kompostela", "name:nl": "Santiago de Compostella", "name:oc": "Compost\u00e8la", "name:ru": "\u0421\u0430\u043d\u0442\u044c\u044f\u0433\u043e-\u0434\u0435-\u041a\u043e\u043c\u043f\u043e\u0441\u0442\u0435\u043b\u0430", "name:sr": "\u0421\u0430\u043d\u0442\u0438\u0458\u0430\u0433\u043e \u0434\u0435 \u041a\u043e\u043c\u043f\u043e\u0441\u0442\u0435\u043b\u0430", "name:th": "\u0e0b\u0e32\u0e19\u0e40\u0e15\u0e35\u0e22\u0e42\u0e01\u0e40\u0e14\u0e01\u0e2d\u0e21\u0e42\u0e1b\u0e2a\u0e40\u0e15\u0e25\u0e32", "name:uk": "\u0421\u0430\u043d\u0442\u044c\u044f\u0491\u043e-\u0434\u0435-\u041a\u043e\u043c\u043f\u043e\u0441\u0442\u0435\u043b\u0430", "name:zh": "\u5b54\u6ce2\u65af\u7279\u62c9\u7684\u8056\u5730\u7259\u54e5", "old_name:ca": "Sant Jaume de Gal\u00edcia", "place": "city", "population": "94824", "ref:ine": "15078000100", "ref:whc": "347", "source": "Instituto Geogr\u00e1fico Nacional", "source:date": "2011-06", "source:ele": "MDT5", "source:file": "http://centrodedescargas.cnig.es/CentroDescargas/equipamiento/BD_Municipios-Entidades.zip", "source:name": "Nomencl\u00e1tor Geogr\u00e1fico de Municipios y Entidades de Poblaci\u00f3n", "source:name:br": "ofis publik ar brezhoneg", "whc:criteria": "(i)(ii)(vi)", "whc:inscription_date": "1985", "wikidata": "Q14314", "wikipedia": "es:Santiago de Compostela"}}, {"type": "node", "id": 4769513269, "lat": 42.88023, "lon": -8.5451199, "tags": {"name": "Museo Catedral de Santiago", "tourism": "museum", "wikidata": "Q3394488"}}, {"type": "node", "id": 3393652335, "lat": 43.2113852, "lon": -8.6896656, "tags": {"name": "Museo de Berganti\u00f1os", "tourism": "museum"}}, {"type": "node", "id": 2772382143, "lat": 43.0773484, "lon": -8.4116271, "tags": {"name": "Museo do Traxe Juanjo Linares", "tourism": "museum"}}, {"type": "node", "id": 6308041753, "lat": 42.0899839, "lon": -8.37843, "tags": {"name": "Casa da Auga", "tourism": "museum"}}, {"type": "node", "id": 1412505962, "lat": 41.9720126, "lon": -7.9849983, "tags": {"name": "Centro de Interpretaci\u00f3n \u00abAquae Querquennae\u00bb", "operator": "Xunta de Galicia", "tourism": "museum"}}, {"type": "node", "id": 2399280427, "lat": 42.2018424, "lon": -8.3882185, "tags": {"name": "Centro de Interpretaci\u00f3n da Cerar\u00eda \"Favum\"", "tourism": "museum"}}, {"type": "node", "id": 2018541601, "lat": 42.2030506, "lon": -8.3883071, "tags": {"name": "Museo de Cera", "tourism": "museum"}}, {"type": "node", "id": 6242877131, "lat": 42.1895568, "lon": -7.8011776, "tags": {"name": "Museo Galego do Xoguete de Allariz", "name:es": "Museo Gallego del Juguete de Allariz", "name:gl": "Museo Galego do Xoguete de Allariz", "tourism": "museum", "website": "https://museos.xunta.gal/es/xoguete"}}, {"type": "node", "id": 6242877132, "lat": 42.189675, "lon": -7.8011238, "tags": {"name": "Museo da moda", "tourism": "museum"}}, {"type": "node", "id": 6242877133, "lat": 42.1899081, "lon": -7.8025897, "tags": {"name": "Fundaci\u00f3n Vicente Risco", "tourism": "museum"}}, {"type": "node", "id": 6242877138, "lat": 42.189595, "lon": -7.802405, "tags": {"name": "Moseo Iconogr\u00e1fico Aser Seara", "tourism": "museum"}}, {"type": "node", "id": 6242877130, "lat": 42.1887458, "lon": -7.7984399, "tags": {"name": "Museo De Arte Sacro De Santa Clara De Allariz", "tourism": "museum"}}, {"type": "node", "id": 4829081951, "lat": 42.3360275, "lon": -7.8599702, "tags": {"name": "Museo San Francisco", "tourism": "museum"}}, {"type": "node", "id": 5609153739, "lat": 42.336887, "lon": -7.8630227, "tags": {"name": "Museo Municipal", "operator": "Concello de Ourense", "tourism": "museum"}}, {"type": "node", "id": 8197709401, "lat": 42.341785, "lon": -7.7134443, "tags": {"name": "Centro de Interprentaci\u00f3n do Mosteiro de San Pedro de Rocas", "name:es": "Centro de Interprentaci\u00f3n del Monasterio de San Pedro de Rocas", "name:gl": "Centro de Interprentaci\u00f3n do Mosteiro de San Pedro de Rocas", "tourism": "museum"}}, {"type": "node", "id": 7677233985, "lat": 42.3676344, "lon": -7.5719958, "tags": {"addr:hamlet": "Teimende", "addr:municipality": "Parada de Sil", "fee": "no", "museum": "local", "name": "Casa Museo do Chocolate de Teimende", "name:es": "Casa Museo del Chocolate de Teimende", "name:gl": "Casa Museo do Chocolate de Teimende", "operator": "Concello de Parada de Sil", "operator:type": "public", "phone": "+34 988 208 010", "tourism": "museum", "website": "https://turismo.ribeirasacra.org/gl/casa-museo-do-chocolate-de-teimende"}}, {"type": "node", "id": 8112636317, "lat": 42.2600483, "lon": -7.3789706, "tags": {"name": "Centro de Identidade de Galega", "operator": "Concello de Chandrexa de Queixa", "operator:type": "public", "tourism": "museum"}}, {"type": "node", "id": 8111896100, "lat": 42.2688802, "lon": -7.1876477, "tags": {"museum": "art", "name": "Museo do Li\u00f1o de San Miguel del Bidueira", "tourism": "museum"}}, {"type": "node", "id": 3690340105, "lat": 42.1805151, "lon": -7.1158196, "tags": {"name": "Museo Etnogr\u00e1fico - Torre do Castelo", "tourism": "museum"}}, {"type": "node", "id": 6028170570, "lat": 42.6083571, "lon": -8.1325509, "tags": {"name": "Museo Etnogr\u00e1fico Casa do Patr\u00f3n", "source": "local_knowledge", "tourism": "museum"}}, {"type": "node", "id": 2445783571, "lat": 42.559288, "lon": -7.666186, "tags": {"designation": "Ecomuseo de Arxeriz", "name": "Ecomuseo de Arxeriz", "source": "http://www.sotodefion.org/", "tourism": "museum"}}, {"type": "node", "id": 3203866926, "lat": 42.7937796, "lon": -7.835645, "tags": {"name": "Museo Parroquial de Monterroso", "tourism": "museum"}}, {"type": "node", "id": 6840654885, "lat": 43.0534334, "lon": -8.0013912, "tags": {"name": "Museo Bea Rey", "tourism": "museum"}}, {"type": "node", "id": 4280163905, "lat": 43.0105305, "lon": -7.5570327, "tags": {"name": "Casa dos Mosaicos", "name:es": "Casa de los Mosaicos", "name:gl": "Casa dos Mosaicos", "sorting_name": "Mosaicos, Casa dos", "tourism": "museum"}}, {"type": "node", "id": 2808397707, "lat": 43.0092076, "lon": -7.5514158, "tags": {"contact:phone": "+34 982801105", "contact:website": "http://concellodelugo.gal/es/localizaciones/centro-arqueologico-san-roque", "fee": "no", "name": "Centro Arqueol\u00f3xico San Roque", "name:es": "Centro Arqueol\u00f3gico San Roque", "name:gl": "Centro Arqueol\u00f3xico San Roque", "opening_hours": "Th-Sa 11:30-13:30,17:00-19:00; Su 11:30-13:30", "operator": "Concello de Lugo", "sorting_name": "San Roque, Centro Arqueol\u00f3xico", "toilets:wheelchair": "yes", "tourism": "museum", "wheelchair": "yes"}}, {"type": "node", "id": 5084131821, "lat": 43.0081915, "lon": -7.5546393, "tags": {"name": "O Vello C\u00e1rcere", "name:en": "O Vello C\u00e1rcere", "name:es": "La Vieja C\u00e1rcel", "name:gl": "O Vello C\u00e1rcere", "sorting_name": "Vello C\u00e1rcere, O", "tourism": "museum"}}, {"type": "node", "id": 7592907285, "lat": 42.5225071, "lon": -7.5140962, "tags": {"addr:housenumber": "7", "addr:postcode": "27400", "addr:street": "R\u00faa Armando Cotarelo", "name": "Museo Lodeiro", "opening_hours": "Tu-Su 10:30-13:30", "phone": "+34982402252", "tourism": "museum", "website": "http://www.diodeiro.com"}}, {"type": "node", "id": 4879401622, "lat": 42.5230999, "lon": -7.5157941, "tags": {"name": "Museo de Arte Sacro", "name:es": "Museo de Arte Sacro", "tourism": "museum"}}, {"type": "node", "id": 5887487626, "lat": 42.5298542, "lon": -7.5034091, "tags": {"fee": "yes", "name": "Museo Casas de Mu\u00f1ecas", "opening_hours": "Tu-Sa 10:00-19:00; Su 10:00-14:00", "tourism": "museum"}}, {"type": "node", "id": 7859466185, "lat": 42.432558, "lon": -7.2170873, "tags": {"name": "Molino aceite Bendill\u00f3", "tourism": "museum"}}, {"type": "node", "id": 5036761919, "lat": 42.7820933, "lon": -7.4144752, "tags": {"description": "Museo sobre fabricaci\u00f3n antigua do pan e a s\u00faa venda", "name": "Museo Pallares", "source": "survey", "tourism": "museum"}}, {"type": "node", "id": 3918145321, "lat": 42.766178, "lon": -7.2048972, "tags": {"bic:criteria": "M", "geological": "palaeontological_site", "heritage": "2", "historic": "monument", "historic:civilization": "prehistoric", "historic:era": "paleolithic", "historic:period": "stone-age", "name": "Cova de Eir\u00f3s", "name:en": "Eir\u00f3s Cave", "name:es": "Cova de Eir\u00f3s", "natural": "cave_entrance", "protection_title": "Bien de Inter\u00e9s Cultural", "source": "BOE N\u00fam. 151 Lunes 26 de junio de 2017", "website": "http://www.iphes.cat/cova-eir%C3%B3s", "wikidata": "Q3393299", "wikipedia": "es:Cueva Eir\u00f3s"}}, {"type": "node", "id": 3727500245, "lat": 42.7076114, "lon": -7.0436305, "tags": {"contact:phone": "+34 982 367 053", "name": "Conxunto Etnogr\u00e1fico do Cebreiro", "name:en": "Etnographic Complex of O Cebreiro", "opening_hours": "Jun 15-Sep 15 Tu-Sa 08:30-14:30; Sep 16-Jun 14 Tu-Sa 11:00-18:00; PH closed", "tourism": "museum", "website": "http://museos.xunta.gal/gl/cebreiro"}}, {"type": "node", "id": 6320547910, "lat": 42.7753188, "lon": -6.8254548, "tags": {"heritage": "2", "name": "Campo del Agua, El Regueiral y Las Vali\u00f1as", "protection_title": "Bien de Inter\u00e9s Cultural", "protection_title:category": "Conjunto hist\u00f3rico", "ref:bic": "RI-53-0000556"}}, {"type": "node", "id": 2870961286, "lat": 43.0353723, "lon": -7.2985499, "tags": {"name": "Museo Costantino", "tourism": "museum"}}, {"type": "node", "id": 6872892864, "lat": 42.8734749, "lon": -7.0617723, "tags": {"name": "Palloza Museo", "tourism": "museum"}}, {"type": "node", "id": 3256852692, "lat": 42.8556091, "lon": -6.8753897, "tags": {"name": "Palloza-museo Casa do Sesto", "note": "(GL) \u00c1brese os fins de semana e os festivos, en xullo e agosto todos os d\u00edas. (ES) Abierto fines de semana y festivos. En Julio y Agoso se abre todos los d\u00edas. (EN) Opened on weekends and holidays. In July and August every day.", "phone": "+34982245540", "tourism": "museum", "website": "http://www.pallozamuseocasadosesto.com/"}}, {"type": "node", "id": 6348934884, "lat": 43.0894423, "lon": -6.9275574, "tags": {"addr:city": "Pena da Nogueira", "description": "Ubicado en la aldea de Pena da Nogueira, en Negueira de Mu\u00f1iz, se encuentra el ecomuseo \"El Pa\u00eds del Abeyeiro\" en una casa de cientos de a\u00f1os de antig\u00fcedad reconstruida. Un centro de trabajo visitable al que podr\u00e1 acercarse todo aquel que quiera aprender ", "name": "El Pa\u00eds del Abeyeiro", "operator": "http://mielouturelos.com", "tourism": "museum", "website": "http://mielouturelos.com/elpaisabeyeiro/el-pais-del-abeyeiro-ecomuseo"}}, {"type": "node", "id": 6781441916, "lat": 43.129389, "lon": -7.0668176, "tags": {"name": "Casa da Cultura", "phone": "+34 982 340 245", "tourism": "museum"}}, {"type": "node", "id": 6689643494, "lat": 36.5305733, "lon": -6.3055937, "tags": {"name": "Centro Andaluz de Arqueolog\u00eda Subacu\u00e1tica", "tourism": "museum"}}, {"type": "node", "id": 6689558326, "lat": 36.528601, "lon": -6.2941984, "tags": {"addr:city": "C\u00e1diz", "name": "Museo Catedralicio", "tourism": "museum"}}, {"type": "node", "id": 3769341552, "lat": 36.5350808, "lon": -6.2993582, "tags": {"name": "Casa-Museo Pem\u00e1n", "tourism": "museum"}}, {"type": "node", "id": 3770435125, "lat": 36.5258796, "lon": -6.2890572, "tags": {"name": "Museo Taller Litogr\u00e1fico", "tourism": "museum", "wikidata": "Q6033755", "wikipedia": "es:Museo Taller Litogr\u00e1fico"}}, {"type": "node", "id": 6562708269, "lat": 36.5264572, "lon": -6.2883105, "tags": {"alt_name": "Museo Iberoamericano del T\u00edtere", "name": "Museo del T\u00edtere", "tourism": "museum", "website": "http://turismo.cadiz.es/es/rutas-y-visitas-en-cadiz/museo-del-t\u00edtere", "wikidata": "Q16609792", "wikipedia": "es:Museo Iberoamericano del T\u00edtere"}}, {"type": "node", "id": 6698977018, "lat": 36.5987726, "lon": -6.2328899, "tags": {"name": "Fundaci\u00f3n Pedro Mu\u00f1oz Seca", "tourism": "museum"}}, {"type": "node", "id": 5263794921, "lat": 36.6823224, "lon": -6.1411149, "tags": {"addr:street": "Plaza Encarnacion", "name": "Catedral de Jerez de la Frontera", "tourism": "museum"}}, {"type": "node", "id": 3359807879, "lat": 36.6852587, "lon": -6.1460883, "tags": {"name": "Pinacoteca Rivero", "tourism": "museum", "wikidata": "Q6076055"}}, {"type": "node", "id": 3247635414, "lat": 36.6591645, "lon": -6.007646, "tags": {"craft": "beekeeper", "email": "miel@ranchocortesano.net", "name": "Museo de la Miel y las Abejas Rancho Cortesano", "phone": "+34-956 237 528;+34-635 514 786", "tourism": "museum", "website": "http://www.ranchocortesano.net/"}}, {"type": "node", "id": 1724402363, "lat": 36.9967913, "lon": -6.551076, "tags": {"name": "Torre Almenara", "tourism": "museum"}}, {"type": "node", "id": 1421389524, "lat": 37.2827633, "lon": -5.9213703, "tags": {"name": "Centro Cultural La Almona", "tourism": "museum"}}, {"type": "node", "id": 2379272620, "lat": 36.8718561, "lon": -5.8075672, "tags": {"name": "Museo Arqueol\u00f3gico de Espera", "tourism": "museum"}}, {"type": "node", "id": 2379272621, "lat": 36.869912, "lon": -5.8067197, "tags": {"name": "Molino de los Diezmos", "tourism": "museum"}}, {"type": "node", "id": 965933088, "lat": 36.7570101, "lon": -5.5100484, "tags": {"name": "Museo Molino de Abajo", "tourism": "museum"}}, {"type": "node", "id": 965215820, "lat": 36.7683338, "lon": -5.4633512, "tags": {"name": "Ecomuseo del Agua", "tourism": "museum"}}, {"type": "node", "id": 4710313228, "lat": 36.8594634, "lon": -5.6455604, "tags": {"name": "Museo Arqueol\u00f3gico de Villamart\u00edn", "tourism": "museum"}}, {"type": "node", "id": 5327316613, "lat": 36.6805752, "lon": -5.4442717, "tags": {"name": "Museo de la Piel", "tourism": "museum", "website": "http://www.manosymagiaenlapiel.es/"}}, {"type": "node", "id": 7382496526, "lat": 36.5448245, "lon": -5.2358155, "tags": {"name": "Museo permanente de los Encuentros de Arte del Valle del Genal", "tourism": "museum"}}, {"type": "node", "id": 5744190017, "lat": 36.6125739, "lon": -5.150271, "tags": {"name": "museo de la casta\u00f1a", "tourism": "museum"}}, {"type": "node", "id": 280764164, "lat": 36.742042, "lon": -5.1673133, "tags": {"name": "Museo Taurino", "name:en": "Bullfighting Museum", "tourism": "museum"}}, {"type": "node", "id": 280764185, "lat": 36.7393377, "lon": -5.1649791, "tags": {"addr:street": "Dona Elvira", "name": "Museo Lara", "tourism": "museum", "wikidata": "Q6033472"}}, {"type": "node", "id": 3123223361, "lat": 36.7376455, "lon": -5.1666637, "tags": {"name": "Museo Municipal", "tourism": "museum"}}, {"type": "node", "id": 3123223371, "lat": 36.7383699, "lon": -5.1657947, "tags": {"name": "Museo Peinado", "tourism": "museum"}}, {"type": "node", "id": 886119352, "lat": 36.7390366, "lon": -5.1628542, "tags": {"name": "Ba\u00f1os Arabes", "name:zh": "\u963f\u62c9\u4f2f\u6d74\u5834", "tourism": "museum"}}, {"type": "node", "id": 6704352189, "lat": 36.8629532, "lon": -5.1810336, "tags": {"addr:housenumber": "25", "addr:postcode": "11692", "addr:street": "Calle Constitucion", "name": "La Galer\u00eda. Museo fotograf\u00eda antigua.", "name:en": "The Gallery.", "name:es": "La Galer\u00eda. Museo fotograf\u00eda", "name:fr": "La Galerie. Musee de la photo.", "tourism": "museum"}}, {"type": "node", "id": 6716168885, "lat": 36.8628916, "lon": -5.1813578, "tags": {"addr:city": "Setenil de las Bodegas", "addr:housenumber": "13", "addr:postcode": "11692", "addr:street": "Calle San Benito", "name": "Casa de Pedro Marin", "name:en": "Pedro Marin house", "tourism": "museum"}}, {"type": "node", "id": 2384636601, "lat": 37.3293003, "lon": -5.4156041, "tags": {"name": "Museo Arqueol\u00f3gico", "tourism": "museum"}}, {"type": "node", "id": 3073201415, "lat": 37.2381885, "lon": -5.1007707, "tags": {"name": "Museo de Arte Sacro", "tourism": "museum"}}, {"type": "node", "id": 2167551999, "lat": 37.6935051, "lon": -6.5965614, "tags": {"name": "Museo de Minas de R\u00edo Tinto", "operator": "Fundaci\u00f3n R\u00edo Tinto", "source": "survey", "tourism": "museum", "wikidata": "Q97628315", "wikipedia": "es:Museo Minero de Riotinto"}}, {"type": "node", "id": 1851985893, "lat": 37.69501, "lon": -6.5502594, "tags": {"name": "Museo V\u00e1zquez D\u00edaz", "tourism": "museum"}}, {"type": "node", "id": 844175401, "lat": 37.385718, "lon": -6.0031675, "tags": {"access": "yes", "historic": "archaeological_site", "historic:civilization": "medieval", "name": "Castillo de San Jorge", "note": "Centro Tem\u00e1tico de la Tolerancia del Castillo de San Jorge", "site_type": "medieval_castle", "tourism": "museum", "wikipedia": "fr:Ch\u00e2teau de Saint-Georges (S\u00e9ville)#cite ref-1"}}, {"type": "node", "id": 4878565237, "lat": 37.3856579, "lon": -6.0045554, "tags": {"addr:housenumber": "14", "addr:street": "Called Antillano Campos", "name": "Centro Cer\u00e1mica Triana", "opening_hours": "Tu-Sa 11:00-17:30; Su 10:00-14:30; Mo off", "phone": "+34 954 341 582", "tourism": "museum", "wikidata": "Q18224363", "wikipedia": "es:Centro Cer\u00e1mica Triana (Sevilla)"}}, {"type": "node", "id": 6621504086, "lat": 37.3849085, "lon": -5.9977784, "tags": {"name": "Galeria Alarc\u00f3n", "name:es": "Galeria Alarc\u00f3n Criado", "tourism": "museum"}}, {"type": "node", "id": 6635808293, "lat": 37.3841269, "lon": -6.0007943, "tags": {"name": "Tesoro Devocional Esperanza de Triana", "tourism": "museum"}}, {"type": "node", "id": 3923539712, "lat": 37.3824327, "lon": -5.996256, "tags": {"addr:housenumber": "41001", "addr:street": "Paseo de Crist\u00f3bal Col\u00f3n", "height": "36.8", "name": "Museo Naval Torre del Oro", "name:zh": "\u9ec3\u91d1\u5854", "operator": "Fundaci\u00f3n Museo Naval", "tourism": "museum", "wheelchair": "no"}}, {"type": "node", "id": 4446025597, "lat": 37.3835838, "lon": -5.9938364, "tags": {"tourism": "museum"}}, {"type": "node", "id": 4161820389, "lat": 37.3782843, "lon": -5.9874538, "tags": {"name": "Museo Hist\u00f3rico Militar", "opening_hours": "Mo-Fr 09:30-14:00; Sa 10:00-14:00; PH off; Aug off", "tourism": "museum", "wikidata": "Q2880514"}}, {"type": "node", "id": 1714881306, "lat": 37.3859462, "lon": -5.9991691, "tags": {"addr:city": "Sevilla", "addr:street": "Paseo de Crist\u00f3bal Col\u00f3n", "name": "Plaza de toros de Sevilla", "toilets:wheelchair": "yes", "tourism": "museum", "wheelchair": "yes"}}, {"type": "node", "id": 2478249154, "lat": 37.3889491, "lon": -5.9911333, "tags": {"name": "Museo del Baile Flamenco", "tourism": "museum", "website": "http://www.museoflamenco.com/", "wikidata": "Q2486431"}}, {"type": "node", "id": 6179980756, "lat": 37.3860169, "lon": -5.9935845, "tags": {"name": "Museo Catedralicio", "name:en": "Museum and Treasury of Seville", "name:fr": "Mus\u00e9e de la Cath\u00e9drale de S\u00e9ville", "tourism": "museum"}}, {"type": "node", "id": 6621506985, "lat": 37.3902355, "lon": -5.9933084, "tags": {"name": "Galeria Zunino - Arte Contemporanea", "tourism": "museum"}}, {"type": "node", "id": 6621504186, "lat": 37.3936659, "lon": -5.9909753, "tags": {"name": "Galeria Birimbao", "tourism": "museum"}}, {"type": "node", "id": 4647829792, "lat": 37.3857159, "lon": -5.9890865, "tags": {"name": "Casa de murillo", "name:es": "Casa de murillo", "tourism": "museum", "wikidata": "Q5047920"}}, {"type": "node", "id": 747693261, "lat": 37.3932857, "lon": -5.98966, "tags": {"name": "Sala de exposiciones Santa In\u00e9s", "tourism": "museum"}}, {"type": "node", "id": 1345316690, "lat": 37.3999019, "lon": -5.9953091, "tags": {"addr:city": "Sevilla", "name": "Sala Exposici\u00f3n Santa Clara", "tourism": "museum"}}, {"type": "node", "id": 493228464, "lat": 37.4109567, "lon": -5.9864442, "tags": {"description": "La venta de la leyenda de B\u00e9cquer", "name": "Venta de los gatos", "tourism": "museum"}}, {"type": "node", "id": 1763819943, "lat": 37.4882303, "lon": -5.9385199, "tags": {"name": "Museo de la ciudad", "tourism": "museum"}}, {"type": "node", "id": 4361894212, "lat": 37.6703161, "lon": -5.9875106, "tags": {"name": "Museo Etnol\u00f3gico Municipal", "tourism": "museum"}}, {"type": "node", "id": 3933733565, "lat": 37.9349315, "lon": -6.6261111, "tags": {"addr:street": "Calle Arroyo Arriba", "name": "Museo de Pintura P\u00e9rez Guerra", "tourism": "museum", "website": "http://cortelazor.com/cortelazor-la-real/index.php?option=com_content&view=category&layout=blog&id=114&Itemid=78"}}, {"type": "node", "id": 3933733566, "lat": 37.9360469, "lon": -6.6252137, "tags": {"addr:street": "Calle Espa\u00f1a", "name": "Museo de Artesan\u00eda Popular Jos\u00e9 Navarro P\u00e9rez", "tourism": "museum", "website": "http://cortelazor.com/cortelazor-la-real/index.php?option=com_content&view=article&id=81&Itemid=133"}}, {"type": "node", "id": 3936430369, "lat": 37.8911508, "lon": -6.5669478, "tags": {"name": "Museo de Escultura al Aire Libre", "tourism": "museum", "website": "http://www.aracena.es/es/municipio/puntos-de-interes/ruta-museos.html"}}, {"type": "node", "id": 1313419349, "lat": 37.8912014, "lon": -6.5659615, "tags": {"name": "Gabinete Geominero y Centro de Interpretaci\u00f3n de Aracena", "tourism": "museum", "website": "http://www.aracena.es/es/municipio/puntos-de-interes/ruta-museos.html"}}, {"type": "node", "id": 3936430370, "lat": 37.8912721, "lon": -6.5663075, "tags": {"name": "Museo de Escultura al Aire Libre", "tourism": "museum", "website": "http://www.aracena.es/index.php/turismo4/55-turismo/ique-ver/120-ruta-de-los-museos"}}, {"type": "node", "id": 3972448157, "lat": 37.891215, "lon": -6.5609857, "tags": {"addr:street": "Plaza Alta", "name": "Centro de Interpretaci\u00f3n del Parque Natural. Cabildo Viejo", "tourism": "museum", "website": "http://www.juntadeandalucia.es/medioambiente/servtc5/ventana/mostrarFicha.do?idEquipamiento=19856"}}, {"type": "node", "id": 4001412669, "lat": 37.8937017, "lon": -6.5645257, "tags": {"name": "Museo de Escultura al Aire Libre", "tourism": "museum"}}, {"type": "node", "id": 2277125611, "lat": 38.0640048, "lon": -6.6459827, "tags": {"tourism": "museum"}}, {"type": "node", "id": 7312958790, "lat": 38.0619812, "lon": -6.645657, "tags": {"tourism": "museum"}}, {"type": "node", "id": 4546330235, "lat": 38.0141378, "lon": -6.5301651, "tags": {"name": "Museo Etnol\u00f3gico del Aceite", "tourism": "museum"}}, {"type": "node", "id": 5357414088, "lat": 38.1436505, "lon": -6.6876351, "tags": {"name": "Centro de Interpretaci\u00f3n del Cerdo Ib\u00e9rico", "tourism": "museum"}}, {"type": "node", "id": 5340857940, "lat": 38.1204816, "lon": -6.5425442, "tags": {"name": "Centro de Interpretaci\u00f3n \"Fray Daniel\"", "tourism": "museum"}}, {"type": "node", "id": 5340857213, "lat": 38.1219081, "lon": -6.5290508, "tags": {"name": "Museo de la Capea", "tourism": "museum"}}, {"type": "node", "id": 4260551062, "lat": 37.468622, "lon": -5.6513972, "tags": {"name": "Museo de la Necropolis Romana", "tourism": "museum", "website": "http://www.museosdeandalucia.es/cultura/museos/CAC/?lng=es", "wikidata": "Q20995230", "wikipedia": "es:Conjunto Arqueol\u00f3gico de Carmona"}}, {"type": "node", "id": 1266474740, "lat": 37.4734149, "lon": -5.6367783, "tags": {"name": "Museo Ciudad de Carmona", "tourism": "museum"}}, {"type": "node", "id": 4355497892, "lat": 37.6059344, "lon": -5.8253006, "tags": {"name": "Sala Municipal de Exposiciones", "tourism": "museum"}}, {"type": "node", "id": 3371961515, "lat": 37.5406701, "lon": -5.0747134, "tags": {"addr:city": "\u00c9cija", "addr:housenumber": "3", "addr:postcode": "41400", "addr:street": "Calle San Marcos", "email": "museo@hermandadsangil.es", "name": "Casa Museo Hermandad San Gil", "phone": "+34 955 428 077", "tourism": "museum", "website": "http://www.hermandadsangil.es/"}}, {"type": "node", "id": 5465620611, "lat": 37.5434407, "lon": -5.0808773, "tags": {"building": "yes", "name": "Museo de Arte Sacro", "tourism": "museum", "tourism_1": "attraction"}}, {"type": "node", "id": 3596126167, "lat": 37.7008065, "lon": -5.2852419, "tags": {"name": "Museo Municipal", "tourism": "museum"}}, {"type": "node", "id": 1462810048, "lat": 37.8409256, "lon": -5.7653286, "tags": {"name": "Escuelas Nuevas", "source": "PNOA", "tourism": "museum"}}, {"type": "node", "id": 5525963725, "lat": 36.6854783, "lon": -4.905719, "tags": {"name": "Museo de artes populares", "tourism": "museum"}}, {"type": "node", "id": 885489026, "lat": 36.5375934, "lon": -4.6266146, "tags": {"name": "Museo de Historia de la Ciudad", "source": "local_knowledge", "tourism": "museum"}}, {"type": "node", "id": 588942122, "lat": 36.5951006, "lon": -4.6385587, "tags": {"name": "Casa Museo", "tourism": "museum"}}, {"type": "node", "id": 937539477, "lat": 36.5955367, "lon": -4.6395659, "tags": {"name": "Museo del vino M\u00e1laga", "tourism": "museum"}}, {"type": "node", "id": 937539612, "lat": 36.5937779, "lon": -4.6389974, "tags": {"name": "Museo de la plaza de toros", "tourism": "museum"}}, {"type": "node", "id": 3341926440, "lat": 36.5961694, "lon": -4.6380943, "tags": {"name": "C.A.C. Mijas", "tourism": "museum"}}, {"type": "node", "id": 5936368405, "lat": 36.8803927, "lon": -4.8456696, "tags": {"name": "Centro De Interpretacion La Pe\u00f1a De Ardales", "tourism": "museum"}}, {"type": "node", "id": 3613546147, "lat": 36.8207915, "lon": -4.7070015, "tags": {"tourism": "museum"}}, {"type": "node", "id": 2275695225, "lat": 36.5959429, "lon": -4.5732377, "tags": {"name": "Museo Precolombino", "tourism": "museum"}}, {"type": "node", "id": 8387947825, "lat": 36.6648902, "lon": -4.5045383, "tags": {"addr:housenumber": "56", "addr:postcode": "29140", "addr:street": "Calle Torremolinos", "museum": "history", "museum_type": "municipal", "name": "Casa Gerald Brenan", "operator": "Ayuntamiento de M\u00e1laga", "operator:type": "public", "tourism": "museum", "website": "http://casageraldbrenan.malaga.eu"}}, {"type": "node", "id": 6622812706, "lat": 36.7204258, "lon": -4.4204312, "tags": {"addr:housenumber": "6", "addr:street": "Plaza del Obispo", "museum": "art", "museum_type": "private", "name": "Palacio Episcopal Centro de Arte", "operator": "Obispado de M\u00e1laga", "tourism": "museum"}}, {"type": "node", "id": 6624534082, "lat": 36.7204712, "lon": -4.4194794, "tags": {"fee": "yes", "museum": "art", "museum_type": "private", "name": "Museo Catedralicio", "operator": "Di\u00f3cesis de M\u00e1laga", "tourism": "museum"}}, {"type": "node", "id": 7945901697, "lat": 36.7209533, "lon": -4.4178847, "tags": {"addr:housenumber": "5", "addr:postcode": "29015", "addr:street": "Calle Abad\u00eda Santa Ana", "museum": "sacred_art", "name": "Museo C\u00edster", "tourism": "museum"}}, {"type": "node", "id": 6624669417, "lat": 36.720744, "lon": -4.4107236, "tags": {"addr:housenumber": "8", "addr:postcode": "29016", "addr:street": "Paseo de Reding", "museum": "bullfighting", "museum_type": "regional", "name": "Museo Taurino Antonio Ord\u00f3\u00f1ez", "operator": "Diputaci\u00f3n de M\u00e1laga", "tourism": "museum"}}, {"type": "node", "id": 5620610532, "lat": 36.9313573, "lon": -4.680542, "tags": {"description": "OFCINA DE TURISMO-MUSEO", "tourism": "museum"}}, {"type": "node", "id": 3161265031, "lat": 37.253028, "lon": -4.9137868, "tags": {"name": "Colecci\u00f3n Museogr\u00e1fica de Gilena", "tourism": "museum"}}, {"type": "node", "id": 1589358656, "lat": 37.2985286, "lon": -4.8761598, "tags": {"name": "Museo del mantecado", "tourism": "museum"}}, {"type": "node", "id": 4235174122, "lat": 36.9424352, "lon": -4.2260256, "tags": {"tourism": "museum"}}, {"type": "node", "id": 3457874444, "lat": 37.0948938, "lon": -4.3874589, "tags": {"name": "Museo Municipal", "tourism": "museum"}}, {"type": "node", "id": 5837040416, "lat": 37.2664034, "lon": -4.4159194, "tags": {"name": "Museo de Morana", "tourism": "museum"}}, {"type": "node", "id": 8180288865, "lat": 36.7817986, "lon": -4.1016267, "tags": {"name": "Casa Cervantes", "operator": "1594 Tax Collector Miquel de Cervantes", "tourism": "museum"}}, {"type": "node", "id": 7104475179, "lat": 36.7865751, "lon": -4.1039984, "tags": {"museum_type": "municipal", "name": "Museo de V\u00e9lez-M\u00e1laga", "tourism": "museum"}}, {"type": "node", "id": 1589280608, "lat": 36.7467171, "lon": -3.8776355, "tags": {"check_date": "2018-05-26", "name": "Museo de Nerja", "phone": "+34 952527224", "tourism": "museum"}}, {"type": "node", "id": 3391590621, "lat": 36.831292, "lon": -3.9736685, "tags": {"addr:street": "Calle Horno", "name": "Museo de Artes y Costumbres", "operator": "Ayuntamiento de C\u00f3mpeta", "operator:type": "public", "phone": "+34 952 51 60 06", "tourism": "museum"}}, {"type": "node", "id": 7002749933, "lat": 36.8321354, "lon": -3.9739344, "tags": {"name": "Museo Molino de Hadriano", "tourism": "museum"}}, {"type": "node", "id": 7117562434, "lat": 36.7340425, "lon": -3.690099, "tags": {"addr:city": "Almu\u00f1\u00e9car", "addr:housenumber": "2", "addr:postcode": "18690", "addr:street": "Calle Andr\u00e9s Muller", "name": "Museo del Bonsai", "tourism": "museum"}}, {"type": "node", "id": 448751206, "lat": 36.7454155, "lon": -3.5256825, "tags": {"name": "Ingeneria de la Palma (Pre-Industrial Sugar Factory)", "tourism": "museum"}}, {"type": "node", "id": 7805086681, "lat": 36.7460673, "lon": -3.5200418, "tags": {"addr:city": "Motril", "addr:postcode": "18600", "addr:street": "Calle Cardenal Beluga", "museum": "history", "tourism": "museum"}}, {"type": "node", "id": 6814265786, "lat": 37.2762305, "lon": -4.0372558, "tags": {"denomination": "catholic", "heritage": "2", "heritage:operator": "Ayuntamiento de Montefr\u00edo", "historic": "wayside_cross", "name": "Cruz del Calvario (La Parrilla)", "protection_title": "Bien de Inter\u00e9s Cultural", "protection_title:category": "Cruces de t\u00e9rmino", "ref:pgou": "UC-RU-06", "religion": "christian", "start_date": "C17..C18", "tourism": "attraction"}}, {"type": "node", "id": 6814271087, "lat": 37.2805407, "lon": -3.9982637, "tags": {"denomination": "catholic", "heritage": "2", "heritage:operator": "Ayuntamiento de Montefr\u00edo", "historic": "wayside_cross", "name": "Cruz del Cerro (Covaleda)", "protection_title": "Bien de Inter\u00e9s Cultural", "protection_title:category": "Cruces de t\u00e9rmino", "ref:pgou": "UC-RU-14", "religion": "christian", "start_date": "C17..C18", "tourism": "attraction"}}, {"type": "node", "id": 6814251891, "lat": 37.2933103, "lon": -4.0597268, "tags": {"denomination": "catholic", "heritage": "2", "heritage:operator": "Ayuntamiento de Montefr\u00edo", "historic": "wayside_cross", "name": "Cruz de Muro", "protection_title": "Bien de Inter\u00e9s Cultural", "protection_title:category": "Cruces de t\u00e9rmino", "ref:pgou": "UC-RU-09", "religion": "christian", "start_date": "C17..C18", "tourism": "attraction"}}, {"type": "node", "id": 6814251895, "lat": 37.3117272, "lon": -4.0046397, "tags": {"denomination": "catholic", "heritage": "2", "heritage:operator": "Ayuntamiento de Montefr\u00edo", "historic": "wayside_cross", "name": "Cruz del T\u00edo Campos", "protection_title": "Bien de Inter\u00e9s Cultural", "protection_title:category": "Cruces de t\u00e9rmino", "ref:pgou": "UC-RU-17", "religion": "christian", "start_date": "C17..C18", "tourism": "attraction"}}, {"type": "node", "id": 6814251889, "lat": 37.3377791, "lon": -4.0336427, "tags": {"denomination": "catholic", "heritage": "2", "heritage:operator": "Ayuntamiento de Montefr\u00edo", "historic": "wayside_cross", "name": "Cruz Color\u00e1", "protection_title": "Bien de Inter\u00e9s Cultural", "protection_title:category": "Cruces de t\u00e9rmino", "ref:pgou": "UC-RU-05", "religion": "christian", "start_date": "C17..C18", "tourism": "attraction"}}, {"type": "node", "id": 6814251893, "lat": 37.3368484, "lon": -4.012024, "tags": {"denomination": "catholic", "heritage": "2", "heritage:operator": "Ayuntamiento de Montefr\u00edo", "historic": "wayside_cross", "name": "Cruz del Bujeo", "protection_title": "Bien de Inter\u00e9s Cultural", "protection_title:category": "Cruces de t\u00e9rmino", "ref:pgou": "UC-RU-12", "religion": "christian", "start_date": "C17..C18", "tourism": "attraction"}}, {"type": "node", "id": 6322788395, "lat": 37.3225224, "lon": -4.0025908, "tags": {"addr:housenumber": "1", "addr:postcode": "18270", "addr:street": "Calle Manuel \u00c1vila", "email": "guytheuwkens@gmail.com", "name": "Museo de Navidad", "opening_hours": "Tu-Su 10:00-14:00", "phone": "+34638206939", "tourism": "museum"}}, {"type": "node", "id": 6322788396, "lat": 37.3226483, "lon": -4.0027866, "tags": {"email": "turismontefrio@montefrio.org", "name": "Museo del Olivo", "phone": "+34 958 336 004", "tourism": "museum", "website": "https://museoolivomontefrio.com/"}}, {"type": "node", "id": 6814251894, "lat": 37.3239674, "lon": -3.9915098, "tags": {"denomination": "catholic", "heritage": "2", "heritage:operator": "Ayuntamiento de Montefr\u00edo", "historic": "wayside_cross", "name": "Cruz del Cortijillo", "protection_title": "Bien de Inter\u00e9s Cultural", "protection_title:category": "Cruces de t\u00e9rmino", "ref:pgou": "UC-RU-15", "religion": "christian", "start_date": "C17..C18", "tourism": "attraction"}}, {"type": "node", "id": 6814251888, "lat": 37.3252853, "lon": -3.9873429, "tags": {"denomination": "catholic", "heritage": "2", "heritage:operator": "Ayuntamiento de Montefr\u00edo", "historic": "wayside_cross", "name": "Cruz Altera", "protection_title": "Bien de Inter\u00e9s Cultural", "protection_title:category": "Cruces de t\u00e9rmino", "ref:pgou": "UC-RU-02", "religion": "christian", "start_date": "C17..C18", "tourism": "attraction"}}, {"type": "node", "id": 6814263087, "lat": 37.3205699, "lon": -3.990746, "tags": {"denomination": "catholic", "heritage": "2", "heritage:operator": "Ayuntamiento de Montefr\u00edo", "historic": "wayside_cross", "name": "Cruz de Marcos", "protection_title": "Bien de Inter\u00e9s Cultural", "protection_title:category": "Cruces de t\u00e9rmino", "ref:pgou": "UC-RU-07", "religion": "christian", "start_date": "C17..C18", "tourism": "attraction"}}, {"type": "node", "id": 4630845661, "lat": 37.2325536, "lon": -3.8164064, "tags": {"addr:city": "Valderrubio", "addr:postcode": "18250", "addr:street": "Calle de la Iglesia", "name": "Casa museo Federico Garcia Lorca", "tourism": "museum", "website": "http://www.museolorcavalderrubio.com/fr/casa-museo"}}, {"type": "node", "id": 4613637497, "lat": 37.2206619, "lon": -3.7846251, "tags": {"addr:city": "Fuente Vaqueros", "addr:housenumber": "4", "addr:postcode": "18340", "addr:street": "Calle Poeta Garc\u00eda Lorca", "name": "Museo Casa Natal Federico Garc\u00eda Lorca", "source": "http://www.patronatogarcialorca.org/casamuseo.php", "start_date": "1986-07-29", "toilets:wheelchair": "yes", "tourism": "museum", "wheelchair": "yes"}}, {"type": "node", "id": 6814270985, "lat": 37.3274372, "lon": -3.98438, "tags": {"denomination": "catholic", "heritage": "2", "heritage:operator": "Ayuntamiento de Montefr\u00edo", "historic": "wayside_cross", "name": "Cruz Bajera", "protection_title": "Bien de Inter\u00e9s Cultural", "protection_title:category": "Cruces de t\u00e9rmino", "ref:pgou": "UC-RU-04", "religion": "christian", "start_date": "C17..C18", "tourism": "attraction"}}, {"type": "node", "id": 6814271085, "lat": 37.3301812, "lon": -3.961999, "tags": {"denomination": "catholic", "heritage": "2", "heritage:operator": "Ayuntamiento de Montefr\u00edo", "historic": "wayside_cross", "name": "Cruz de Pe\u00f1uela", "protection_title": "Bien de Inter\u00e9s Cultural", "protection_title:category": "Cruces de t\u00e9rmino", "ref:pgou": "UC-RU-10", "religion": "christian", "start_date": "C17..C18", "tourism": "attraction"}}, {"type": "node", "id": 6814271086, "lat": 37.3204117, "lon": -3.9382867, "tags": {"denomination": "catholic", "heritage": "2", "heritage:operator": "Ayuntamiento de Montefr\u00edo", "historic": "wayside_cross", "name": "Cruz del Ca\u00f1azo", "protection_title": "Bien de Inter\u00e9s Cultural", "protection_title:category": "Cruces de t\u00e9rmino", "ref:pgou": "UC-RU-13", "religion": "christian", "start_date": "C17..C18", "tourism": "attraction"}}, {"type": "node", "id": 6814251892, "lat": 37.342506, "lon": -3.9345878, "tags": {"denomination": "catholic", "heritage": "2", "heritage:operator": "Ayuntamiento de Montefr\u00edo", "historic": "wayside_cross", "name": "Cruz de Ruip\u00e9rez", "protection_title": "Bien de Inter\u00e9s Cultural", "protection_title:category": "Cruces de t\u00e9rmino", "ref:pgou": "UC-RU-11", "religion": "christian", "start_date": "C17..C18", "tourism": "attraction"}}, {"type": "node", "id": 3927494114, "lat": 37.0179041, "lon": -3.5991079, "tags": {"addr:city": "Padul", "addr:milestone": "km. 153", "addr:postcode": "18640", "addr:street": "Ctra Bailen-Motril", "name": "Aula de la Naturaleza \"El Aguadero\"", "phone": "+34 958 48 97 59", "tourism": "museum", "website": "http://elaguadero.es"}}, {"type": "node", "id": 2667295482, "lat": 36.977896, "lon": -3.5388905, "tags": {"name": "Parroquia San Juan Bautista", "tourism": "museum"}}, {"type": "node", "id": 2667295483, "lat": 36.9776431, "lon": -3.5382387, "tags": {"name": "Museo Molino \"Almazara Las Laerillas\"", "tourism": "museum"}}, {"type": "node", "id": 7358625885, "lat": 36.949112, "lon": -3.3569751, "tags": {"addr:housenumber": "1", "addr:postcode": "18412", "addr:street": "Plaza Doctor P\u00e9rez Ram\u00f3n", "name": "Museo Casa Alpujarre\u00f1a", "opening_hours": "Su-Mo, We-Th 10:00-14:00; Fr-Sa 10:00-14:00", "phone": "+34958763032", "tourism": "museum"}}, {"type": "node", "id": 4163612671, "lat": 36.9607416, "lon": -3.3596872, "tags": {"name": "Museo Pedro Antonio de Alarcon", "opening_hours": "Sa 11:00-14:00,17:00-19:00;Su 11:00-14:00", "tourism": "museum"}}, {"type": "node", "id": 7143023973, "lat": 37.1054151, "lon": -3.4108102, "tags": {"name": "Museo Etnogr\u00e0fico", "tourism": "museum"}}, {"type": "node", "id": 5877972755, "lat": 37.220478, "lon": -3.687602, "tags": {"addr:city": "Atarfe", "addr:housenumber": "39", "addr:postcode": "18230", "addr:street": "Avenida de la Diputaci\u00f3n", "disused": "yes", "name": "El Arca de los Tiempos", "phone": "+34 958 43 90 08", "source": "http://www.turgranada.es/fichas/museo-el-arca-de-los-tiempos-19831", "tourism": "museum"}}, {"type": "node", "id": 1351200937, "lat": 37.1750101, "lon": -3.5926373, "tags": {"addr:city": "Granada", "addr:housenumber": "8", "addr:postcode": "18009", "addr:street": "Callej\u00f3n Ni\u00f1o del Royo", "description": "Fundaci\u00f3n creada en 1941 por legado testamentario del pintor Jos\u00e9 Mar\u00eda Rodr\u00edguez-Acosta. El objetivo es el fomento y difusi\u00f3n de la cultura. En la visita se recorren las estancias m\u00e1s importantes del edificio.", "email": "contacto@fundacionrodriguezacosta.com", "name": "Fundaci\u00f3n Rodr\u00edguez Acosta", "name:wikidata": "Q5943450", "name:wikipedia": "es:Jos\u00e9 Mar\u00eda Rodr\u00edguez-Acosta", "opening_hours": "Apr 01-Oct 14: 10:00-18:30; Oct 15-Mar 31: 10:00-16:30; Dec 24,25,31: 10:00-13:30", "operator": "Instituto G\u00f3mez-Moreno de la Fundaci\u00f3n Rodr\u00edguez Acosta", "tourism": "museum", "website": "http://www.fundacionrodriguezacosta.com"}}, {"type": "node", "id": 4646694089, "lat": 37.1747484, "lon": -3.5955259, "tags": {"addr:housenumber": "19", "addr:postcode": "18009", "addr:street": "Calle Pavaneras", "contact:facebook": "https://www.facebook.com/museo.tiros", "email": "museocasadelostiros.ccul@juntadeandalucia.es", "fax": "+34 958 98 02 98", "fee": "yes", "museum": "history", "name": "Casa de los Tiros", "opening_hours": "Sep 16-May 31: Tu-Sa 10:00-20:30; Sep 16-May 31: Su,PH 10:00-17:00; Jan 1,May 1,Dec 25: off", "phone": "+34 600 14 31 76", "source": "https://www.andalucia.org/es/granada-turismo-cultural-museo-casa-de-los-tiros", "start_date": "1921", "tourism": "museum", "wikidata": "Q5755346", "wikipedia": "es:Casa de los Tiros"}}, {"type": "node", "id": 6939836186, "lat": 37.1752357, "lon": -3.5949229, "tags": {"addr:housenumber": "5", "addr:postcode": "18009", "addr:street": "Placeta Berrocal", "name": "Casa Museo Sefard\u00ed", "opening_hours": "Su-Fr 10:00-14:00", "phone": "+34 610 06 02 55", "tourism": "museum"}}, {"type": "node", "id": 5862147311, "lat": 37.1760421, "lon": -3.5986977, "tags": {"name": "Museo de la Capilla Real", "tourism": "museum"}}, {"type": "node", "id": 3054870688, "lat": 37.1815692, "lon": -3.5946668, "tags": {"alt_name": "Albayz\u00edn", "heritage": "1", "heritage:operator": "whc", "name": "Albaic\u00edn", "place": "neighbourhood", "ref:whc": "314-002", "wikidata": "Q576339", "wikipedia": "es:Albaic\u00edn"}}, {"type": "node", "id": 4932003408, "lat": 37.1784882, "lon": -3.5938352, "tags": {"addr:city": "Granada", "addr:housenumber": "6", "addr:postcode": "18010", "addr:street": "Cuesta de Santa In\u00e9s", "contact:facebook": "https://www.facebook.com/PalaciodelosOlvidados", "contact:instagram": "https://www.instagram.com/palaciodelosolvidados", "description": "Museo de la inquisici\u00f3n", "email": "info@palaciodelosolvidados.es", "museum": "history", "name": "Palacio de los Olvidados", "phone": "+34 958 10 08 40", "tourism": "museum", "website": "https://palaciodelosolvidados.es", "wikidata": "Q30621860", "wikipedia": "en:Palacio de los Olvidados"}}, {"type": "node", "id": 8183808229, "lat": 37.1817445, "lon": -3.5954391, "tags": {"museum": "history;local;nature", "name": "Centro de Interpretaci\u00f3n del Agua", "operator": "Fundaci\u00f3n AguaGranada", "tourism": "museum", "website": "http://www.fundacionaguagranada.es"}}, {"type": "node", "id": 8190384520, "lat": 37.1809183, "lon": -3.5938397, "tags": {"addr:housenumber": "12", "addr:street": "Camino Nuevo de San Nicol\u00e1s", "museum": "person", "name": "Casa Museo Max Moreau", "operator": "Ayuntamiento de Granada", "phone": "+34 958 29 33 10", "source": "https://rinconesdegranada.com/casa-museo-max-moreau", "tourism": "museum"}}, {"type": "node", "id": 5605028637, "lat": 37.1847018, "lon": -3.6020545, "tags": {"addr:city": "Granada", "addr:postcode": "18012", "addr:street": "Avenida Divina Pastora", "name": "Cripta de Fray Leopoldo de Alpandeire", "tourism": "museum"}}, {"type": "node", "id": 533647928, "lat": 37.1734517, "lon": -3.588879, "tags": {"name": "Museo Manuel de Falla", "tourism": "museum"}}, {"type": "node", "id": 940435771, "lat": 37.1770011, "lon": -3.5900734, "tags": {"name": "Museo de la Alhambra", "name:es": "Museo de la Alhambra", "name:zh": "\u963f\u723e\u7f55\u5e03\u62c9\u535a\u7269\u9928", "old_name": "Museo Nacional de Arte Hispanomusulm\u00e1n", "start_date": "1940", "tourism": "museum", "wikidata": "Q6034176", "wikipedia": "es:Museo de la Alhambra"}}, {"type": "node", "id": 1351215450, "lat": 37.1769483, "lon": -3.5899102, "tags": {"email": "museobellasartesgranada.ccul@juntadeandalucia.es", "name": "Museo de Bellas Artes", "name:es": "Museo de Bellas Artes", "name:zh": "\u73fe\u4ee3\u7f8e\u8853\u9928", "start_date": "1958", "tourism": "museum", "wikidata": "Q7265634", "wikipedia": "es:Museo de Bellas Artes de Granada"}}, {"type": "node", "id": 4755297122, "lat": 37.1817793, "lon": -3.5867266, "tags": {"charge": "1\u20ac", "description": "Casa cueva privada", "description:en": "Private cave house", "description:es": "Casa cueva privada", "fee": "yes", "fixme": "A\u00f1adir datos y referencias", "tourism": "museum"}}, {"type": "node", "id": 5236626821, "lat": 37.1788216, "lon": -3.5905527, "tags": {"contact:facebook": "https://www.facebook.com/galeria.alea", "contact:instagram": "https://www.instagram.com/galeria.alea", "email": "info@galeria-alea.com", "name": "Galer\u00eda Alea", "name:en": "Galeria Alea", "name:es": "Galer\u00eda Alea", "tourism": "museum", "website": "https://www.galeria-alea.com"}}, {"type": "node", "id": 2816220886, "lat": 37.1831301, "lon": -3.5843209, "tags": {"addr:city": "Granada", "addr:street": "Barranco de los Negros", "name": "Museo cuevas del Sacromonte", "name:tr": "Sacromente", "name:zh": "\u8056\u5c71\u6d1e\u7a74\u535a\u7269\u9928", "tourism": "museum", "wikidata": "Q47517357", "wikipedia": "fr:Museo-cuevas del Sacromonte"}}, {"type": "node", "id": 3086688635, "lat": 37.2336196, "lon": -3.5532453, "tags": {"name": "Museo Etnol\u00f3gico Molino de la Venta", "tourism": "museum"}}, {"type": "node", "id": 2038590596, "lat": 37.3898643, "lon": -4.7788659, "tags": {"name": "Museo Arqueol\u00f3gico", "tourism": "museum"}}, {"type": "node", "id": 2038590591, "lat": 37.3880445, "lon": -4.7739465, "tags": {"name": "Museo Etnogr\u00e1fico (Jos\u00e9 D\u00edaz Arroyo)", "tourism": "museum"}}, {"type": "node", "id": 3427120455, "lat": 37.7585157, "lon": -4.9453839, "tags": {"name": "Museo de las Ciencias", "tourism": "museum"}}, {"type": "node", "id": 3612645699, "lat": 37.407749, "lon": -4.4889479, "tags": {"name": "Centro de Interpretaci\u00f3n de la Ciudad", "tourism": "museum"}}, {"type": "node", "id": 3612645700, "lat": 37.4080617, "lon": -4.4838343, "tags": {"name": "Museo de Arqueolog\u00eda y Etnograf\u00eda", "tourism": "museum"}}, {"type": "node", "id": 1635963725, "lat": 37.4721024, "lon": -4.4400804, "tags": {"name": "Museo Aguilar y Eslava", "tourism": "museum", "wikidata": "Q6033100"}}, {"type": "node", "id": 1635963755, "lat": 37.4721642, "lon": -4.4426152, "tags": {"name": "Museo Arqueol\u00f3gico", "tourism": "museum"}}, {"type": "node", "id": 6616062628, "lat": 37.4755529, "lon": -4.4278322, "tags": {"name": "Cabra Jur\u00e1sica", "tourism": "museum"}}, {"type": "node", "id": 7711513908, "lat": 37.4747999, "lon": -4.4238798, "tags": {"name": "Antigua Estaci\u00f3n de Cabra", "tourism": "museum"}}, {"type": "node", "id": 4361983851, "lat": 37.4426755, "lon": -4.2759648, "tags": {"name": "Museo Hist\u00f3rico Municipal de Carcabuey", "opening_hours": "Mo-Sa 08:00-15:00", "tourism": "museum", "wheelchair": "yes"}}, {"type": "node", "id": 2417757950, "lat": 37.4370267, "lon": -4.1949948, "tags": {"addr:housenumber": "33", "addr:postcode": "14800", "addr:street": "Calle R\u00edo", "email": "museoalcalazamora@gmail.com", "name": "Casa Natal Niceto Alcal\u00e1-Zamora", "opening_hours": "Tu-Sa 10:00-13:30; Su 10:00-13:30", "phone": "+34690638100", "tourism": "museum", "website": "http://www.priegodecordoba.es"}}, {"type": "node", "id": 2417757963, "lat": 37.4384621, "lon": -4.1962694, "tags": {"name": "Casa Adolfo Lozano Sidro / Museo Arqueol\u00f3gico", "tourism": "museum"}}, {"type": "node", "id": 1262577021, "lat": 37.5400056, "lon": -4.3060107, "tags": {"name": "Ecomuseo Cueva de los Murci\u00e9lagos", "tourism": "museum"}}, {"type": "node", "id": 7312890806, "lat": 37.5443931, "lon": -4.3131582, "tags": {"museum": "history", "name": "Museo de Costumbres y Art\u00e9s Populares", "tourism": "museum"}}, {"type": "node", "id": 7312890807, "lat": 37.5437942, "lon": -4.3160988, "tags": {"museum": "history", "name": "Museo Arqueologico", "tourism": "museum"}}, {"type": "node", "id": 5574106721, "lat": 37.6891681, "lon": -4.481468, "tags": {"name": "Museo Antonio Villa Toro", "tourism": "museum"}}, {"type": "node", "id": 4317376099, "lat": 37.6142088, "lon": -4.3268099, "tags": {"addr:city": "Baena", "addr:housenumber": "5", "addr:postcode": "14850", "addr:street": "Calle Santo Domingo Henares", "name": "Museo Historico de Baena", "phone": "+34 957 67 17 57", "tourism": "museum", "website": "http://www.baenacultura.es/index.php/patrimonio/baenarqueologia/museo-historico"}}, {"type": "node", "id": 4323083763, "lat": 37.6143224, "lon": -4.3287626, "tags": {"name": "Museo de Semana Santa", "tourism": "museum"}}, {"type": "node", "id": 4008305940, "lat": 37.6162643, "lon": -4.324817, "tags": {"addr:city": "Baena", "addr:housenumber": "7", "addr:postcode": "14850", "addr:street": "Calle Ca\u00f1ada", "name": "Museo del Olivar y el Aceite", "phone": "+34 357 69 16 41", "tourism": "museum", "website": "http://www.museoaceite.com"}}, {"type": "node", "id": 4003894322, "lat": 37.572793, "lon": -4.2616491, "tags": {"addr:city": "Luque", "addr:postcode": "14880", "addr:street": "Estacion de Luque", "name": "Centro de Interpretacion del Aceite", "phone": "+34 957 67 40 81", "tourism": "museum"}}, {"type": "node", "id": 3367825720, "lat": 37.880206, "lon": -4.7836325, "tags": {"addr:city": "C\u00f3rdoba", "addr:housenumber": "12", "addr:postcode": "14004", "addr:street": "Calle Jud\u00edos", "building": "yes", "contact:phone": "+34 957 290 642", "contact:website2": "http://www.lacasaandalusi.es", "name": "La Casa Andalus\u00ed", "tourism": "museum", "website": "http://www.lacasaandalusi.com/"}}, {"type": "node", "id": 3367825721, "lat": 37.8798711, "lon": -4.7832619, "tags": {"addr:city": "C\u00f3rdoba", "addr:postcode": "14004", "addr:street": "Calle Jud\u00edos", "alt_name": "Casa de la Memoria", "museum": "local", "name": "Casa de Sefarad", "phone": "+34 957 42 14 04", "tourism": "museum", "website": "http://www.casadesefarad.es/entrada.html", "wikidata": "Q5755035", "wikipedia": "es:Casa de Sefarad (C\u00f3rdoba)"}}, {"type": "node", "id": 3647845576, "lat": 37.8790464, "lon": -4.7814189, "tags": {"addr:city": "C\u00f3rdoba", "addr:housenumber": "1", "addr:street": "Calle de los Manriquez", "alt_name": "Museo de la Inquisici\u00f3n", "contact:email": "info@galeriadelainquisicion.com", "contact:phone": "+34 957 474 508", "contact:phone2": "+34 630 888 887", "contact:website": "http://www.galeriadelainquisicion.com", "name": "Galer\u00eda de La Inquisici\u00f3n", "tourism": "museum"}}, {"type": "node", "id": 4951680821, "lat": 37.8789032, "lon": -4.7816034, "tags": {"addr:city": "C\u00f3rdoba", "name": "Centro de Arte Moderno Rafael Bot\u00ed", "tourism": "museum", "website": "https://www.juntadeandalucia.es/cultura/agendaandaluciatucultura/evento/centro-de-arte-moderno-rafael-boti", "wikidata": "Q29083578", "wikipedia": "es:Centro de Arte Rafael Bot\u00ed"}}, {"type": "node", "id": 5322471058, "lat": 37.8807127, "lon": -4.7802289, "tags": {"addr:city": "C\u00f3rdoba", "addr:housenumber": "2", "addr:postcode": "14003", "addr:street": "Plaza de la Agrupaci\u00f3n de Cofrad\u00edas", "alt_name": "Casa Museo Arte sobre Piel", "beacon:type": "bluetooth", "contact:email": "info@artesobrepiel.com", "contact:phone": "+34 957 050 131", "contact:website": "http://www.artesobrepiel.com", "indoormark": "beacon", "name": "Casa Ram\u00f3n Garc\u00eda Romero", "opening_hours": "Mo-Sa 10:15-14:00,16:30-20:00", "tourism": "museum", "wheelchair": "limited"}}, {"type": "node", "id": 5322471072, "lat": 37.8800924, "lon": -4.7835868, "tags": {"addr:city": "C\u00f3rdoba", "addr:housenumber": "14", "addr:street": "Calle Jud\u00edos", "contact:phone": "+34 957 890 598", "contact:website": "http://www.museodelaalquimia.com", "name": "Al-Iksir Museo de la Alquimia", "tourism": "museum"}}, {"type": "node", "id": 21750062, "lat": 37.8845813, "lon": -4.7760138, "tags": {"admin_level": "8", "capital": "6", "ele": "106", "heritage": "1", "heritage:operator": "whc", "name": "C\u00f3rdoba", "name:ar": "\u0642\u0631\u0637\u0628\u0629", "name:be": "\u041a\u043e\u0440\u0434\u0430\u0432\u0430", "name:bg": "\u041a\u043e\u0440\u0434\u043e\u0431\u0430", "name:ca": "C\u00f2rdova", "name:da": "Cordoba", "name:el": "\u039a\u03cc\u03c1\u03b4\u03bf\u03b2\u03b1", "name:es": "C\u00f3rdoba", "name:eu": "Kordoba", "name:ext": "C\u00f3rduba", "name:fr": "Cordoue", "name:he": "\u05e7\u05d5\u05e8\u05d3\u05d5\u05d1\u05d4", "name:hu": "C\u00f3rdoba", "name:id": "Kordoba", "name:it": "Cordova", "name:ja": "\u30b3\u30eb\u30c9\u30d0", "name:kn": "\u0c95\u0ccb\u0cb0\u0ccd\u0ca1\u0cca\u0cac", "name:lt": "Kordoba", "name:pl": "Kordoba", "name:pt": "C\u00f3rdova", "name:ru": "\u041a\u043e\u0440\u0434\u043e\u0432\u0430", "name:sr": "\u041a\u043e\u0440\u0434\u043e\u0431\u0430", "name:uk": "\u041a\u043e\u0440\u0434\u043e\u0432\u0430", "place": "city", "population": "328428", "ref:ine": "14021000900", "ref:whc": "313", "source": "Instituto Geogr\u00e1fico Nacional", "source:date": "2011-06", "source:ele": "MDT5", "source:file": "http://centrodedescargas.cnig.es/CentroDescargas/equipamiento/BD_Municipios-Entidades.zip", "source:name": "Nomencl\u00e1tor Geogr\u00e1fico de Municipios y Entidades de Poblaci\u00f3n", "source:population": "INE", "whc:criteria": "(i)(ii)(iii)(iv)", "whc:inscription_date": "1984", "wikidata": "Q5818", "wikipedia": "es:C\u00f3rdoba (Espa\u00f1a)"}}, {"type": "node", "id": 3561610057, "lat": 38.0272414, "lon": -4.381262, "tags": {"name": "Museo Arqueol\u00f3gico Municipal", "tourism": "museum"}}, {"type": "node", "id": 3561610049, "lat": 38.0278728, "lon": -4.3804338, "tags": {"name": "Museo de Semana Santa", "tourism": "museum"}}, {"type": "node", "id": 3530429606, "lat": 37.9841015, "lon": -4.2843328, "tags": {"name": "Museo \"Mat\u00edas Prats\"", "tourism": "museum"}}, {"type": "node", "id": 6814263088, "lat": 37.3536851, "lon": -4.0493068, "tags": {"denomination": "catholic", "heritage": "2", "heritage:operator": "Ayuntamiento de Montefr\u00edo", "historic": "wayside_cross", "name": "Cruz de la Loma del Rosal", "protection_title": "Bien de Inter\u00e9s Cultural", "protection_title:category": "Cruces de t\u00e9rmino", "ref:pgou": "UC-RU-03", "religion": "christian", "start_date": "~1940", "tourism": "attraction"}}, {"type": "node", "id": 6814251896, "lat": 37.3529903, "lon": -4.0205507, "tags": {"denomination": "catholic", "heritage": "2", "heritage:operator": "Ayuntamiento de Montefr\u00edo", "historic": "wayside_cross", "name": "Cruz del Ventorro", "protection_title": "Bien de Inter\u00e9s Cultural", "protection_title:category": "Cruces de t\u00e9rmino", "ref:pgou": "UC-RU-01", "religion": "christian", "start_date": "C17..C18", "tourism": "attraction"}}, {"type": "node", "id": 6814265787, "lat": 37.3528174, "lon": -3.9921408, "tags": {"denomination": "catholic", "heritage": "2", "heritage:operator": "Ayuntamiento de Montefr\u00edo", "historic": "wayside_cross", "name": "Cruz del Espinar", "protection_title": "Bien de Inter\u00e9s Cultural", "protection_title:category": "Cruces de t\u00e9rmino", "ref:pgou": "UC-RU-16", "religion": "christian", "start_date": "C17..C18", "tourism": "attraction"}}, {"type": "node", "id": 6814251890, "lat": 37.3653165, "lon": -3.932646, "tags": {"denomination": "catholic", "heritage": "2", "heritage:operator": "Ayuntamiento de Montefr\u00edo", "historic": "wayside_cross", "name": "Cruz de Matute", "protection_title": "Bien de Inter\u00e9s Cultural", "protection_title:category": "Cruces de t\u00e9rmino", "ref:pgou": "UC-RU-08", "religion": "christian", "start_date": "C17..C18", "tourism": "attraction"}}, {"type": "node", "id": 5358055081, "lat": 37.4083393, "lon": -3.8703566, "tags": {"name": "centro de interpretaci\u00f3n del aceite", "tourism": "museum"}}, {"type": "node", "id": 5343860598, "lat": 37.7220045, "lon": -3.9722271, "tags": {"name": "Museo de Arqueolog\u00eda", "tourism": "museum"}}, {"type": "node", "id": 3686078252, "lat": 37.5300621, "lon": -3.6566066, "tags": {"name": "Centro de la Santer\u00eda", "tourism": "museum"}}, {"type": "node", "id": 7871239524, "lat": 37.6936442, "lon": -3.6355844, "tags": {"name": "Centro de Interpretaci\u00f2n de la Camineria", "tourism": "museum", "website": "http://www.redjaen.es/francis/?m=c&o=75615"}}, {"type": "node", "id": 3670712844, "lat": 37.7239594, "lon": -3.3809097, "tags": {"addr:city": "B\u00e9lmez de la Moraleda", "name": "Casa de las Caras de B\u00e9lmez", "tourism": "museum"}}, {"type": "node", "id": 3732019027, "lat": 37.9736249, "lon": -4.1045448, "tags": {"addr:city": "Arjonilla", "name": "Museo Municipal de Cer\u00e1mica", "tourism": "museum"}}, {"type": "node", "id": 7810749071, "lat": 37.7710863, "lon": -3.7937668, "tags": {"name": "Museo Internacional de Arte Na\u00eff", "tourism": "museum", "wikidata": "Q9046853"}}, {"type": "node", "id": 7815020079, "lat": 37.7711341, "lon": -3.794079, "tags": {"name": "Museo de Artes y Costumbres Populares", "tourism": "museum", "wikidata": "Q10940875"}}, {"type": "node", "id": 2283194017, "lat": 37.7665002, "lon": -3.7861893, "tags": {"addr:postcode": "23001", "name": "Casa Museo", "source": "MPJ2013", "tourism": "museum"}}, {"type": "node", "id": 6394274120, "lat": 38.0471241, "lon": -4.1734115, "tags": {"addr:city": "Marmolejo", "addr:housenumber": "29", "addr:postcode": "23770", "addr:street": "Calle Jes\u00fas", "name": "Museo de Arte Contempor\u00e1neo Mayte Sp\u00ednola", "tourism": "museum"}}, {"type": "node", "id": 6562458860, "lat": 38.0364161, "lon": -4.0529265, "tags": {"addr:city": "And\u00fajar", "name": "museo hist\u00f3rico", "tourism": "museum"}},