{"type": "FeatureCollection", "features": [{"type": "Feature", "properties": {"type": "node", "id": 1388474912, "tags": {"name": "Mekanisk Museum", "note": "Old agricultural machinery", "opening_hours": "Mar 15-Oct 15 10:30-16:30; Mo,Fr off", "phone": "+45 74676674", "tourism": "museum", "website": "http://www.mekanisk-museum.dk/"}}, "geometry": {"type": "Point", "coordinates": [9.4758428, 54.902431]}}, {"type": "Feature", "properties": {"type": "node", "id": 7267094359, "tags": {"name": "S\u00f8nderborg Slot", "opening_hours": "PH 10:00-16:00; Jun-Sep 10:00-17:00; Apr,May,Oct Tu-Su 10:00-16:00; Nov-Mar Tu-Su 10:00-16:00; week 7-8 10:00-16:00; week 42 10:00-16:00; easter-6days-easter+1days 10:00-16:00; Dec 25-Dec 31 10:00-16:00", "telephone": "+4565370807", "toilets:wheelchair": "yes", "tourism": "museum", "website": "https://msj.dk/soenderborg-slot/", "wheelchair": "yes", "wheelchair:description": "Elevator inside"}}, "geometry": {"type": "Point", "coordinates": [9.7843397, 54.9068814]}}, {"type": "Feature", "properties": {"type": "node", "id": 3950197904, "tags": {"name": "S\u00f8nderjyllands Radiomuseum", "tourism": "museum", "website": "http://www.soenderjyllands-radiomuseum.dk/", "wikidata": "Q12338434", "wikipedia": "da:S\u00f8nderjyllands Radiomuseum"}}, "geometry": {"type": "Point", "coordinates": [9.8054006, 54.9076032]}}, {"type": "Feature", "properties": {"type": "node", "id": 1949154769, "tags": {"name": "Ringridermuseet", "opening_hours": "Jun-Aug Tu-Fr 11:00-16:00", "tourism": "museum", "website": "http://www.ringridermuseet.dk/", "wikidata": "Q27955511"}}, "geometry": {"type": "Point", "coordinates": [9.787767, 54.9109341]}}, {"type": "Feature", "properties": {"type": "node", "id": 1788904476, "tags": {"man_made": "watermill", "name": "Vib\u00e6k M\u00f8lle", "start_date": "1756", "tourism": "museum", "website": "http://www.vibaek-moellerne.dk/"}}, "geometry": {"type": "Point", "coordinates": [9.9546785, 54.8945524]}}, {"type": "Feature", "properties": {"type": "node", "id": 5310397085, "tags": {"name": "Hjerting Lokalarkiv", "tourism": "museum", "website": "http://hjertinglokalarkiv.dk/"}}, "geometry": {"type": "Point", "coordinates": [8.3556334, 55.5238617]}}, {"type": "Feature", "properties": {"type": "node", "id": 955664916, "tags": {"name": "Natur & Kultur formidlingscenter - Myrthueg\u00e5rd", "tourism": "museum", "website": "http://myrthue.esbjergkommune.dk/skoletjenesten/laeringstilbud/myrthuegaard.aspx"}}, "geometry": {"type": "Point", "coordinates": [8.3091211, 55.5718138]}}, {"type": "Feature", "properties": {"type": "node", "id": 853063006, "tags": {"fvst:navnelbnr": "40365", "name": "Fiskeriets Hus", "tourism": "museum"}}, "geometry": {"type": "Point", "coordinates": [8.1299304, 56.0045391]}}, {"type": "Feature", "properties": {"type": "node", "id": 3894379991, "tags": {"name": "Esehytterne", "tourism": "museum", "website": "http://borkguide.dk/da_DK/esehusene-fiskerihistorie-du-kan-gaa-ind-i/"}}, "geometry": {"type": "Point", "coordinates": [8.1848808, 55.8185927]}}, {"type": "Feature", "properties": {"type": "node", "id": 7738356365, "tags": {"fvst:fixme": "fvst position missing, fixed from overpassturbo/osak", "fvst:navnelbnr": "945801", "name": "Nymindegab Museum", "phone": "+45 75255544", "tourism": "museum", "website": "https://vardemuseerne.dk/museum/nymindegab/", "wikipedia": "da:Nymindegab Museum"}}, "geometry": {"type": "Point", "coordinates": [8.197326, 55.816931]}}, {"type": "Feature", "properties": {"type": "node", "id": 4553940744, "tags": {"amenity": "events_venue", "comment": "groups or guided tours Fr-Sa", "fvst:fixme": "fvst position missing, fixed from Nominatim", "fvst:navnelbnr": "534016", "museum": "hunting", "name": "Nygaards Afrika", "phone": "+45 40191311", "tourism": "museum", "website": "http://www.nygaardsafrika.dk/"}}, "geometry": {"type": "Point", "coordinates": [8.344996, 55.8053837]}}, {"type": "Feature", "properties": {"type": "node", "id": 6641745111, "tags": {"name": "Danmarks Vindkrafthistoriske Samling", "tourism": "museum", "website": "http://www.vindhistorie.dk/"}}, "geometry": {"type": "Point", "coordinates": [8.388488, 56.021111]}}, {"type": "Feature", "properties": {"type": "node", "id": 4185307593, "tags": {"facebook": "https://facebook.com/vwretromuseum", "name": "VW & Retro Museum", "tourism": "museum", "website": "http://www.vwretromuseum.dk/"}}, "geometry": {"type": "Point", "coordinates": [8.3208791, 56.2629155]}}, {"type": "Feature", "properties": {"type": "node", "id": 3900742480, "tags": {"fvst:navnelbnr": "40508", "name": "Museet for Religi\u00f8s Kunst", "name:de": "Museum f\u00fcr religi\u00f6se Kunst", "tourism": "museum", "website": "http://www.mfrk.dk/", "wikidata": "Q12327926", "wikipedia": "da:Museet for Religi\u00f8s Kunst"}}, "geometry": {"type": "Point", "coordinates": [8.2963063, 56.5527977]}}, {"type": "Feature", "properties": {"type": "node", "id": 4294981716, "tags": {"email": "gjellergaard@gmail.com", "name": "Gjellergaard", "phone": "+45 97 81 10 88", "tourism": "museum", "website": "http://www.gjellergaard.dk/", "wikidata": "Q12313951", "wikipedia": "da:Gjellergaard"}}, "geometry": {"type": "Point", "coordinates": [8.2912421, 56.5888176]}}, {"type": "Feature", "properties": {"type": "node", "id": 1451063221, "tags": {"tourism": "museum"}}, "geometry": {"type": "Point", "coordinates": [8.6632636, 55.0779467]}}, {"type": "Feature", "properties": {"type": "node", "id": 5755034844, "tags": {"link": "https://uldspinderiet.tumblr.com/velkommen", "name": "Sk\u00e6rb\u00e6k Uldspinderi Museum", "tourism": "museum"}}, "geometry": {"type": "Point", "coordinates": [8.7642862, 55.1597795]}}, {"type": "Feature", "properties": {"type": "node", "id": 1719070644, "tags": {"name": "Naturudstilling om Vadehavet", "tourism": "museum"}}, "geometry": {"type": "Point", "coordinates": [8.5364184, 55.2736353]}}, {"type": "Feature", "properties": {"type": "node", "id": 759801563, "tags": {"name": "S\u00f8nderho Gammel Redningstation", "tourism": "museum"}}, "geometry": {"type": "Point", "coordinates": [8.460404, 55.3483684]}}, {"type": "Feature", "properties": {"type": "node", "id": 411084931, "tags": {"name": "Hanne's Hus", "tourism": "museum"}}, "geometry": {"type": "Point", "coordinates": [8.4735287, 55.3488633]}}, {"type": "Feature", "properties": {"type": "node", "id": 6591692686, "tags": {"addr:city": "Ribe", "addr:housenumber": "1", "addr:postcode": "6760", "addr:street": "Sortebr\u00f8dregade", "charge": "85 DKK", "description": "Life and legacy of photographer Jacob Riis", "fee": "yes", "name": "Jacob A. Riis Museum", "opening_hours": "10:00-17:00; Sep-Feb 10:00-16:00; Mo off; week 42 10:00-17:00; week 7 10:00-17:00; Dec 24 off; Dec 25 off; Dec 31 off; Jan 1 off; easter 10:00-17:00; easter -2 days 10:00-17:00; easter -1 day 10:00-17:00", "phone": "+45 76163980", "subject:wikidata": "Q379211", "subject:wikipedia": "da:Jacob A. Riis", "tourism": "museum", "website": "http://www.jacobariismuseum.dk/"}}, "geometry": {"type": "Point", "coordinates": [8.7633588, 55.3286961]}}, {"type": "Feature", "properties": {"type": "node", "id": 5812228317, "tags": {"description": "Udstilling om Ecco", "level": "1", "name": "\u00c6 Laut", "name:en": "Upstairs", "tourism": "museum", "website": "http://toosbuystorv.dk/ae-laut/"}}, "geometry": {"type": "Point", "coordinates": [8.8248854, 55.0590459]}}, {"type": "Feature", "properties": {"type": "node", "id": 6744279812, "tags": {"name": "Museumsfyrskibet Horns Rev", "tourism": "museum", "website": "https://www.fyrskibet-esbjerg.dk/", "wikidata": "Q12327810", "wikipedia": "da:Motorfyrskib nr. 1"}}, "geometry": {"type": "Point", "coordinates": [8.4109268, 55.4829981]}}, {"type": "Feature", "properties": {"type": "node", "id": 7926121884, "tags": {"museum": "maritime", "name": "Esbjerg Havn - Bes\u00f8gscenter", "operator": "Fiskeri- og S\u00f8fartsmuseet;Byhistorisk Arkiv", "source": "https://ugeavisen.dk/esbjerg/artikel/det-gule-pal%C3%A6-har-f%C3%A5et-sit-nye-liv", "tourism": "museum"}}, "geometry": {"type": "Point", "coordinates": [8.4472158, 55.4632386]}}, {"type": "Feature", "properties": {"type": "node", "id": 26581857, "tags": {"museum": "art", "name": "Esbjerg Kunstmuseum", "phone": "+45 75130211", "source": "Bing", "tourism": "museum", "website": "http://www.eskum.dk", "wikidata": "Q19842399", "wikipedia": "da:Esbjerg Kunstmuseum"}}, "geometry": {"type": "Point", "coordinates": [8.4505741, 55.4642399]}}, {"type": "Feature", "properties": {"type": "node", "id": 3402663658, "tags": {"name": "Bogtrykmuseet i Esbjerg", "tourism": "museum", "wikidata": "Q16891126", "wikipedia": "da:Bogtrykmuseet i Esbjerg"}}, "geometry": {"type": "Point", "coordinates": [8.455962, 55.4648925]}}, {"type": "Feature", "properties": {"type": "node", "id": 4142852929, "tags": {"facebook": "https://www.facebook.com/Esbjergspejdermuseum", "name": "Esbjerg Spejdermuseum", "note": "moved from Sl\u00e5envej 7 to Skr\u00e6nten 120 in spring 2019, reopened on 2019-09-09 according to source:location", "source:location": "https://m.facebook.com/story.php?story_fbid=2586706761373566&id=623854900992105", "tourism": "museum", "website": "http://www.esbjerg-spejdermuseum.dk/", "wikidata": "Q12310592", "wikipedia": "da:Esbjerg Spejdermuseum"}}, "geometry": {"type": "Point", "coordinates": [8.4506361, 55.4829567]}}, {"type": "Feature", "properties": {"type": "node", "id": 4183183507, "tags": {"name": "Bramming Byhistoriske Arkiv", "opening_hours": "We 16:00-18:00", "tourism": "museum", "website": "http://brammingby.dk/"}}, "geometry": {"type": "Point", "coordinates": [8.700424, 55.4666097]}}, {"type": "Feature", "properties": {"type": "node", "id": 288948887, "tags": {"description": "Museum", "fvst:name": "Janus Bygningen/Janusforeningen", "fvst:navnelbnr": "74196", "name": "Janus Kunstmuseum", "tourism": "museum", "wikimedia_commons": "File:Tistrup Janus Bygningen.jpg"}}, "geometry": {"type": "Point", "coordinates": [8.6077306, 55.7200448]}}, {"type": "Feature", "properties": {"type": "node", "id": 7147738487, "tags": {"fee": "no", "name": "Skolemuseet Hodde gl. Skole", "phone": "+45 75220877", "tourism": "museum", "website": "https://vardemuseerne.dk/museum/hodde-gamle-skole/"}}, "geometry": {"type": "Point", "coordinates": [8.6454128, 55.6983678]}}, {"type": "Feature", "properties": {"type": "node", "id": 2101249214, "tags": {"name": "Naturudstilling", "tourism": "museum"}}, "geometry": {"type": "Point", "coordinates": [8.9349759, 55.6086124]}}, {"type": "Feature", "properties": {"type": "node", "id": 1256403442, "tags": {"name": "Museumsg\u00e5rden Karensminde", "opening_hours": "Sa-Su 11:00-16:00", "tourism": "museum"}}, "geometry": {"type": "Point", "coordinates": [8.8706201, 55.7578372]}}, {"type": "Feature", "properties": {"type": "node", "id": 5031527842, "tags": {"name": "Teddy Bear Art Museum", "tourism": "museum", "website": "http://www.teddybearartmuseum.dk"}}, "geometry": {"type": "Point", "coordinates": [9.116866, 55.7312213]}}, {"type": "Feature", "properties": {"type": "node", "id": 1314888075, "tags": {"GlobalID": "{CD5D830C-C62A-4486-BAC4-4FD761F29CB2}", "name": "Fonden Br\u00f8drene Grams historiske arkiv og museum", "source": "Haderslev Kommune", "tourism": "museum", "website": "http://www.broedrene-gram.dk/"}}, "geometry": {"type": "Point", "coordinates": [9.3022999, 55.2436883]}}, {"type": "Feature", "properties": {"type": "node", "id": 1314888083, "tags": {"fvst:name": "DSI T\u00f8rning M\u00f8lle", "fvst:navnelbnr": "78282", "name": "T\u00f8rning M\u00f8lle", "tourism": "museum", "website": "https://www.toerning-moelle.dk/", "wikidata": "Q12340025", "wikipedia": "da:T\u00f8rning M\u00f8lle"}}, "geometry": {"type": "Point", "coordinates": [9.3732657, 55.2377155]}}, {"type": "Feature", "properties": {"type": "node", "id": 1314888073, "tags": {"name": "Dansk Klokkemuseum, Over Lerte Kirke", "phone": "+45 75423873", "source": "Haderslev Kommune", "tourism": "museum", "website": "http://www.klokkemuseum.dk/"}}, "geometry": {"type": "Point", "coordinates": [9.2773793, 55.3783765]}}, {"type": "Feature", "properties": {"type": "node", "id": 1314888080, "tags": {"name": "Slesvigske Vognsamling", "source": "Haderslev Kommune", "tourism": "museum", "website": "http://www.museum-sonderjylland.dk/"}}, "geometry": {"type": "Point", "coordinates": [9.4739003, 55.2525779]}}, {"type": "Feature", "properties": {"type": "node", "id": 1314888074, "tags": {"GlobalID": "{7F51D3E6-9F45-4470-803D-C932695A406F}", "name": "Ehlers Samlingen", "source": "Haderslev Kommune", "tourism": "museum", "website": "http://www.museum-sonderjylland.dk/"}}, "geometry": {"type": "Point", "coordinates": [9.4907495, 55.2497459]}}, {"type": "Feature", "properties": {"type": "node", "id": 1314888076, "tags": {"GlobalID": "{63ACD564-6FFC-46CD-881F-3E04444720D9}", "name": "Haderslev Bymuseum", "source": "Haderslev Kommune", "tourism": "museum", "website": "http://www.haderslev-museum.dk/Sider/ANDRE/HadByMuseum.html", "wheelchair": "no"}}, "geometry": {"type": "Point", "coordinates": [9.4909919, 55.2497475]}}, {"type": "Feature", "properties": {"type": "node", "id": 5940745788, "tags": {"bike_friend": "yes", "name": "Christiansfeld Centeret", "tourism": "museum", "website": "https://christiansfeldcentret.kolding.dk/"}}, "geometry": {"type": "Point", "coordinates": [9.4815032, 55.3561393]}}, {"type": "Feature", "properties": {"type": "node", "id": 3085211113, "tags": {"name": "Vagns Saab Museum", "opening_hours": "\"\u00c5bent efter aftale\"", "tourism": "museum", "website": "https://www.vagnssaabmuseum.dk/", "wikidata": "Q79854071", "wikimedia_commons": "SvenstrupSAABMuseum.jpg"}}, "geometry": {"type": "Point", "coordinates": [9.8290486, 55.0294451]}}, {"type": "Feature", "properties": {"type": "node", "id": 5903416150, "tags": {"museum_type": "private", "name": "Munkeg\u00e5rd Traktormuseum", "opening_hours": "Mo-Su 10:00-17:00", "operator": "Jes Peter Skovgaard Peterson", "tourism": "museum", "website": "http://munkegaard-traktormuseum.dk", "wheelchair": "limited"}}, "geometry": {"type": "Point", "coordinates": [9.7469398, 55.0686378]}}, {"type": "Feature", "properties": {"type": "node", "id": 3130870936, "tags": {"name": "Hestestalden", "tourism": "museum"}}, "geometry": {"type": "Point", "coordinates": [9.8065222, 55.3128571]}}, {"type": "Feature", "properties": {"type": "node", "id": 6058977531, "tags": {"addr:city": "Assens", "addr:housenumber": "52", "addr:postcode": "5610", "addr:street": "Ramsherred", "name": "Assens Miniby", "opening_hours": "09:00-19:00, Nov-Mar Mo-We 08:00-11:00", "operator": "Ide-Gruppe af 1990", "tourism": "museum"}}, "geometry": {"type": "Point", "coordinates": [9.8927215, 55.2731082]}}, {"type": "Feature", "properties": {"type": "node", "id": 6058829483, "tags": {"addr:city": "Assens", "addr:housenumber": "57", "addr:postcode": "5610", "addr:street": "\u00d8stergade", "description": "Silverware", "name": "Ernst", "operator": "Museum Vestfyen", "phone": "+45 6471 3190", "tourism": "museum", "website": "https://museumvestfyn.dk/ernst/"}}, "geometry": {"type": "Point", "coordinates": [9.8995608, 55.2702958]}}, {"type": "Feature", "properties": {"type": "node", "id": 6058940066, "tags": {"name": "Willemoesg\u00e5rden", "tourism": "museum", "website": "https://museumvestfyn.dk/"}}, "geometry": {"type": "Point", "coordinates": [9.8966523, 55.2698032]}}, {"type": "Feature", "properties": {"type": "node", "id": 2686483245, "tags": {"fvst:navnelbnr": "83425", "name": "Str\u00f8jer Samlingen", "tourism": "museum"}}, "geometry": {"type": "Point", "coordinates": [10.0119066, 55.2892143]}}, {"type": "Feature", "properties": {"type": "node", "id": 918239881, "tags": {"name": "Landskabsudstilling i Slusehuset", "tourism": "museum"}}, "geometry": {"type": "Point", "coordinates": [9.3994159, 55.5363087]}}, {"type": "Feature", "properties": {"type": "node", "id": 6967440275, "tags": {"addr:city": "Kolding", "addr:housenumber": "2B", "addr:postcode": "6000", "addr:street": "Skolegade", "name": "Kolding Stadsarkiv", "opening_hours": "Tu-Th 11:00-15:00", "phone": "+45 79791030", "tourism": "museum", "website": "https://stadsarkiv.kolding.dk/"}}, "geometry": {"type": "Point", "coordinates": [9.470921, 55.4913136]}}, {"type": "Feature", "properties": {"type": "node", "id": 1524590869, "tags": {"name": "Sk\u00e6rb\u00e6k Fiskerisamling", "tourism": "museum"}}, "geometry": {"type": "Point", "coordinates": [9.628474, 55.5135261]}}, {"type": "Feature", "properties": {"type": "node", "id": 1401927214, "tags": {"man_made": "watermill", "name": "Gammelby M\u00f8lle", "opening_hours": "\"on appointment\"", "tourism": "museum", "website": "http://www.moellearkivet.dk/egeskov-mlle21"}}, "geometry": {"type": "Point", "coordinates": [9.6236012, 55.586775]}}, {"type": "Feature", "properties": {"type": "node", "id": 280112036, "tags": {"heritage": "1", "heritage:operator": "whc", "heritage:website": "http://whc.unesco.org/en/list/697", "historic": "rune_stone", "name": "Jellingestenene", "name:et": "Jellingi kivid", "name:fr": "Pierres de Jelling", "name:he": "\u05d9\u05d9\u05dc\u05d9\u05df", "name:lt": "Jeling\u0117s run\u0173 akmenys", "name:pl": "Kamienie runiczne w Jelling", "name:uk": "\u0420\u0443\u043d\u0456\u0447\u043d\u0456 \u043a\u0430\u043c\u0435\u043d\u0456 \u0432 \u0415\u043b\u043b\u0456\u043d\u0437\u0456", "note": "De 2 sten befinder sig i hver sin glasmontre", "ref:whc": "697", "type": "runic stone", "whc:criteria": "(iii)", "whc:inscription_date": "1994", "wikidata": "Q723999", "wikipedia": "da:Jellingstenene"}}, "geometry": {"type": "Point", "coordinates": [9.4196201, 55.7565694]}}, {"type": "Feature", "properties": {"type": "node", "id": 668473652, "tags": {"name": "\u00d8kolariet", "opening_hours": "PH,Mo-Su 10:00-16:00", "phone": "+45 7681 2060", "tourism": "museum", "website": "http://www.okolariet.dk/", "wikidata": "Q12341960", "wikipedia": "da:\u00d8kolariet"}}, "geometry": {"type": "Point", "coordinates": [9.5348303, 55.7069718]}}, {"type": "Feature", "properties": {"type": "node", "id": 1800257097, "tags": {"description": "CLAY Keramikmuseum Danmark i Middelfart er nordens eneste specialmuseum for nutidig dansk og international keramisk kunst, kunsth\u00e5ndv\u00e6rk og design. Med sin beliggenhed p\u00e5 kanten af Lilleb\u00e6lt er det ogs\u00e5 et af landets smukkeste museer.", "fvst:navnelbnr": "80211", "name": "CLAY Keramikmuseum Danmark", "opening_hours": "10:00-17:00; We 10:00-20:00; Mo off; Apr-Oct We 10:00-20:00; Apr-Oct Mo 10:00-17:00", "tourism": "museum", "website": "https://claymuseum.dk/", "wikidata": "Q12307237", "wikipedia": "da:CLAY Keramikmuseum Danmark"}}, "geometry": {"type": "Point", "coordinates": [9.7202286, 55.5078901]}}, {"type": "Feature", "properties": {"type": "node", "id": 4408094084, "tags": {"alt_name": "Byarkivet", "name": "Middelfart Museum", "tourism": "museum", "website": "https://www.middelfart-museum.dk/"}}, "geometry": {"type": "Point", "coordinates": [9.728231, 55.5062329]}}, {"type": "Feature", "properties": {"type": "node", "id": 6620398862, "tags": {"name": "Middelfart Museum", "opening_hours": "Tu-Sa 12:00-16:00", "tourism": "museum", "wheelchair": "no"}}, "geometry": {"type": "Point", "coordinates": [9.7270872, 55.5067337]}}, {"type": "Feature", "properties": {"type": "node", "id": 2286622235, "tags": {"name": "Strib Automobilmuseum", "tourism": "museum"}}, "geometry": {"type": "Point", "coordinates": [9.7781327, 55.5305264]}}, {"type": "Feature", "properties": {"type": "node", "id": 1262024508, "tags": {"name": "Bunkermuseet", "tourism": "museum"}}, "geometry": {"type": "Point", "coordinates": [9.7619363, 55.5701988]}}, {"type": "Feature", "properties": {"type": "node", "id": 3025508102, "tags": {"name": "Havnemuseum", "tourism": "museum"}}, "geometry": {"type": "Point", "coordinates": [10.0157292, 55.7150576]}}, {"type": "Feature", "properties": {"type": "node", "id": 354060387, "tags": {"name": "Danmarks Ferguson Museum", "tourism": "museum", "website": "https://fergusonmuseum.dk/", "wheelchair": "yes", "wikidata": "Q93588102", "wikipedia": "da:Danmarks Ferguson Museum"}}, "geometry": {"type": "Point", "coordinates": [9.9755184, 55.7925056]}}, {"type": "Feature", "properties": {"type": "node", "id": 828203778, "tags": {"fvst:navnelbnr": "42233", "name": "Dejbjerg Jernalder", "tourism": "museum", "wikidata": "Q25476889", "wikipedia": "da:Dejbjerg Jernalder"}}, "geometry": {"type": "Point", "coordinates": [8.4773904, 56.0047056]}}, {"type": "Feature", "properties": {"type": "node", "id": 1895875345, "tags": {"fvst:navnelbnr": "40523", "name": "Bundsb\u00e6k M\u00f8lle", "tourism": "museum", "wikidata": "Q26219921"}}, "geometry": {"type": "Point", "coordinates": [8.4788062, 56.0067519]}}, {"type": "Feature", "properties": {"type": "node", "id": 2911674353, "tags": {"name": "Videb\u00e6k Egnsmuseum", "tourism": "museum", "website": "http://www.vemu.dk/"}}, "geometry": {"type": "Point", "coordinates": [8.6898099, 56.0848816]}}, {"type": "Feature", "properties": {"type": "node", "id": 4454194509, "tags": {"fvst:navnelbnr": "29091", "name": "Tekstilmuseet", "opening_hours": "11:00-16:00; Mo off", "phone": "+45 96261900", "tourism": "museum", "website": "https://museummidtjylland.dk/"}}, "geometry": {"type": "Point", "coordinates": [8.963265, 56.136284]}}, {"type": "Feature", "properties": {"type": "node", "id": 1844515288, "tags": {"name": "Auto Galleriet", "tourism": "museum", "website": "http://www.autogalleriet.dk/"}}, "geometry": {"type": "Point", "coordinates": [9.0457014, 56.132777]}}, {"type": "Feature", "properties": {"type": "node", "id": 1916914504, "tags": {"name": "Pr\u00e6stbjerg Naturcenter - Udstilling", "note": "I hovedbygningen finder du en udstilling med information om naturen og kulturen i omr\u00e5det.\n\nUdstillingen er \u00e5ben fra april til september fra kl. 8.00-21.00 og fra oktober til marts fra kl. 8.00-19.00.", "opening_hours": "Apr-Sep 08:00-21:00;Oct-Mar 08:00-19:00", "operator": "Herning Kommune", "tourism": "museum", "website": "https://natur.herning.dk/brug-og-oplev-naturen/naturskoler-og-centre/praestbjerg-naturcenter"}}, "geometry": {"type": "Point", "coordinates": [8.6199877, 56.2305249]}}, {"type": "Feature", "properties": {"type": "node", "id": 3400678708, "tags": {"name": "Jens Nielsen & Olivia Holm-M\u00f8ller Museet", "tourism": "museum"}}, "geometry": {"type": "Point", "coordinates": [8.611169, 56.3642296]}}, {"type": "Feature", "properties": {"type": "node", "id": 371638948, "tags": {"description": "Danmarks \u00e6ldste kalkmine", "fee": "y", "fvst:navnelbnr": "576066", "name": "Daugbjerg Kalkgruber", "natural": "cave_entrance", "opening_hours": "Jun 10:00-16:00; Jul 1-Aug 15 10:00-18:00; Aug 16-Oct 31 11:00-16:00", "phone": "+45 97548333", "tourism": "museum", "website": "https://daugbjergkalkgruber.dk/", "wikidata": "Q12307795", "wikipedia": "da:Daugbjerg Kalkgruber"}}, "geometry": {"type": "Point", "coordinates": [9.1423522, 56.442623]}}, {"type": "Feature", "properties": {"type": "node", "id": 2694776277, "tags": {"name": "Bredskabs bunker fra koldkrigs tiden", "note": "\u00c5ben 3 til 4 gange om \u00e5ret Kontakt Museum Silkeborg", "tourism": "museum"}}, "geometry": {"type": "Point", "coordinates": [9.5561751, 56.1611735]}}, {"type": "Feature", "properties": {"type": "node", "id": 2959919953, "tags": {"name": "Papirmuseet", "operator": "Museum Silkeborg", "tourism": "museum", "website": "http://www.museumsilkeborg.dk/velkommen-til-papirmuseet"}}, "geometry": {"type": "Point", "coordinates": [9.5553552, 56.1706292]}}, {"type": "Feature", "properties": {"type": "node", "id": 458664113, "tags": {"alt_name": "Slottet", "name": "F\u00e6ngslet", "tourism": "museum", "website": "https://faengslet.dk/", "wikidata": "Q10986155", "wikipedia": "da:Horsens Statsf\u00e6ngsel"}}, "geometry": {"type": "Point", "coordinates": [9.8364461, 55.8743021]}}, {"type": "Feature", "properties": {"type": "node", "id": 392373824, "tags": {"alt_name": "Industrimuseet", "name": "Danmarks Industrimuseum", "tourism": "museum", "website": "http://www.industrimuseet.dk/", "wikidata": "Q1270352", "wikipedia": "da:Danmarks Industrimuseum"}}, "geometry": {"type": "Point", "coordinates": [9.8611719, 55.8607077]}}, {"type": "Feature", "properties": {"type": "node", "id": 3131475576, "tags": {"name": "Nimbus Museet", "tourism": "museum"}}, "geometry": {"type": "Point", "coordinates": [9.8618012, 55.8599149]}}, {"type": "Feature", "properties": {"type": "node", "id": 1917309369, "tags": {"name": "Klosterm\u00f8lle", "tourism": "museum", "wikidata": "Q6421395", "wikipedia": "da:Klosterm\u00f8lle"}}, "geometry": {"type": "Point", "coordinates": [9.6937411, 56.0399123]}}, {"type": "Feature", "properties": {"type": "node", "id": 1280605798, "tags": {"name": "Emborg / \u00d8m Kloster museum", "tourism": "museum", "wikidata": "Q12342013", "wikipedia": "da:\u00d8m Kloster museum"}}, "geometry": {"type": "Point", "coordinates": [9.7499696, 56.0525029]}}, {"type": "Feature", "properties": {"type": "node", "id": 1547974933, "tags": {"name": "Tr\u00e6skomuseum", "tourism": "museum"}}, "geometry": {"type": "Point", "coordinates": [9.7018259, 56.0760076]}}, {"type": "Feature", "properties": {"type": "node", "id": 3402667622, "tags": {"name": "Skanderborg Frihedsmuseum", "tourism": "museum"}}, "geometry": {"type": "Point", "coordinates": [9.9181113, 56.0214983]}}, {"type": "Feature", "properties": {"type": "node", "id": 7357776495, "tags": {"alt_name": "M\u00f8llen Vest", "fvst:navnelbnr": "714894", "name": "Vesterm\u00f8lle Museum", "ref:DK:cvr": "36700793", "ref:DK:cvr:pnummer": "1020281800", "tourism": "museum", "website": "https://www.vestermollelaug.dk/"}}, "geometry": {"type": "Point", "coordinates": [9.9584138, 56.0284759]}}, {"type": "Feature", "properties": {"type": "node", "id": 7141932411, "tags": {"name": "Jysk Brandmuseum", "phone": "+45 22342225", "tourism": "museum", "website": "https://jyskbrandmuseum.dk/"}}, "geometry": {"type": "Point", "coordinates": [9.4312263, 56.2929084]}}, {"type": "Feature", "properties": {"type": "node", "id": 6848831490, "tags": {"alt_name": "Bogtrykmuseet Viborg", "name": "Vingaards Officin", "tourism": "museum", "website": "http://www.vingaards-officin.dk/", "wikidata": "Q69585624"}}, "geometry": {"type": "Point", "coordinates": [9.3764395, 56.4645769]}}, {"type": "Feature", "properties": {"type": "node", "id": 2111346261, "tags": {"name": "Viborg Museum", "opening_hours": "Aug 16-Jun 30 Tu-Fr 13:00-16:00,Sa-Su,PH 11:00-17:00; Jul 1-Aug 15 Tu-Su 11:00-17:00", "source": "www.viborgmuseum.dk", "tourism": "museum"}}, "geometry": {"type": "Point", "coordinates": [9.4083338, 56.450125]}}, {"type": "Feature", "properties": {"type": "node", "id": 5782326021, "tags": {"name": "Lokalhistorisk Arkiv for tidligere Gjern kommune", "opening_hours": "Mo 15:00-17:00; Th 19:00-21:00", "tourism": "museum", "website": "http://gjernarkivet.dk/"}}, "geometry": {"type": "Point", "coordinates": [9.7430866, 56.2245252]}}, {"type": "Feature", "properties": {"type": "node", "id": 494614188, "tags": {"name": "Jysk Automobilmuseum", "tourism": "museum", "wikidata": "Q12320651", "wikipedia": "da:Jysk Automobilmuseum"}}, "geometry": {"type": "Point", "coordinates": [9.7425971, 56.2268729]}}, {"type": "Feature", "properties": {"type": "node", "id": 765835567, "tags": {"name": "Socialmuseum", "tourism": "museum"}}, "geometry": {"type": "Point", "coordinates": [10.0399037, 56.2470256]}}, {"type": "Feature", "properties": {"type": "node", "id": 4295287317, "tags": {"fvst:navnelbnr": "534793", "name": "Retroworld", "opening_hours": "Th 15:00-21:00", "phone": "+45 40447540", "tourism": "museum", "website": "http://retroworld.dk/"}}, "geometry": {"type": "Point", "coordinates": [9.991082, 56.351059]}}, {"type": "Feature", "properties": {"type": "node", "id": 2911722005, "tags": {"name": "Gaia Museum Outsider Art", "phone": "+45 89 15 83 38", "tourism": "museum", "website": "http://www.gaiamuseum.dk/"}}, "geometry": {"type": "Point", "coordinates": [10.0459189, 56.4618095]}}, {"type": "Feature", "properties": {"type": "node", "id": 4951472638, "tags": {"bike_friend": "yes", "name": "S\u00f8bygaard", "tourism": "museum"}}, "geometry": {"type": "Point", "coordinates": [10.282693, 54.9197494]}}, {"type": "Feature", "properties": {"type": "node", "id": 7264673662, "tags": {"name": "\u00c6r\u00f8 Museum", "tourism": "museum"}}, "geometry": {"type": "Point", "coordinates": [10.4122798, 54.8888877]}}, {"type": "Feature", "properties": {"type": "node", "id": 8025903873, "tags": {"contact:phone": "+45 8155 5972", "museum": "bottle_ships", "name": "FlaskePeters Samling", "phone": "61 75 49 80", "tourism": "museum", "website": "http://www.flaskepeters-samling.dk/"}}, "geometry": {"type": "Point", "coordinates": [10.4119837, 54.8896689]}}, {"type": "Feature", "properties": {"type": "node", "id": 5039784173, "tags": {"fee": "no", "fvst:navnelbnr": "700535", "name": "B\u00f8rnemuseet p\u00e5 \u00c6r\u00f8", "opening_hours": "week 26-31 10:00-16:00; We, Th off", "phone": "+45 26111555", "tourism": "museum", "website": "http://www.aeroeboernemuseum.dk/"}}, "geometry": {"type": "Point", "coordinates": [10.414407, 54.885462]}}, {"type": "Feature", "properties": {"type": "node", "id": 5161086658, "tags": {"email": "fiskeriets.hus@gmail.com", "fee": "yes", "name": "Fiskeriets hus", "opening_hours": "Apr-Oct Mo-Su 10:00-17:00", "tourism": "museum", "wheelchair": "yes"}}, "geometry": {"type": "Point", "coordinates": [10.672351, 54.7503353]}}, {"type": "Feature", "properties": {"type": "node", "id": 1583966120, "tags": {"fixme": "Museet r\u00e5der over hele 5 udstillingsbygninger + administrationen i Prinsensgade 5, men det er ikke til udfra hjemmesiden at gennemskue hvilke bygninger", "museum": "maritime", "name": "Marstal S\u00f8fartsmuseum", "tourism": "museum", "website": "http://www.marstal-maritime-museum.dk/", "wikidata": "Q12326214", "wikipedia": "da:Marstal S\u00f8fartsmuseum"}}, "geometry": {"type": "Point", "coordinates": [10.5211578, 54.854292]}}, {"type": "Feature", "properties": {"type": "node", "id": 1470585373, "tags": {"name": "Langelands Museum", "tourism": "museum"}}, "geometry": {"type": "Point", "coordinates": [10.7136745, 54.9357957]}}, {"type": "Feature", "properties": {"type": "node", "id": 6048938827, "tags": {"name": "Rudk\u00f8bing Byhistorisk Arkiv", "tourism": "museum"}}, "geometry": {"type": "Point", "coordinates": [10.7086804, 54.9384956]}}, {"type": "Feature", "properties": {"type": "node", "id": 3976391418, "tags": {"man_made": "windmill", "name": "Kappel Stubm\u00f8lle", "start_date": "1730", "tourism": "museum", "website": "http://www.kappelstubml.dk/", "wikidata": "Q16323832", "wikipedia": "da:Kappel M\u00f8lle", "windmill:type": "post", "windmill:vanes": "yes"}}, "geometry": {"type": "Point", "coordinates": [11.0362324, 54.7740374]}}, {"type": "Feature", "properties": {"type": "node", "id": 393162740, "tags": {"name": "Marielyst Sportscars", "tourism": "museum"}}, "geometry": {"type": "Point", "coordinates": [11.9446902, 54.7041725]}}, {"type": "Feature", "properties": {"type": "node", "id": 686699266, "tags": {"alt_name": "Brandmuseet", "name": "Nyk\u00f8bing F Brandmuseum", "opening_hours": "May-Sep Mo-Fr 10:00-15:00,Sa 10:00-12:00", "tourism": "museum", "website": "http://www.brandmuseet.dk/", "wikidata": "Q16323256", "wikipedia": "da:Brandmuseet"}}, "geometry": {"type": "Point", "coordinates": [11.8709906, 54.7632834]}}, {"type": "Feature", "properties": {"type": "node", "id": 2601331093, "tags": {"alt_name": "Fris\u00f8rmuseet", "name": "Nyk\u00f8bing Falster Fris\u00f8rmuseum", "opening_hours": "May-Sep Mo-Fr 10:00-15:00,Sa 10:00-12:00", "phone": "+45 2175 5964", "tourism": "museum", "website": "http://www.frisoermuseet.dk/", "wikidata": "Q12329456", "wikipedia": "da:Nyk\u00f8bing Falster Fris\u00f8rmuseum"}}, "geometry": {"type": "Point", "coordinates": [11.8708833, 54.7634397]}}, {"type": "Feature", "properties": {"type": "node", "id": 686696673, "tags": {"name": "Falsters Minder", "tourism": "museum", "website": "https://www.aabne-samlinger.dk/falsters-minder/falsters-minder/", "wikidata": "Q5432807", "wikipedia": "da:Falsters Minder"}}, "geometry": {"type": "Point", "coordinates": [11.8667129, 54.7677386]}}, {"type": "Feature", "properties": {"type": "node", "id": 686698112, "tags": {"fvst:navnelbnr": "86507", "name": "Den Gamle K\u00f8bmandshandel", "tourism": "museum"}}, "geometry": {"type": "Point", "coordinates": [11.8671696, 54.7671433]}}, {"type": "Feature", "properties": {"type": "node", "id": 4898013853, "tags": {"name": "Stubbek\u00f8bing Museum", "tourism": "museum", "wikidata": "Q16324615", "wikipedia": "da:Stubbek\u00f8bing Museum"}}, "geometry": {"type": "Point", "coordinates": [12.0382181, 54.8900991]}}, {"type": "Feature", "properties": {"type": "node", "id": 610966529, "tags": {"name": "Ly\u00f8 Skr\u00f8nemuseum", "opening_hours": "Jun 15-Aug 15 11:00-17:00", "tourism": "museum"}}, "geometry": {"type": "Point", "coordinates": [10.154525, 55.0445553]}}, {"type": "Feature", "properties": {"type": "node", "id": 2450551429, "tags": {"name": "\u00d8havsmuseet", "tourism": "museum", "website": "https://ohavsmuseet.dk/", "wikidata": "Q12344327"}}, "geometry": {"type": "Point", "coordinates": [10.240509, 55.0954115]}}, {"type": "Feature", "properties": {"type": "node", "id": 5939186049, "tags": {"name": "Arresten", "tourism": "museum"}}, "geometry": {"type": "Point", "coordinates": [10.2418724, 55.0951024]}}, {"type": "Feature", "properties": {"type": "node", "id": 3548316312, "tags": {"fvst:navnelbnr": "81465", "museum": "art", "name": "Faaborg Museum for Fynsk Malerkunst", "phone": "+45 62610645", "tourism": "museum", "website": "https://www.faaborgmuseum.dk/", "wikidata": "Q12310929", "wikipedia": "da:Faaborg Museum"}}, "geometry": {"type": "Point", "coordinates": [10.2470261, 55.0945649]}}, {"type": "Feature", "properties": {"type": "node", "id": 5939221653, "tags": {"bike_friend": "yes", "name": "\u00d8havsmuseet - Stationen", "tourism": "museum"}}, "geometry": {"type": "Point", "coordinates": [10.245156, 55.0938147]}}, {"type": "Feature", "properties": {"type": "node", "id": 1082516689, "tags": {"name": "Gammel Elmegaard", "tourism": "museum", "website": "http://www.gammelelmegaard.dk"}}, "geometry": {"type": "Point", "coordinates": [10.4211678, 54.9704952]}}, {"type": "Feature", "properties": {"type": "node", "id": 4462466477, "tags": {"bike_friend": "yes", "museum": "flax_weawing", "name": "H\u00f8rv\u00e6vsmuseet", "opening_hours": "09:00-12:00; Sa,Su,PH off", "phone": "+45 64722885", "tourism": "museum", "website": "http://hvm-krengerup.dk/"}}, "geometry": {"type": "Point", "coordinates": [10.0925252, 55.3122968]}}, {"type": "Feature", "properties": {"type": "node", "id": 2683302591, "tags": {"fee": "yes", "name": "H\u00f8rv\u00e6vsmuseet p\u00e5 Krengerup", "name:en": "Flax Weawing Museum at Krengerup Manor", "opening_hours": "Mo-Fr 09:00-12:00", "phone": "+45 64722885", "tourism": "museum"}}, "geometry": {"type": "Point", "coordinates": [10.1164816, 55.3097066]}}, {"type": "Feature", "properties": {"type": "node", "id": 2683302592, "tags": {"name": "Skodamuseet", "tourism": "museum"}}, "geometry": {"type": "Point", "coordinates": [10.1169161, 55.3094929]}}, {"type": "Feature", "properties": {"type": "node", "id": 256138383, "tags": {"name": "T\u00e5singe Museum", "tourism": "museum"}}, "geometry": {"type": "Point", "coordinates": [10.6090792, 55.0237804]}}, {"type": "Feature", "properties": {"type": "node", "id": 2894472028, "tags": {"tourism": "museum"}}, "geometry": {"type": "Point", "coordinates": [10.6555531, 55.0220862]}}, {"type": "Feature", "properties": {"type": "node", "id": 2450307339, "tags": {"entrance": "yes", "name": "Souvenariet", "tourism": "museum", "website": "http://www.souvenariet.dk/"}}, "geometry": {"type": "Point", "coordinates": [10.854957, 55.0020381]}}, {"type": "Feature", "properties": {"type": "node", "id": 3684066542, "tags": {"name": "bogbylangeland.dk", "note": "Collection of books", "tourism": "museum", "website": "http://bogbylangeland.dk/"}}, "geometry": {"type": "Point", "coordinates": [10.8850321, 55.0279606]}}, {"type": "Feature", "properties": {"type": "node", "id": 3799035938, "tags": {"fvst:navnelbnr": "80636344", "name": "Pakhuset Lundeborg", "tourism": "museum"}}, "geometry": {"type": "Point", "coordinates": [10.7852084, 55.1396435]}}, {"type": "Feature", "properties": {"type": "node", "id": 3765179835, "tags": {"name": "Modeudstilling", "tourism": "museum", "wheelchair": "no"}}, "geometry": {"type": "Point", "coordinates": [10.4894089, 55.1759454]}}, {"type": "Feature", "properties": {"type": "node", "id": 3765180565, "tags": {"name": "Den Gamle K\u00f8bmandsbutik", "tourism": "museum", "wheelchair": "yes"}}, "geometry": {"type": "Point", "coordinates": [10.4870098, 55.177093]}}, {"type": "Feature", "properties": {"type": "node", "id": 3765180566, "tags": {"name": "Draculas Krypt", "tourism": "museum", "wheelchair": "yes"}}, "geometry": {"type": "Point", "coordinates": [10.4865786, 55.1771594]}}, {"type": "Feature", "properties": {"type": "node", "id": 3765180567, "tags": {"name": "\u00c5bne Magasiner", "tourism": "museum", "wheelchair": "yes"}}, "geometry": {"type": "Point", "coordinates": [10.486313, 55.1768627]}}, {"type": "Feature", "properties": {"type": "node", "id": 320034052, "tags": {"name": "Europ\u00e6isk Automobilmuseum", "tourism": "museum", "website": "http://automuseum.dk/", "wikidata": "Q12310727"}}, "geometry": {"type": "Point", "coordinates": [10.5031153, 55.373968]}}, {"type": "Feature", "properties": {"type": "node", "id": 6068883767, "tags": {"description": "Rocks and fossils", "museum": "rocks", "museum_type": "municipal", "name": "Davinde Stenmuseum", "operator": "Odense;F\u00e5borg- Midtfyn", "tourism": "museum", "website": "http://www.davindestenmuseum.dk/"}}, "geometry": {"type": "Point", "coordinates": [10.550662, 55.33066]}}, {"type": "Feature", "properties": {"type": "node", "id": 1794302133, "tags": {"name": "Slagmarken ved Nyborg - Danmark og Sverige 1659 /v. Nyborg Slot", "tourism": "museum"}}, "geometry": {"type": "Point", "coordinates": [10.7651232, 55.3209219]}}, {"type": "Feature", "properties": {"type": "node", "id": 4338212620, "tags": {"fvst:navnelbnr": "722023", "name": "Borgmesterg\u00e5rden", "tourism": "museum", "website": "http://www.ostfynsmuseer.dk/museer/borgmestergaarden/", "wikidata": "Q18199273", "wikipedia": "da:Borgmesterg\u00e5rden (Nyborg)"}}, "geometry": {"type": "Point", "coordinates": [10.7885194, 55.3115581]}}, {"type": "Feature", "properties": {"type": "node", "id": 3628507938, "tags": {"name": "Tidens Samling", "tourism": "museum", "website": "https://tidenssamling.dk/", "wikidata": "Q12343168", "wikipedia": "da:Tidens Samling"}}, "geometry": {"type": "Point", "coordinates": [10.3810026, 55.3948209]}}, {"type": "Feature", "properties": {"type": "node", "id": 1083676887, "tags": {"name": "B\u00f8rnekulturhuset Fyrt\u00f8jet", "name:ko": "\ubc14\ub974\ub124\ucfe8\ud22c\ub974\ud6c4\uc14b \ud4cc\ub974\ud0c0\uc61b(\ubc15\ubb3c\uad00)", "tourism": "museum", "website": "http://www.fyrtoejet.com/html/index.htm"}}, "geometry": {"type": "Point", "coordinates": [10.3937405, 55.3982616]}}, {"type": "Feature", "properties": {"type": "node", "id": 3846401819, "tags": {"name": "Kramboden", "operator": "Knud Hage", "shop": "antiques", "tourism": "museum"}}, "geometry": {"type": "Point", "coordinates": [10.3933583, 55.397171]}}, {"type": "Feature", "properties": {"type": "node", "id": 6780817187, "tags": {"addr:housenumber": "11", "addr:street": "Claus Bergs Gade", "name": "H. C. Andersen Museum", "tourism": "museum", "website": "https://hcandersensodense.dk/h-c-andersen-museum/"}}, "geometry": {"type": "Point", "coordinates": [10.3919047, 55.3995815]}}, {"type": "Feature", "properties": {"type": "node", "id": 1091069718, "tags": {"name": "Fyns Milit\u00e6rhistorisk Samling", "tourism": "museum"}}, "geometry": {"type": "Point", "coordinates": [10.4082974, 55.3846038]}}, {"type": "Feature", "properties": {"type": "node", "id": 450940030, "tags": {"name": "Endelave Museum", "tourism": "museum"}}, "geometry": {"type": "Point", "coordinates": [10.272073, 55.7579638]}}, {"type": "Feature", "properties": {"type": "node", "id": 2680994516, "tags": {"name": "Ladbyskibet", "tourism": "museum", "wheelchair": "limited", "wikidata": "Q1799877", "wikipedia": "da:Ladbyskibet"}}, "geometry": {"type": "Point", "coordinates": [10.6151534, 55.4452616]}}, {"type": "Feature", "properties": {"type": "node", "id": 2987610433, "tags": {"name": "Fjord & B\u00e6lt", "toilets:wheelchair": "yes", "tourism": "museum", "website": "http://www.fjord-baelt.dk/", "wheelchair": "yes"}}, "geometry": {"type": "Point", "coordinates": [10.6614046, 55.4501734]}}, {"type": "Feature", "properties": {"type": "node", "id": 3828564957, "tags": {"name": "Museumshavn", "tourism": "museum"}}, "geometry": {"type": "Point", "coordinates": [10.6625716, 55.4490786]}}, {"type": "Feature", "properties": {"type": "node", "id": 3758786351, "tags": {"name": "Hindsholm Egnsmuseum", "tourism": "museum", "website": "http://www.hindsholm.com/Hindsholm_egnsmuseum.htm", "wikidata": "Q28167913", "wikipedia": "da:Hindsholm Egnsmuseum"}}, "geometry": {"type": "Point", "coordinates": [10.660969, 55.5418546]}}, {"type": "Feature", "properties": {"type": "node", "id": 2821178659, "tags": {"name": "Isb\u00e5dsmuseet", "tourism": "museum", "website": "http://www.byogoverfartsmuseet.dk/video/video1/isbaad.htm"}}, "geometry": {"type": "Point", "coordinates": [11.0948886, 55.3485473]}}, {"type": "Feature", "properties": {"type": "node", "id": 2064980344, "tags": {"name": "Historiestalden", "source": "local knowledge", "tourism": "museum", "website": "http://www.agersoe-moelle.dk/index-filer/Page434.htm"}}, "geometry": {"type": "Point", "coordinates": [11.1895357, 55.2132211]}}, {"type": "Feature", "properties": {"type": "node", "id": 5379263822, "tags": {"name": "By og Overfartsmuseet", "tourism": "museum", "website": "http://www.byogoverfartsmuseet.dk/", "wikidata": "Q20726509", "wikipedia": "da:By og Overfartsmuseet"}}, "geometry": {"type": "Point", "coordinates": [11.1370844, 55.3341014]}}, {"type": "Feature", "properties": {"type": "node", "id": 4922789395, "tags": {"fee": "no", "name": "Skovsgaard M\u00f8lle- og Bagerimuseum", "opening_hours": "\"most sundays in the summer and school holidays\"", "phone": "+45 57849414", "tourism": "museum", "website": "https://skovsgaardmoelleogbagerimuseum.wordpress.com/"}}, "geometry": {"type": "Point", "coordinates": [11.483769, 55.3427957]}}, {"type": "Feature", "properties": {"type": "node", "id": 2171576666, "tags": {"name": "Kongsgaarden", "tourism": "museum"}}, "geometry": {"type": "Point", "coordinates": [11.6232504, 55.3812013]}}, {"type": "Feature", "properties": {"type": "node", "id": 3476850865, "tags": {"name": "Reers\u00f8 Amerikanerbil Museum", "opening_hours": "Apr-Sep Sa-Su 13:30-17:00; \"school holidays 13:30-17:00\"", "phone": "+45 5885 9707", "tourism": "museum", "website": "http://mikael83.wix.com/reersoeamerikaner"}}, "geometry": {"type": "Point", "coordinates": [11.1109689, 55.5260601]}}, {"type": "Feature", "properties": {"type": "node", "id": 3476794800, "tags": {"name": "Landbrugsmuseet Fl\u00f8jg\u00e5rden", "opening_hours": "May-Oct We 10:00-16:00, Sa[1],Su[1] 10:00-16:00", "phone": "+45 58859296", "tourism": "museum", "website": "http://www.flojgaarden-landbrugsmuseet.dk/i", "year": "1989"}}, "geometry": {"type": "Point", "coordinates": [11.1465187, 55.5288485]}}, {"type": "Feature", "properties": {"type": "node", "id": 2608880580, "tags": {"name": "Malerg\u00e5rden", "phone": "+45 59652423", "tourism": "museum", "website": "http://www.vestmuseum.dk/Default.aspx?AreaID=10"}}, "geometry": {"type": "Point", "coordinates": [11.6229064, 55.789583]}}, {"type": "Feature", "properties": {"type": "node", "id": 7925198709, "tags": {"description": "kombineret kunstudstilling og \u00e6gmuseum i Holb\u00e6k", "name": "\u00c6glageret", "tourism": "museum", "wikidata": "Q12344307", "wikipedia": "da:\u00c6glageret"}}, "geometry": {"type": "Point", "coordinates": [11.7076506, 55.7179119]}}, {"type": "Feature", "properties": {"type": "node", "id": 4545429400, "tags": {"name": "Thun\u00f8 Museum", "tourism": "museum"}}, "geometry": {"type": "Point", "coordinates": [10.4436623, 55.9488303]}}, {"type": "Feature", "properties": {"type": "node", "id": 7313917570, "tags": {"email": "vibylok@gmail.com", "museum": "history", "name": "Viby Lokalhistoriske Arkiv", "opening_hours": "Mandag 15:30-17:30", "phone": "+45 89 40 95 65", "tourism": "museum"}}, "geometry": {"type": "Point", "coordinates": [10.1645244, 56.1304173]}}, {"type": "Feature", "properties": {"type": "node", "id": 4460697860, "tags": {"fee": "yes", "museum": "history", "name": "Vikingemuseet", "name:en": "The Viking Museum", "opening_hours": "Tu, Fr-Su 10:00-17:00; We-Th 10:00-21:00", "tourism": "museum", "website": "https://www.moesgaardmuseum.dk/", "wikidata": "Q4992847"}}, "geometry": {"type": "Point", "coordinates": [10.2091, 56.15669]}}, {"type": "Feature", "properties": {"type": "node", "id": 6704331499, "tags": {"name": "Museum Ovartaci", "note": "Dette er if\u00f8lge wikipedia midlertidige lokaler og planen skulle v\u00e6re at der flyttes igen i 2021", "opening_hours": "10:00-16:00; Sa,Su,PH 12:00-16:00", "tourism": "museum", "website": "http://www.ovartaci.dk/", "wikidata": "Q12327935", "wikipedia": "da:Museum Ovartaci"}}, "geometry": {"type": "Point", "coordinates": [10.1941551, 56.1725532]}}, {"type": "Feature", "properties": {"type": "node", "id": 3404449352, "tags": {"name": "Sams\u00f8 Museum", "phone": "+45 86592150", "tourism": "museum", "website": "https://www.samsoemuseum.dk/", "wikidata": "Q28836112", "wikipedia": "da:Sams\u00f8 Museum"}}, "geometry": {"type": "Point", "coordinates": [10.5914722, 55.8341135]}}, {"type": "Feature", "properties": {"type": "node", "id": 5935366464, "tags": {"name": "The Morgan Garage", "subject": "cars", "tourism": "museum", "website": "https://www.themorgangarage.com/"}}, "geometry": {"type": "Point", "coordinates": [10.6448003, 55.8642483]}}, {"type": "Feature", "properties": {"type": "node", "id": 433632020, "tags": {"museum": "military", "name": "Milit\u00e6rhistorisk Museum", "note": "Location inaccurate", "tourism": "museum"}}, "geometry": {"type": "Point", "coordinates": [10.6768185, 56.1948052]}}, {"type": "Feature", "properties": {"type": "node", "id": 5693823189, "tags": {"fee": "no", "museum": "local", "name": "Farverg\u00e5rden", "opening_hours": "Jun-Aug Tu-Su 10:00-16:00", "operator": "Museum \u00d8stjylland", "tourism": "museum", "website": "https://museumoj.randers.dk/besoeg/%C3%A5bningstider-og-adresser/farvergaarden-i-ebeltoft/"}}, "geometry": {"type": "Point", "coordinates": [10.6782428, 56.1992127]}}, {"type": "Feature", "properties": {"type": "node", "id": 450538888, "tags": {"name": "Den Gamle Station", "tourism": "museum", "url": "http://www.dffd.dk/"}}, "geometry": {"type": "Point", "coordinates": [10.3204018, 56.4640362]}}, {"type": "Feature", "properties": {"type": "node", "id": 2911355495, "tags": {"alt_name": "Det Gr\u00f8nne Museum", "fvst:name": "Dansk Landbrugsmuseum Gl. Estrup", "fvst:navnelbnr": "568518", "name": "Dansk Landbrugsmuseum", "phone": "+45 86 48 34 44", "tourism": "museum", "website": "https://detgroennemuseum.dk", "wikidata": "Q12307483", "wikipedia": "da:Dansk Landbrugsmuseum"}}, "geometry": {"type": "Point", "coordinates": [10.3421689, 56.4382525]}}, {"type": "Feature", "properties": {"type": "node", "id": 6867228614, "tags": {"name": "Sejer\u00f8 Kulturhus og Museum", "tourism": "museum"}}, "geometry": {"type": "Point", "coordinates": [11.1437178, 55.8830749]}}, {"type": "Feature", "properties": {"type": "node", "id": 6853918519, "tags": {"name": "Udstilling Ulkerup Skovlandsby", "opening_hours": "24/7", "operator": "Naturstyrelsen", "tourism": "museum"}}, "geometry": {"type": "Point", "coordinates": [11.6572827, 55.8682068]}}, {"type": "Feature", "properties": {"type": "node", "id": 5920292629, "tags": {"name": "Odsherreds Museum", "tourism": "museum", "website": "http://www.vestmuseum.dk"}}, "geometry": {"type": "Point", "coordinates": [11.667105, 55.9018779]}}, {"type": "Feature", "properties": {"type": "node", "id": 4346655286, "tags": {"name": "N\u00e6stved Automobilmuseum", "phone": "+45 40192345", "source": "Bing", "tourism": "museum", "website": "http://www.naestvedautomobilmuseum.dk/"}}, "geometry": {"type": "Point", "coordinates": [11.7524906, 55.2277692]}}, {"type": "Feature", "properties": {"type": "node", "id": 4543813108, "tags": {"alt_name": "GHRVPK", "name": "Gardehusarregimentets Veteran Panser- og K\u00f8ret\u00f8jsforenings", "tourism": "museum", "website": "https://www.nyghrvpk.dk/"}}, "geometry": {"type": "Point", "coordinates": [11.8036749, 55.2325267]}}, {"type": "Feature", "properties": {"type": "node", "id": 4082512413, "tags": {"name": "Geomuseum Faxe", "tourism": "museum", "wikidata": "Q12313660", "wikipedia": "da:Geomuseum Faxe"}}, "geometry": {"type": "Point", "coordinates": [12.1231073, 55.2556562]}}, {"type": "Feature", "properties": {"type": "node", "id": 2334260280, "tags": {"name": "Haslev Museum", "phone": "+45 56502806", "tourism": "museum", "website": "http://live.www.kalklandet.dk/attraktioner/flere-attraktioner/haslev-museum"}}, "geometry": {"type": "Point", "coordinates": [11.9624914, 55.3256541]}}, {"type": "Feature", "properties": {"type": "node", "id": 27135183, "tags": {"name": "Nyord Lodseri", "name:de": "Lotsenh\u00e4uschen", "tourism": "museum"}}, "geometry": {"type": "Point", "coordinates": [12.1918284, 55.0424939]}}, {"type": "Feature", "properties": {"type": "node", "id": 2402388885, "tags": {"name": "Roskilde Museum - Tadre M\u00f8lle", "tourism": "museum"}}, "geometry": {"type": "Point", "coordinates": [11.8130789, 55.6146442]}}, {"type": "Feature", "properties": {"type": "node", "id": 842558207, "tags": {"name": "KTAS phone museum", "tourism": "museum"}}, "geometry": {"type": "Point", "coordinates": [11.7481193, 55.6941072]}}, {"type": "Feature", "properties": {"type": "node", "id": 524047189, "tags": {"name": "K\u00f8bmandsg\u00e5rden", "tourism": "museum"}}, "geometry": {"type": "Point", "coordinates": [12.0757298, 55.6400454]}}, {"type": "Feature", "properties": {"type": "node", "id": 2402123148, "tags": {"fvst:fixme": "fvst:no_pos", "fvst:navnelbnr": "634988", "name": "Roskilde Museum", "name:pl": "Muzeum Roskilde", "tourism": "museum", "wikidata": "Q11787197", "wikipedia": "da:Roskilde Museum"}}, "geometry": {"type": "Point", "coordinates": [12.0836747, 55.6423061]}}, {"type": "Feature", "properties": {"type": "node", "id": 2275820457, "tags": {"name": "Skuldelev Dukkemuseum og Leget\u00f8jssamling", "operator": "Hanne og Harly Paaske", "tourism": "museum", "website": "http://www.skuldelev-dukkemuseum.dk/"}}, "geometry": {"type": "Point", "coordinates": [12.0179527, 55.7832318]}}, {"type": "Feature", "properties": {"type": "node", "id": 1326843633, "tags": {"name": "Thorsbro Vandv\u00e6rk Museum", "tourism": "museum"}}, "geometry": {"type": "Point", "coordinates": [12.2717844, 55.6225412]}}, {"type": "Feature", "properties": {"type": "node", "id": 767806681, "tags": {"name": "Ballerup Museum", "tourism": "museum", "website": "http://www.ballerupmuseum.dk"}}, "geometry": {"type": "Point", "coordinates": [12.3385056, 55.7340177]}}, {"type": "Feature", "properties": {"type": "node", "id": 1338149596, "tags": {"name": "Middelalderlandsbyen", "tourism": "museum", "website": "http://www.middelalderlandsbyen.dk/", "wheelchair": "limited"}}, "geometry": {"type": "Point", "coordinates": [12.4090462, 55.6328848]}}, {"type": "Feature", "properties": {"type": "node", "id": 3606536001, "tags": {"name": "Forstadsmuseet", "source": "survey", "tourism": "museum", "website": "https://forstadsmuseet.dk/"}}, "geometry": {"type": "Point", "coordinates": [12.4482569, 55.6322046]}}, {"type": "Feature", "properties": {"type": "node", "id": 1163389782, "tags": {"name": "Lokalhistorisk Samling", "tourism": "museum"}}, "geometry": {"type": "Point", "coordinates": [12.467294, 55.6827166]}}, {"type": "Feature", "properties": {"type": "node", "id": 4959567012, "tags": {"amenity": "cafe", "fvst:navnelbnr": "736512", "museum": "Manuel Mustapha Tafat", "name": "Mosaic - Gallery og Cafe", "office": "organization", "opening_hours": "09:00-18:00; Sa-Su 11:00-17:00", "phone": "+45 60694696", "tourism": "museum", "website": "https://www.artandcolour.dk/"}}, "geometry": {"type": "Point", "coordinates": [12.549609, 55.671695]}}, {"type": "Feature", "properties": {"type": "node", "id": 4010329494, "tags": {"fvst:navnelbnr": "560355", "name": "B\u00f8rnemuseet", "opening_hours": "Tu-Th 10:00-17:30; Fr-Su 10:00-18:00; Mo off", "tourism": "museum", "website": "http://boernemuseet.dk/"}}, "geometry": {"type": "Point", "coordinates": [12.5504716, 55.6754011]}}, {"type": "Feature", "properties": {"type": "node", "id": 3404321018, "tags": {"name": "Musikmuseet", "name:en": "The Danish Music Museum", "tourism": "museum", "wikidata": "Q21107738"}}, "geometry": {"type": "Point", "coordinates": [12.5523771, 55.682313]}}, {"type": "Feature", "properties": {"type": "node", "id": 2712714149, "tags": {"name": "V\u00e6ggen", "name:en": "The Wall", "tourism": "museum", "website": "http://vaeggen.copenhagen.dk/en/"}}, "geometry": {"type": "Point", "coordinates": [12.5640628, 55.6762959]}}, {"type": "Feature", "properties": {"type": "node", "id": 283581117, "tags": {"alt_name:es": "Museo_del_Teatro", "amenity": "cafe", "fvst:navnelbnr": "110662", "name": "Teatermuseet", "tourism": "museum", "website": "http://www.teatermuseet.dk/", "wikidata": "Q3072878"}}, "geometry": {"type": "Point", "coordinates": [12.5786288, 55.6747822]}}, {"type": "Feature", "properties": {"type": "node", "id": 738986844, "tags": {"fvst:fixme": "fvst:no_pos", "fvst:navnelbnr": "955528", "name": "Dansk J\u00f8disk Museum", "name:da": "Dansk J\u00f8disk Museum", "name:de": "D\u00e4nisches J\u00fcdisches Museum", "name:en": "Danish Jewish Museum", "name:fr": "Mus\u00e9e Juif Danois", "phone": "+45 33112218", "tourism": "museum", "website": "https://jewmus.dk/", "wheelchair": "yes", "wikidata": "Q872947", "wikipedia": "da:Dansk J\u00f8disk Museum"}}, "geometry": {"type": "Point", "coordinates": [12.5823025, 55.6743653]}}, {"type": "Feature", "properties": {"type": "node", "id": 4315966262, "tags": {"description": "museum of royal stone sculptures", "name": "Kongernes Lapidarium", "name:en": "The Lapidarium of Kings", "note": "Kun i 2016?", "opening_hours": "May 17-Aug 31 Tu-Su 12:00-16:00", "tourism": "museum", "website": "http://www.kongerneslapidarium.dk/", "wikidata": "Q17166231", "wikipedia": "da:Kongernes Lapidarium"}}, "geometry": {"type": "Point", "coordinates": [12.5797395, 55.6731268]}}, {"type": "Feature", "properties": {"type": "node", "id": 5936280185, "tags": {"email": "info@dac.dk", "internet_access": "wlan", "name": "Dansk Arkitektur Center", "phone": "+45 4532571930", "tourism": "museum", "website": "https://www.dac.dk/", "wikidata": "Q3434214", "wikipedia": "da:Dansk Arkitektur Center"}}, "geometry": {"type": "Point", "coordinates": [12.5790588, 55.6719886]}}, {"type": "Feature", "properties": {"type": "node", "id": 687303281, "tags": {"name": "Ripley's Believe It or Not", "tourism": "museum"}}, "geometry": {"type": "Point", "coordinates": [12.5699496, 55.6763244]}}, {"type": "Feature", "properties": {"type": "node", "id": 4575935485, "tags": {"name": "H.C. Andersen Museum", "tourism": "museum", "website": "https://www.ripleys.com/copenhagen/hc-andersen/"}}, "geometry": {"type": "Point", "coordinates": [12.5701546, 55.6762498]}}, {"type": "Feature", "properties": {"type": "node", "id": 7711597531, "tags": {"name": "Lykkemuseet", "tourism": "museum"}}, "geometry": {"type": "Point", "coordinates": [12.5819678, 55.677963]}}, {"type": "Feature", "properties": {"type": "node", "id": 1517820296, "tags": {"name": "Politihistorisk Museum", "opening_hours": "Mo,We,Fr,Sa off; Tu,Th,Su 11:00-16:00", "source": "survey", "tourism": "museum", "wikidata": "Q11995980"}}, "geometry": {"type": "Point", "coordinates": [12.5608467, 55.6900307]}}, {"type": "Feature", "properties": {"type": "node", "id": 277497280, "tags": {"name": "Arbejdermuseet", "name:en": "Worker's Museum", "opening_hours": "Mo-Tu 10:00-16:00; We 10:00-19:00; Th-Su 10:00-16:00", "phone": "+45 33932575", "tourism": "museum", "website": "https://www.arbejdermuseet.dk/", "wikidata": "Q3365660", "wikipedia": "da:Arbejdermuseet"}}, "geometry": {"type": "Point", "coordinates": [12.5701395, 55.6849101]}}, {"type": "Feature", "properties": {"type": "node", "id": 1291394245, "tags": {"email": "museum@davidmus.dk", "fee": "no", "name": "Davids Samling", "name:en": "The David Collection", "opening_hours": "Mo off; Tu,Th-Su 10:00-17:00; We 10:00-21:00", "operator": "C.L. Davids Fond og Samling", "phone": "+45 33 73 49 49", "tourism": "museum", "website": "http://davidmus.dk/", "wikidata": "Q536499", "wikipedia": "da:Davids Samling"}}, "geometry": {"type": "Point", "coordinates": [12.5822424, 55.6842896]}}, {"type": "Feature", "properties": {"type": "node", "id": 3404320834, "tags": {"name": "J\u00f3nsh\u00fas", "tourism": "museum"}}, "geometry": {"type": "Point", "coordinates": [12.58231, 55.68921]}}, {"type": "Feature", "properties": {"type": "node", "id": 3867388207, "tags": {"name": "Kongernes Samling Rosenborg", "subject": "history", "tourism": "museum", "wikidata": "Q11964882", "wikipedia": "da:Kongernes Samling"}}, "geometry": {"type": "Point", "coordinates": [12.5773432, 55.6858301]}}, {"type": "Feature", "properties": {"type": "node", "id": 3273716422, "tags": {"heritage": "2", "historic": "memorial", "memorial": "stone", "name": "Skovfoged F. Thomsen 16.3.1866", "source": "http://da.wikipedia.org/wiki/Fredede_fortidsminder_i_Fures%C3%B8_Kommune"}}, "geometry": {"type": "Point", "coordinates": [12.391476, 55.7653141]}}, {"type": "Feature", "properties": {"type": "node", "id": 815593600, "tags": {"alt_name": "Mosegaarden", "fee": "no", "name": "V\u00e6rl\u00f8se Museum", "opening_hours": "Tu-Fr 11:00-16:00; Su 13:00-16:00", "operator": "Fures\u00f8 Museer", "tourism": "museum", "website": "https://furesoemuseer.dk/om-furesoe-museer/det-lokalhistoriske-museum/mosegaarden/", "wikidata": "Q12341370", "wikipedia": "da:V\u00e6rl\u00f8se Museum"}}, "geometry": {"type": "Point", "coordinates": [12.3769733, 55.78534]}}, {"type": "Feature", "properties": {"type": "node", "id": 3491726139, "tags": {"name": "Barbie Museum", "note": "Price: 30 kr.", "opening_hours": "\"on appointment\"", "phone": "+45 38 10 30 23", "source": "http://www.b.dk/kultur/et-dukkehjem-i-nordvest", "tourism": "museum"}}, "geometry": {"type": "Point", "coordinates": [12.5255698, 55.6972662]}}, {"type": "Feature", "properties": {"type": "node", "id": 4305819589, "tags": {"name": "David Risley Gallery", "tourism": "museum", "website": "http://davidrisleygallery.com"}}, "geometry": {"type": "Point", "coordinates": [12.5277763, 55.7076122]}}, {"type": "Feature", "properties": {"type": "node", "id": 4596217357, "tags": {"fee": "yes", "museum": "one of the oldest coop stores in Denmark", "name": "Brumleby Museum", "opening_hours": "Su 11:00-15:00", "tourism": "museum", "website": "http://www.brumlebymuseum.dk/"}}, "geometry": {"type": "Point", "coordinates": [12.5756085, 55.7019168]}}, {"type": "Feature", "properties": {"type": "node", "id": 3908208867, "tags": {"name": "\u00d8sterbro lille Museum", "opening_hours": "Fr 10:00-15:00; Sa-Th off; Dec 16-Jan 10 off", "tourism": "museum", "website": "http://www.detlillemuseum.dk/", "wikidata": "Q84940121", "wikimedia_commons": "Category:\u00d8sterbro lille Museum"}}, "geometry": {"type": "Point", "coordinates": [12.5784022, 55.7098274]}}, {"type": "Feature", "properties": {"type": "node", "id": 4809605098, "tags": {"email": "info@experimentarium.dk", "fvst:navnelbnr": "921756", "name": "Experimentarium", "phone": "+4539273333", "tourism": "museum", "website": "https://www.experimentarium.dk/", "wikidata": "Q12310799"}}, "geometry": {"type": "Point", "coordinates": [12.5800624, 55.7267014]}}, {"type": "Feature", "properties": {"type": "node", "id": 2555515937, "tags": {"name": "Danmarks Lodsmuseum", "tourism": "museum", "wikidata": "Q12307241"}}, "geometry": {"type": "Point", "coordinates": [12.6749124, 55.5935244]}}, {"type": "Feature", "properties": {"type": "node", "id": 3726094585, "tags": {"fee": "no", "name": "Lodsstationen", "opening_hours": "\"June 24 to August 30 there's open Wednesday, Saturday and Sunday from 14-16\"", "tourism": "museum"}}, "geometry": {"type": "Point", "coordinates": [12.6754921, 55.5934259]}}, {"type": "Feature", "properties": {"type": "node", "id": 2473702013, "tags": {"contact:email": "info@overgaden.org", "museum": "art", "name": "Overgaden", "opening_hours": "Tu-Su 13:00-17:00; Th 13:00-20:00", "phone": "+45 32577273", "price": "0", "tourism": "museum", "website": "https://overgaden.org/", "wikidata": "Q12330704"}}, "geometry": {"type": "Point", "coordinates": [12.5901952, 55.6724683]}}, {"type": "Feature", "properties": {"type": "node", "id": 3554343005, "tags": {"name": "Guinness World Records", "name:es": "r\u00e9cord Guinness", "opening_hours": "Su-Th 10:00-18:00;Fr-Sa 10:00-20:00; Jun 15-Aug 31 10:00-22:00", "tourism": "museum", "website": "https://www.ripleys.com/copenhagen/da/guinness-world-records/"}}, "geometry": {"type": "Point", "coordinates": [12.5838463, 55.6801679]}}, {"type": "Feature", "properties": {"type": "node", "id": 4329579150, "tags": {"name": "Magasin du Nord Museum", "opening_hours": "Th-Fr 13:00-15:00, Sa-Su 11:00-17:00", "subject": "history", "tourism": "museum", "website": "http://magasinmuseum.dk", "wikidata": "Q26225437", "wikipedia": "da:Magasin du Nord Museum"}}, "geometry": {"type": "Point", "coordinates": [12.5840098, 55.6787536]}}, {"type": "Feature", "properties": {"type": "node", "id": 1224762659, "tags": {"name": "Spejdermuseet", "tourism": "museum", "website": "http://spejdermuseet.dk/"}}, "geometry": {"type": "Point", "coordinates": [12.6023368, 55.6752141]}}, {"type": "Feature", "properties": {"type": "node", "id": 5424355522, "tags": {"alt_name": "Stadens Museum for Kunst", "museum": "art", "name": "Gallopperiet", "name:en": "Christiania Art Gallery", "opening_hours": "Tu-Su 14:00-19:00", "tourism": "museum", "website": "http://www.gallopperiet.dk/"}}, "geometry": {"type": "Point", "coordinates": [12.5969554, 55.6737818]}}, {"type": "Feature", "properties": {"type": "node", "id": 4331285861, "tags": {"description:en": "Culture from Iceland, Faroes Islands and Greenland", "fee": "yes", "fvst:navnelbnr": "528011", "name": "Nordatlantens Brygge", "opening_hours": "Mo-Fr 10:00-17:00; Sa-Su 12:00-17:00", "phone": "+45 3283 3700", "tourism": "museum", "website": "https://www.nordatlantens.dk/", "wikidata": "Q841018"}}, "geometry": {"type": "Point", "coordinates": [12.5966749, 55.6775993]}}, {"type": "Feature", "properties": {"type": "node", "id": 496564342, "tags": {"description": "Nyboder mindestuer showcases everyday life in the neighborhood from it's inception in 1631", "museum": "local", "name": "Nyboder Mindestuer", "tourism": "museum"}}, "geometry": {"type": "Point", "coordinates": [12.5880529, 55.6873712]}}, {"type": "Feature", "properties": {"type": "node", "id": 894315602, "tags": {"name": "Medicinsk Museion", "name:en": "Medical Museion", "opening_hours": "We,Fr,Su 12:00-16:00", "phone": "+45 3532 3800", "toilets": "yes", "tourism": "museum", "website": "https://www.museion.ku.dk/", "wikidata": "Q6806387", "wikipedia": "da:Medicinsk Museion"}}, "geometry": {"type": "Point", "coordinates": [12.5918956, 55.6859579]}}, {"type": "Feature", "properties": {"type": "node", "id": 3858601945, "tags": {"name": "Kongernes Samling Amalienborg", "operator": "Kongernes Samling", "subject": "history", "tourism": "museum", "url": "http://www.kongernessamling.dk/amalienborg/", "wikidata": "Q11957657", "wikipedia": "da:Amalienborgmuseet"}}, "geometry": {"type": "Point", "coordinates": [12.5924522, 55.6844546]}}, {"type": "Feature", "properties": {"type": "node", "id": 5951744375, "tags": {"fvst:navnelbnr": "763447", "name": "Copenhagen Contemporary", "tourism": "museum", "website": "http://cphco.org/", "wikidata": "Q62623077", "wikipedia": "sv:Copenhagen Contemporary"}}, "geometry": {"type": "Point", "coordinates": [12.6131567, 55.692498]}}, {"type": "Feature", "properties": {"type": "node", "id": 4881558364, "tags": {"name": "Himmel og Hav", "tourism": "museum", "website": "http://www.nordhavnen.dk/oplev+nordhavnen/udstilling.aspx"}}, "geometry": {"type": "Point", "coordinates": [12.5979173, 55.7081968]}}, {"type": "Feature", "properties": {"type": "node", "id": 4460696827, "tags": {"name": "Faurschou Foundation", "opening_hours": "Tu-Fr 11:00-18:00", "tourism": "museum", "website": "http://www.faurschou.com"}}, "geometry": {"type": "Point", "coordinates": [12.5995141, 55.7101065]}}, {"type": "Feature", "properties": {"type": "node", "id": 1687636463, "tags": {"name": "Krudtv\u00e6rksmuseet", "tourism": "museum"}}, "geometry": {"type": "Point", "coordinates": [12.0180487, 55.9753278]}}, {"type": "Feature", "properties": {"type": "node", "id": 3292346824, "tags": {"name": "Aller\u00f8d Kunstforening", "tourism": "museum", "website": "http://www.alleroedkunst.dk/"}}, "geometry": {"type": "Point", "coordinates": [12.3467199, 55.8728204]}}, {"type": "Feature", "properties": {"type": "node", "id": 3404320797, "tags": {"name": "Husmandsstedet", "tourism": "museum"}}, "geometry": {"type": "Point", "coordinates": [12.26476, 55.9525]}}, {"type": "Feature", "properties": {"type": "node", "id": 1791587796, "tags": {"name": "Det Nationalhistoriske Museum", "name:af": "Nasionaal-Historiese Museum", "name:ca": "Museu Nacional d'Hist\u00f2ria", "name:de": "Nationalhistorisches Museum", "name:en": "The Museum of National History", "name:fr": "Mus\u00e9e national d'histoire", "name:nl": "Nationaal-Historisch Museum", "name:no": "Det Nationalhistoriske Museum", "name:ru": "\u041d\u0430\u0446\u0438\u043e\u043d\u0430\u043b\u044c\u043d\u044b\u0439 \u0438\u0441\u0442\u043e\u0440\u0438\u0447\u0435\u0441\u043a\u0438\u0439 \u043c\u0443\u0437\u0435\u0439", "name:sv": "Det Nationalhistoriske Museum", "name:zh": "\u56fd\u5bb6\u5386\u53f2\u535a\u7269\u9986", "start_date": "1-2-1882", "subject": "history;arts", "tourism": "museum", "website": "http://www.dnm.dk/", "wikidata": "Q3078776"}}, "geometry": {"type": "Point", "coordinates": [12.3015148, 55.9351737]}}, {"type": "Feature", "properties": {"type": "node", "id": 3488518170, "tags": {"addr:city": "Farum", "addr:housenumber": "3", "addr:postcode": "3520", "addr:street": "Stavnsholtvej", "name": "Immigrantmuseet", "tourism": "museum", "website": "http://immigrantmuseet.dk/", "wheelchair": "yes"}}, "geometry": {"type": "Point", "coordinates": [12.3777213, 55.8142484]}}, {"type": "Feature", "properties": {"type": "node", "id": 1034241629, "tags": {"name": "Flynderupgaardmuseet", "tourism": "museum", "wikidata": "Q16323547", "wikipedia": "da:Flynderupg\u00e5rd Museet"}}, "geometry": {"type": "Point", "coordinates": [12.5548194, 56.0043592]}}, {"type": "Feature", "properties": {"type": "node", "id": 4056775841, "tags": {"name": "Else Klugs Cafemuseum", "operator": "Museum Nordsj\u00e6lland", "tourism": "museum", "website": "http://museumns.dk/udstillinger/udstillingsteder-gilleleje/cafe-klugs-cafe/"}}, "geometry": {"type": "Point", "coordinates": [12.3117057, 56.1237355]}}, {"type": "Feature", "properties": {"type": "node", "id": 3500298370, "tags": {"name": "Horser\u00f8dlejrens Museum", "opening_hours": "Tu 11:00-15:00; Th 11:00-15:00; Su 11:00-15:00", "operator": "Nationalmuseet", "tourism": "museum", "wikidata": "Q4994564", "wikipedia": "en:Horser\u00f8d camp"}}, "geometry": {"type": "Point", "coordinates": [12.4938188, 56.0462488]}}, {"type": "Feature", "properties": {"type": "node", "id": 3136804445, "tags": {"fvst:navnelbnr": "108528", "museum": "local", "name": "Helsing\u00f8r Bymuseum", "tourism": "museum", "wikidata": "Q12316167", "wikipedia": "da:Helsing\u00f8r Bymuseum"}}, "geometry": {"type": "Point", "coordinates": [12.6125796, 56.0364194]}}, {"type": "Feature", "properties": {"type": "node", "id": 6746976380, "tags": {"fvst:navnelbnr": "110956", "name": "Skibsklarerergaarden", "operator": "Museerne Helsing\u00f8r", "tourism": "museum", "wikidata": "Q23042142", "wikipedia": "da:Skibsklarerergaarden"}}, "geometry": {"type": "Point", "coordinates": [12.615068, 56.0348156]}}, {"type": "Feature", "properties": {"type": "node", "id": 2685679853, "tags": {"museum": "maritime", "name": "V\u00e6rftsmuseet", "opening_hours": "Su, Tu, Th-Fr 12:00-16:00; We 12:00-20:00; Sa 10:00-14:00", "tourism": "museum", "website": "http://helsingormuseer.dk/vaerftsmuseet/"}}, "geometry": {"type": "Point", "coordinates": [12.6141843, 56.0377635]}}, {"type": "Feature", "properties": {"type": "node", "id": 5010180298, "tags": {"name": "Grubbeg\u00e5rd Traktor Og Motor Museum", "opening_hours": "Sa 11:00-16:00", "phone": "+45 56978012", "tourism": "museum"}}, "geometry": {"type": "Point", "coordinates": [14.975515, 55.0204527]}}, {"type": "Feature", "properties": {"type": "node", "id": 4369954267, "tags": {"fixme": "Their homepage doesn't exist anymore?", "name": "B\u00e5demotorklubben Columbus", "opening_hours": "13:00-17:00", "tourism": "museum"}}, "geometry": {"type": "Point", "coordinates": [14.7025215, 55.184015]}}, {"type": "Feature", "properties": {"type": "node", "id": 7786897675, "tags": {"name": "Gr\u00f8nbechs G\u00e5rd", "phone": "+45 5696 1870", "tourism": "museum", "website": "https://groenbechsgaard.dk/"}}, "geometry": {"type": "Point", "coordinates": [14.7056127, 55.183425]}}, {"type": "Feature", "properties": {"type": "node", "id": 3721177177, "tags": {"level": "1", "name": "Udstilling \"Levende billeder\"", "name:de": "Ausstellung \"Lebendige Bilder\"", "name:en": "Exhibition \"Living Pictures\"", "tourism": "museum", "wheelchair": "yes"}}, "geometry": {"type": "Point", "coordinates": [14.9565607, 55.1751176]}}, {"type": "Feature", "properties": {"type": "node", "id": 3748184454, "tags": {"alt_name": "Sea War Museum", "name": "Sea War Museum Jutland", "start_date": "2015-09-16", "tourism": "museum", "website": "http://www.seawarmuseum.dk/", "wikidata": "Q24262070"}}, "geometry": {"type": "Point", "coordinates": [8.2155199, 56.7067438]}}, {"type": "Feature", "properties": {"type": "node", "id": 4395169879, "tags": {"name": "Ravhuset", "name:de": "Bernstein Haus", "tourism": "museum"}}, "geometry": {"type": "Point", "coordinates": [8.2175965, 56.7060148]}}, {"type": "Feature", "properties": {"type": "node", "id": 7745511985, "tags": {"name": "Den gamle Smedie", "tourism": "museum"}}, "geometry": {"type": "Point", "coordinates": [8.218666, 56.7050714]}}, {"type": "Feature", "properties": {"type": "node", "id": 1575610305, "tags": {"name": "De sorte huse", "tourism": "museum"}}, "geometry": {"type": "Point", "coordinates": [8.2351254, 56.7847828]}}, {"type": "Feature", "properties": {"type": "node", "id": 1597439229, "tags": {"fvst:navnelbnr": "28739", "name": "Fr\u00f8ken Fines Bonbonmuseum", "tourism": "museum", "url": "http://www.bonbonmuseet.dk/"}}, "geometry": {"type": "Point", "coordinates": [8.3463686, 56.8332457]}}, {"type": "Feature", "properties": {"type": "node", "id": 1650327743, "tags": {"fee": "yes", "name": "Nords\u00f8 Akvariet", "opening_hours": "Mo-Su 10:00-18:00", "tourism": "museum", "website": "https://north-sea.dk/", "wheelchair": "yes", "wikidata": "Q12329235", "wikipedia": "da:Nords\u00f8 Akvariet"}}, "geometry": {"type": "Point", "coordinates": [8.3673444, 56.9583628]}}, {"type": "Feature", "properties": {"type": "node", "id": 2100504911, "tags": {"name": "\u00c6 Elv\u00e6rk", "tourism": "museum", "website": "http://www.jegindo.dk/da/oen/elvaerk.html"}}, "geometry": {"type": "Point", "coordinates": [8.6179879, 56.646165]}}, {"type": "Feature", "properties": {"type": "node", "id": 1467940747, "tags": {"name": "Radio", "tourism": "museum"}}, "geometry": {"type": "Point", "coordinates": [8.7939366, 56.88918]}}, {"type": "Feature", "properties": {"type": "node", "id": 1641176846, "tags": {"name": "Tr\u00e6museet", "tourism": "museum", "website": "http://www.traemuseet.dk"}}, "geometry": {"type": "Point", "coordinates": [8.9324671, 56.6523926]}}, {"type": "Feature", "properties": {"type": "node", "id": 6719811178, "tags": {"alt_name": "St\u00f8berimuseet", "name": "Dansk St\u00f8berimuseum", "operator": "Museum Mors", "tourism": "museum", "website": "https://museummors.dk/dansk-stoeberimuseum/historie", "wikidata": "Q12307562", "wikipedia": "da:Dansk St\u00f8berimuseum"}}, "geometry": {"type": "Point", "coordinates": [8.8617732, 56.797407]}}, {"type": "Feature", "properties": {"type": "node", "id": 4715467984, "tags": {"name": "Museum For M\u00e6nd", "tourism": "museum", "website": "http://www.paaherrensmark.com/museum-for-mnd1"}}, "geometry": {"type": "Point", "coordinates": [9.0167015, 56.8317459]}}, {"type": "Feature", "properties": {"type": "node", "id": 6719811164, "tags": {"name": "Fossil- og Molermuseet", "operator": "Museum Mors", "tourism": "museum", "website": "https://museummors.dk/fossil-og-molermuseet/historie", "wikidata": "Q66501493"}}, "geometry": {"type": "Point", "coordinates": [8.8749582, 56.9431286]}}, {"type": "Feature", "properties": {"type": "node", "id": 3465732742, "tags": {"tourism": "museum"}}, "geometry": {"type": "Point", "coordinates": [9.1015635, 57.0330895]}}, {"type": "Feature", "properties": {"type": "node", "id": 359979632, "tags": {"description": "Bunkermuseum", "fee": "yes", "fvst:navnelbnr": "654636", "name": "Museumscenter Hanstholm", "note:de": "Europas gr\u00f6\u00dfte Befestigungsanlage des WW2", "opening_hours": "Apr-Oct Mo-Su 10:00-16:00; Jun-Aug 10:00-17:00", "phone": "+45 97 96 17 36", "tourism": "museum", "website": "http://www.museumscenterhanstholm.dk", "wheelchair": "limited", "wikidata": "Q56528266", "wikipedia": "da:Bunkermuseum Hanstholm"}}, "geometry": {"type": "Point", "coordinates": [8.6167576, 57.1208296]}}, {"type": "Feature", "properties": {"type": "node", "id": 4299175624, "tags": {"fvst:navnelbnr": "521075", "name": "Dansk Nutidsmuseum", "phone": "+45 98626688", "tourism": "museum", "website": "http://www.dansk-nutidsmuseum.dk/"}}, "geometry": {"type": "Point", "coordinates": [9.49792, 56.799418]}}, {"type": "Feature", "properties": {"type": "node", "id": 4475782391, "tags": {"fvst:navnelbnr": "25861", "museum": "archaeological", "name": "Vesthimmerlands Museum", "phone": "+45 98623577", "tourism": "museum", "website": "http://www.vesthimmerlandsmuseum.dk/", "wikidata": "Q16324163"}}, "geometry": {"type": "Point", "coordinates": [9.5219075, 56.8024093]}}, {"type": "Feature", "properties": {"type": "node", "id": 1738682029, "tags": {"name": "Rebildcentret med Thingb\u00e6k Kalkminer", "opening_hours:covid19": "closed", "tourism": "museum", "wikipedia": "da:Rebildcentret med Thingb\u00e6k Kalkminer"}}, "geometry": {"type": "Point", "coordinates": [9.8119874, 56.8325773]}}, {"type": "Feature", "properties": {"type": "node", "id": 3400754496, "tags": {"name": "Mariager Museum", "tourism": "museum"}}, "geometry": {"type": "Point", "coordinates": [9.982014, 56.6501]}}, {"type": "Feature", "properties": {"type": "node", "id": 3400754498, "tags": {"fvst:navnelbnr": "558780", "name": "Mariager Saltcenter", "tourism": "museum", "wikidata": "Q56332857"}}, "geometry": {"type": "Point", "coordinates": [9.9795033, 56.6540878]}}, {"type": "Feature", "properties": {"type": "node", "id": 4099595838, "tags": {"name": "Godthaab Hammerv\u00e6rk", "tourism": "museum", "website": "http://www.godthaab-hammervaerk.dk/", "wikidata": "Q12314098", "wikipedia": "da:Godthaab Hammerv\u00e6rk"}}, "geometry": {"type": "Point", "coordinates": [9.8118342, 56.9685366]}}, {"type": "Feature", "properties": {"type": "node", "id": 3400357778, "tags": {"museum": "military", "name": "Aalborg Forsvars- og Garnisonsmuseum", "tourism": "museum", "website": "http://www.forsvarsmuseum.dk/", "wikidata": "Q300858", "wikipedia": "da:Aalborg Forsvars- og Garnisonsmuseum"}}, "geometry": {"type": "Point", "coordinates": [9.8828782, 57.0561722]}}, {"type": "Feature", "properties": {"type": "node", "id": 4888919917, "tags": {"name": "Bryggeri- & egns-museum", "source": "Kaart Ground Survey 2017", "tourism": "museum", "website": "http://www.fjerritslevmuseum.dk"}}, "geometry": {"type": "Point", "coordinates": [9.2659737, 57.0883012]}}, {"type": "Feature", "properties": {"type": "node", "id": 4932442877, "tags": {"name": "\u00d8ster Han Herred Egnssamling", "tourism": "museum"}}, "geometry": {"type": "Point", "coordinates": [9.4630782, 57.1315436]}}, {"type": "Feature", "properties": {"type": "node", "id": 1610672682, "tags": {"alt_name": "Harmonikamuseet", "fvst:name": "HARMONIKAMUSEETS FOND", "fvst:navnelbnr": "22392", "int_name": "The Accordion Museum", "name": "Harmonika Museet", "tourism": "museum", "website": "http://harmonikamuseet.dk/"}}, "geometry": {"type": "Point", "coordinates": [9.6106688, 57.1545537]}}, {"type": "Feature", "properties": {"type": "node", "id": 3400239526, "tags": {"name": "Egnssamlingen", "tourism": "museum"}}, "geometry": {"type": "Point", "coordinates": [9.6964253, 57.271834]}}, {"type": "Feature", "properties": {"type": "node", "id": 2409002856, "tags": {"name": "Sandflugtsmuseet", "tourism": "museum", "wikidata": "Q12334504", "wikipedia": "da:Sandflugtsmuseet"}}, "geometry": {"type": "Point", "coordinates": [9.7781408, 57.4374753]}}, {"type": "Feature", "properties": {"type": "node", "id": 8180052717, "tags": {"amenity": "events_venue", "fvst:fixme": "fvst position missing, fixed from overpassturbo/osak", "fvst:navnelbnr": "771126", "name": "Kornets Hus", "ref:DK:cvr": "38699830", "ref:DK:cvr:pnummer": "1022510815", "tourism": "museum", "website": "https://kornetshus.dk/"}}, "geometry": {"type": "Point", "coordinates": [10.018944, 57.407011]}}, {"type": "Feature", "properties": {"type": "node", "id": 416334228, "tags": {"tourism": "museum"}}, "geometry": {"type": "Point", "coordinates": [9.839589, 57.4943944]}}, {"type": "Feature", "properties": {"type": "node", "id": 296931671, "tags": {"military": "bunker", "name": "Bunkermuseum", "tourism": "museum", "website": "http://www.hirtshalsbunkermuseum.dk"}}, "geometry": {"type": "Point", "coordinates": [9.9424714, 57.584845]}}, {"type": "Feature", "properties": {"type": "node", "id": 277626838, "tags": {"fvst:navnelbnr": "22483", "name": "Nords\u00f8en Oceanarium", "tourism": "museum", "website": "http://nordsoenoceanarium.dk", "wikidata": "Q31808"}}, "geometry": {"type": "Point", "coordinates": [9.9802239, 57.5866903]}}, {"type": "Feature", "properties": {"type": "node", "id": 8425711641, "tags": {"description": "OBS! Opening hours may differ year around.\nThe nature reservation is though open all year around. Movement are only allowed on assigned paths.", "name": "Lille Vildmosecentret", "opening_hours": "Mo-Su 10:00-16:00", "phone": "+4599317550", "tourism": "museum", "website": "https://lillevildmose.dk/"}}, "geometry": {"type": "Point", "coordinates": [10.2211392, 56.8876701]}}, {"type": "Feature", "properties": {"type": "node", "id": 4097142440, "tags": {"contact:website": "http://www.asaahavn.dk/index.php/havnens-brugere/asaa-havnemuseum", "name": "Asaa Havnemuseum", "operator": "St\u00f8tteforeningen for Asaa havnemuseum", "tourism": "museum"}}, "geometry": {"type": "Point", "coordinates": [10.4243919, 57.1445173]}}, {"type": "Feature", "properties": {"type": "node", "id": 939277807, "tags": {"name": "Herreg\u00e5rdsmuseet S\u00e6byg\u00e5rd", "tourism": "museum"}}, "geometry": {"type": "Point", "coordinates": [10.4787515, 57.334102]}}, {"type": "Feature", "properties": {"type": "node", "id": 440661391, "tags": {"name": "S\u00e6by Museum", "tourism": "museum"}}, "geometry": {"type": "Point", "coordinates": [10.5209267, 57.3354138]}}, {"type": "Feature", "properties": {"type": "node", "id": 441918566, "tags": {"name": "Kystmuseet Bangsbo Fort - Bunker Museum", "tourism": "museum", "website": "https://www.kystmuseet.dk/"}}, "geometry": {"type": "Point", "coordinates": [10.5160193, 57.4085955]}}, {"type": "Feature", "properties": {"type": "node", "id": 247752424, "tags": {"name": "Bunkermuseet", "tourism": "museum"}}, "geometry": {"type": "Point", "coordinates": [10.5364247, 57.4599637]}}, {"type": "Feature", "properties": {"type": "node", "id": 779230860, "tags": {"name": "L\u00e6s\u00f8 Museum", "tourism": "museum", "website": "http://www.laesoe-museum.dk/"}}, "geometry": {"type": "Point", "coordinates": [10.9235212, 57.2935246]}}, {"type": "Feature", "properties": {"type": "node", "id": 3395983859, "tags": {"name": "L\u00e6s\u00f8 Museum", "tourism": "museum", "website": "http://www.laesoe-museum.dk/", "wikidata": "Q12325356", "wikipedia": "da:L\u00e6s\u00f8 Museum"}}, "geometry": {"type": "Point", "coordinates": [11.1468208, 57.3077803]}}, {"type": "Feature", "properties": {"type": "node", "id": 2418871924, "tags": {"fee": "yes", "name": "Victor Petersens J F Willumsen Samling", "opening_hours": "Mar-Oct 10:00-17:00", "phone": "+45 98975202", "tourism": "museum", "website": "https://jfwillumsenodden.dk/"}}, "geometry": {"type": "Point", "coordinates": [10.094153, 57.5377112]}}, {"type": "Feature", "properties": {"type": "node", "id": 1112029417, "tags": {"name": "Landskabs- og Landbrugsmuseet i Mosbjerg", "tourism": "museum"}}, "geometry": {"type": "Point", "coordinates": [10.2995055, 57.5046585]}}, {"type": "Feature", "properties": {"type": "way", "id": 403364667, "tags": {"description": "Et slags \"Frilandsmuseum\" omhandlende fiskeriet ved Vid\u00e5en op til ca 1920", "name": "B\u00e5dfolk ved Vid\u00e5en", "tourism": "museum", "wikimedia_commons": "Category:B\u00e5dfolk ved Vid\u00e5en"}}, "geometry": {"type": "Point", "coordinates": [8.6851212, 54.9563483]}}, {"type": "Feature", "properties": {"type": "way", "id": 245821673, "tags": {"alt_name": "Guldhorn- & Kulturcenter Slotfelt", "building": "barn", "contact:email": "info@slotfelt.dk", "name": "Slotfelt", "phone": "+45 20604592", "start_date": "-1879", "tourism": "museum", "website": "http://www.slotfelt.dk/"}}, "geometry": {"type": "Point", "coordinates": [8.8131819, 54.93754]}}, {"type": "Feature", "properties": {"type": "way", "id": 97370772, "tags": {"building": "yes", "description": "Adgang gennem Kulturhistorie T\u00f8nder", "museum": "art", "name": "Kunstmuseet i T\u00f8nder", "operator": "Museum S\u00f8nderjylland", "tourism": "museum", "wikidata": "Q29181168", "wikipedia": "da:Kunstmuseet i T\u00f8nder"}}, "geometry": {"type": "Point", "coordinates": [8.866425, 54.9326617]}}, {"type": "Feature", "properties": {"type": "way", "id": 158922825, "tags": {"building": "yes", "name": "Dr\u00f8hses hus", "opening_hours": "Apr-Dec: Mo-Fr 10:00-17:00; Sa 10:00-14:00", "phone": "+45 74724990", "price": "DKK 30", "tourism": "museum", "website": "http://www.museum-sonderjylland.dk/drohses-hus.html", "wheelchair": "no"}}, "geometry": {"type": "Point", "coordinates": [8.8700132, 54.9354518]}}, {"type": "Feature", "properties": {"type": "way", "id": 693427529, "tags": {"name": "Zeppelin- & Garnisonsmuseum T\u00f8nder", "opening_hours": "May-Oct: Sa-Su 11:00-16:00", "tourism": "museum", "website": "http://www.zeppelin-museum.dk", "wikidata": "Q12341745", "wikipedia": "da:Zeppelin- & Garnisonsmuseum T\u00f8nder"}}, "geometry": {"type": "Point", "coordinates": [8.8671751, 54.9609985]}}, {"type": "Feature", "properties": {"type": "way", "id": 71438226, "tags": {"building": "yes", "name": "Mellem Slesvigs Gr\u00e6nser", "opening_hours": "Mo-Fr 08:00-18:00; Sa-Su 07:00-15:00", "tourism": "museum"}}, "geometry": {"type": "Point", "coordinates": [9.0930676, 54.897337]}}, {"type": "Feature", "properties": {"type": "way", "id": 217836840, "tags": {"fee": "no", "name": "Fr\u00f8slevlejren", "name:de": "Das Fr\u00f6slevlager", "name:en": "Fr\u00f8slev Camp", "natural": "grass", "note": "Padborg is the closest train station", "opening_hours": "Tu-Fr 09:00-16:00; Sa-Su,PH 10:00-17:00; Jun 18-Aug 10 10:00-17:00; Dec-Jan off", "phone": "+45 74676557", "tourism": "museum", "website": "https://froeslevlejren.dk/", "wikidata": "Q325121", "wikipedia": "da:Fr\u00f8slevlejren"}}, "geometry": {"type": "Point", "coordinates": [9.3284874, 54.8429563]}}, {"type": "Feature", "properties": {"type": "way", "id": 106402440, "tags": {"description": "S\u00f8nderjysk landbrug mm", "name": "Oldemorstoft Museum S\u00f8nderjylland", "opening_hours": "Apr 1-Oct 31 Tu-Fr 10:00-16:00;week 26-32 Sa-Su 13:00-16:00", "tourism": "museum", "website": "http://www.oldemorstoft.dk/", "wikidata": "Q18667949"}}, "geometry": {"type": "Point", "coordinates": [9.3639714, 54.826555]}}, {"type": "Feature", "properties": {"type": "way", "id": 34914086, "tags": {"bicycle": "yes", "bridge": "yes", "description": "Historisk dobbeltbuet granitbro", "foot": "yes", "heritage": "2", "highway": "path", "layer": "1", "material": "granite_stone", "motor_vehicle": "no", "name": "Gejl\u00e5 Bro", "start_date": "1818", "wikidata": "Q2204114", "wikipedia": "da:Gejl\u00e5 Bro"}}, "geometry": {"type": "Point", "coordinates": [9.3623814, 54.892989]}}, {"type": "Feature", "properties": {"type": "way", "id": 675783225, "tags": {"name": "Straagaards Smedje", "opening_hours": "week 1-53/2 Th 15:00-17:00 \"eller efter aftale med arkivleder eller bestyrelsesmedlem\"", "tourism": "museum", "website": "http://kliplevarkiv.dk", "wikidata": "Q62018347", "wikimedia_commons": "Category:Straagaards Smedje"}}, "geometry": {"type": "Point", "coordinates": [9.4041708, 54.9372365]}}, {"type": "Feature", "properties": {"type": "way", "id": 123075512, "tags": {"building": "yes", "name": "Papirmuseets By", "tourism": "museum", "website": "https://www.karenmarieklip.dk/"}}, "geometry": {"type": "Point", "coordinates": [9.5783263, 54.9070458]}}, {"type": "Feature", "properties": {"type": "way", "id": 125349575, "tags": {"building": "windmill", "description": "Windm\u00fchle in Dybb\u00f8l", "fee": "yes", "man_made": "windmill", "name": "Dybb\u00f8l M\u00f8lle", "name:de": "D\u00fcppeler M\u00fchle", "opening_hours": "Mar 28-Oct 18 11:00-16:00; week 42 10:00-17:00; easter+26days-easter+28days 10:00-17:00; easter+39days 10:00-17:00; easter+48days-easter+50 days 10:00-17:00; easter-8days-easter+1 days 10:00-17:00; Jul 10:00-17:00", "phone": "+45 74489000", "start_date": "1936", "tourism": "museum", "website": "http://www.museum-sonderjylland.dk/dybbol-molle.html", "wheelchair": "no", "wikidata": "Q443626", "wikimedia_commons": "File:Dybb\u00f8l M\u00f8lle b 09.jpg", "wikipedia": "da:Dybb\u00f8l M\u00f8lle"}}, "geometry": {"type": "Point", "coordinates": [9.7579963, 54.9069176]}}, {"type": "Feature", "properties": {"type": "way", "id": 131621590, "tags": {"building": "yes", "name": "Historiecenter Dybb\u00f8l Banke", "name:da": "Historiecenter Dybb\u00f8l Banke", "name:de": "Geschichtszentrum D\u00fcppeler Anh\u00f6he", "name:en": "History Centre Dybb\u00f8l Banke", "tourism": "museum", "website": "http://www.museum-sonderjylland.dk/dybbol-banke.html"}}, "geometry": {"type": "Point", "coordinates": [9.7545776, 54.9066931]}}, {"type": "Feature", "properties": {"type": "way", "id": 250780793, "tags": {"building": "yes", "fee": "no", "name": "Deutsches Museum Nordschleswig", "opening_date": "2020-08-07", "source:name": "main inscription of building (survey); website", "tourism": "museum", "website": "http://www.deutsches-museum.dk/"}}, "geometry": {"type": "Point", "coordinates": [9.7917891, 54.9133645]}}, {"type": "Feature", "properties": {"type": "way", "id": 328372381, "tags": {"building": "yes", "name": "Gendarmhuset", "name:de": "Gendarmenhaus", "source:name": "denomination in common language at a local public Gendarmsti info-meeting", "tourism": "museum"}}, "geometry": {"type": "Point", "coordinates": [9.8897271, 54.9076347]}}, {"type": "Feature", "properties": {"type": "way", "id": 510178957, "tags": {"building": "transformer_tower", "description": "Danmarks mindste museum. N\u00f8gle kan afhentes i L\u00e6gehuset", "name": "Tandslet Transformatormuseum", "note": "Not in use as a substation", "tourism": "museum", "wikidata": "Q16324668", "wikipedia": "da:Tandslet Transformatormuseum"}}, "geometry": {"type": "Point", "coordinates": [9.9774978, 54.9256735]}}, {"type": "Feature", "properties": {"type": "way", "id": 188184972, "tags": {"building": "yes", "name": "Bl\u00e5vand Museum", "name:de": "Blavand-Museum", "tourism": "museum"}}, "geometry": {"type": "Point", "coordinates": [8.138942, 55.556228]}}, {"type": "Feature", "properties": {"type": "way", "id": 434573248, "tags": {"name": "Museumscenter Bl\u00e5vand", "start_date": "2017-06-30", "tourism": "museum", "website": "https://vardemuseerne.dk/museum/tirpitz/", "wikidata": "Q66310617", "wikimedia_commons": "Category:Tirpitz Museum (Denmark)"}}, "geometry": {"type": "Point", "coordinates": [8.172141, 55.5508562]}}, {"type": "Feature", "properties": {"type": "way", "id": 555482089, "tags": {"building": "yes", "charge": "75 kr", "description": "V\u00e6rkt\u00f8jsmuseum med historisk v\u00e6rkt\u00f8j fra 1700-1950", "fee": "yes", "name": "H\u00f8vlehuset", "opening_hours": "Mo-Fr 16:30-18:00; Sa,Su 10:00-18:00", "operator": "Niels Ole Faurby Bennetsen", "tourism": "museum", "website": "https://www.hoevlehuset.dk/"}}, "geometry": {"type": "Point", "coordinates": [8.1732857, 55.5580331]}}, {"type": "Feature", "properties": {"type": "way", "id": 160197824, "tags": {"building": "yes", "contact:phone": "+45 76 54 20 00", "name": "Panser- og Brandbilsmuseet", "name:de": "Feuerwehr und Panzermuseum", "opening_hours": "Mo-Fr 10:00-16:00", "tourism": "museum", "website": "https://www.danmarksbrandbiler.dk"}}, "geometry": {"type": "Point", "coordinates": [8.2928539, 55.620711]}}, {"type": "Feature", "properties": {"type": "way", "id": 523277519, "tags": {"building": "yes", "heritage": "2", "name": "Haurvig Redningsstation", "start_date": "1887", "tourism": "museum", "wikidata": "Q55394605"}}, "geometry": {"type": "Point", "coordinates": [8.1544373, 55.9449238]}}, {"type": "Feature", "properties": {"type": "way", "id": 523250413, "tags": {"building": "yes", "name": "Nymindegab Redningsstation", "tourism": "museum", "wikidata": "Q12329467", "wikipedia": "da:Nymindegab Redningsstation"}}, "geometry": {"type": "Point", "coordinates": [8.189971, 55.8108806]}}, {"type": "Feature", "properties": {"type": "way", "id": 356092576, "tags": {"name": "Nymindegab Museum", "tourism": "museum", "wheelchair": "yes", "wheelchair:description": "2 ausgewiesene Behindertenparkpl\u00e4tze vor der T\u00fcr", "wikidata": "Q7071183", "wikipedia": "da:Nymindegab Museum"}}, "geometry": {"type": "Point", "coordinates": [8.1976395, 55.8173177]}}, {"type": "Feature", "properties": {"type": "way", "id": 469542256, "tags": {"name": "G\u00e5semandens G\u00e5rd", "operator": "Ringk\u00f8bing-Skjern Museum", "tourism": "museum", "website": "http://www.levendehistorie.dk/Forside-4"}}, "geometry": {"type": "Point", "coordinates": [8.3326293, 55.8380149]}}, {"type": "Feature", "properties": {"type": "way", "id": 486370256, "tags": {"building": "yes", "fvst:navnelbnr": "41904", "name": "Danmarks Flymuseum", "tourism": "museum", "website": "http://flymuseum.dk/", "wheelchair": "yes", "wikidata": "Q1164901", "wikipedia": "da:Danmarks Flymuseum"}}, "geometry": {"type": "Point", "coordinates": [8.3460454, 55.992066]}}, {"type": "Feature", "properties": {"type": "way", "id": 223173953, "tags": {"building": "public", "name": "Ringk\u00f8bing Museum", "tourism": "museum", "wikidata": "Q12333535", "wikipedia": "da:Ringk\u00f8bing Museum"}}, "geometry": {"type": "Point", "coordinates": [8.2473291, 56.0882392]}}, {"type": "Feature", "properties": {"type": "way", "id": 781702598, "tags": {"name": "Bunker", "tourism": "museum"}}, "geometry": {"type": "Point", "coordinates": [8.2416192, 56.0956846]}}, {"type": "Feature", "properties": {"type": "way", "id": 401721198, "tags": {"building": "yes", "name": "Smedenes Hus", "tourism": "museum", "website": "http://6940.dk/foreninger-fonde/smedenes-hus"}}, "geometry": {"type": "Point", "coordinates": [8.3876422, 56.0266114]}}, {"type": "Feature", "properties": {"type": "way", "id": 480092423, "tags": {"building": "yes", "name": "I. C. Christensens Hus", "tourism": "museum", "website": "http://www.jcchristensen.dk/"}}, "geometry": {"type": "Point", "coordinates": [8.2826128, 56.1455955]}}, {"type": "Feature", "properties": {"type": "way", "id": 197476399, "tags": {"building": "yes", "name": "Strandingsmuseum St. George", "tourism": "museum", "website": "https://www.strandingsmuseet.dk/", "wikidata": "Q12337439", "wikipedia": "da:Strandingsmuseum St. George"}}, "geometry": {"type": "Point", "coordinates": [8.1186265, 56.3732519]}}, {"type": "Feature", "properties": {"type": "way", "id": 198579378, "tags": {"building": "yes", "fee": "no", "tourism": "museum"}}, "geometry": {"type": "Point", "coordinates": [8.1194438, 56.3732364]}}, {"type": "Feature", "properties": {"type": "way", "id": 306435750, "tags": {"building": "yes", "museum": "person", "name": "Kaj Munks Pr\u00e6steg\u00e5rd", "operator": "Ringk\u00f8bing-Skjern Museum", "subject": "Kaj Munk", "subject:wikidata": "Q551699", "subject:wikipedia": "da:Kaj Munk", "tourism": "museum", "website": "https://levendehistorie.dk/kajmunk"}}, "geometry": {"type": "Point", "coordinates": [8.1845437, 56.248666]}}, {"type": "Feature", "properties": {"type": "way", "id": 306435752, "tags": {"building": "yes", "museum": "person", "name": "Kaj Munks Pr\u00e6steg\u00e5rd", "operator": "Ringk\u00f8bing-Skjern Museum", "subject": "Kaj Munk", "subject:wikidata": "Q551699", "subject:wikipedia": "da:Kaj Munk", "tourism": "museum", "website": "https://levendehistorie.dk/kajmunk"}}, "geometry": {"type": "Point", "coordinates": [8.1844461, 56.2489172]}}, {"type": "Feature", "properties": {"type": "way", "id": 232040856, "tags": {"building": "yes", "name": "N\u00f8rre Vosborg", "tourism": "museum", "website": "https://nrvosborg.dk/"}}, "geometry": {"type": "Point", "coordinates": [8.331285, 56.3266311]}}, {"type": "Feature", "properties": {"type": "way", "id": 605365260, "tags": {"building": "yes", "historic": "building", "name": "Fjaltring Redningsstation", "tourism": "museum", "wikidata": "Q55392563", "wikimedia_commons": "File:Redningsstation Fjaltring 1.jpg"}}, "geometry": {"type": "Point", "coordinates": [8.1306328, 56.4698779]}}, {"type": "Feature", "properties": {"type": "way", "id": 214449423, "tags": {"building": "yes", "name": "Bovbjerg Mini-Museum", "tourism": "museum"}}, "geometry": {"type": "Point", "coordinates": [8.1182699, 56.5250148]}}, {"type": "Feature", "properties": {"type": "way", "id": 233818190, "tags": {"building": "house", "description": "Udstilling af den afd\u00f8de malers efterladte v\u00e6rker og m\u00f8bler mm", "museum": "person", "name": "Jens S\u00f8ndergaards Museum", "tourism": "museum", "website": "http://jenssoendergaard.dk/", "wikidata": "Q12319471", "wikipedia": "da:Jens S\u00f8ndergaards Museum"}}, "geometry": {"type": "Point", "coordinates": [8.1187089, 56.5258666]}}, {"type": "Feature", "properties": {"type": "way", "id": 439035623, "tags": {"building": "house", "name": "Hygum Kunstmuseum", "source": "DR - Aftenshowet", "subject": "arts", "tourism": "museum", "website": "http://hygumkunstmuseum.dk"}}, "geometry": {"type": "Point", "coordinates": [8.2213547, 56.5922793]}}, {"type": "Feature", "properties": {"type": "way", "id": 378111929, "tags": {"building": "yes", "name": "Lemvig Museum", "tourism": "museum", "website": "http://www.lemvigmuseum.dk", "wikidata": "Q6521622", "wikipedia": "da:Lemvig Museum"}}, "geometry": {"type": "Point", "coordinates": [8.3018527, 56.5494962]}}, {"type": "Feature", "properties": {"type": "way", "id": 112887366, "tags": {"building": "yes", "name": "R\u00f8m\u00f8 Mini Museum", "opening_hours": "Mo-Su,PH 00:00-24:00", "tourism": "museum", "wikimedia_commons": "File:R\u00f8m\u00f8 MiniMuseum.jpg"}}, "geometry": {"type": "Point", "coordinates": [8.5455026, 55.1420309]}}, {"type": "Feature", "properties": {"type": "way", "id": 112887387, "tags": {"alt_name": "Naturcenter T\u00f8nnisg\u00e5rd", "building": "museum", "fvst:navnelbnr": "78276", "name": "T\u00f8nnisg\u00e5rd Naturcenter", "phone": "+45 74755257", "tourism": "museum", "website": "http://www.tonnisgaard.dk/", "wikimedia_commons": "File:T\u00f8nnisg\u00e5rd.jpg"}}, "geometry": {"type": "Point", "coordinates": [8.5463596, 55.1422229]}}, {"type": "Feature", "properties": {"type": "way", "id": 130918337, "tags": {"alt_name": "Danmarks mindste skole", "building": "yes", "fee": "no", "historic": "yes", "name": "Toftum Skole", "note": "Var i brug indtil 1874", "official_name": "Toftum gamle skole", "opening_hours": "May-Sep 10:00-18:00; Mo off", "start_date": "1784", "tourism": "museum", "wheelchair": "no", "wikidata": "Q2438737"}}, "geometry": {"type": "Point", "coordinates": [8.5555723, 55.1653075]}}, {"type": "Feature", "properties": {"type": "way", "id": 130918397, "tags": {"building": "yes", "fee": "yes", "historic": "yes", "internet_access": "wlan", "internet_access:fee": "no", "name": "Kommand\u00f8rg\u00e5rden", "opening_hours": "May-Sep Tu-Su 10:00-17:00; Oct Tu-Su 10:00-15:00; easter - 3days-easter+1 days 10:00-15:00", "operator": "Nationalmuseet", "phone": "+45 74755276", "source": "www.natmus.dk", "tourism": "museum", "wikidata": "Q1780081"}}, "geometry": {"type": "Point", "coordinates": [8.5554581, 55.16627]}}, {"type": "Feature", "properties": {"type": "way", "id": 93845436, "tags": {"building": "yes", "fee": "no", "name": "M\u00f8llehuset", "tourism": "museum", "wikimedia_commons": "File:M\u00f8llehuset Ballum.jpg"}}, "geometry": {"type": "Point", "coordinates": [8.6953726, 55.1325018]}}, {"type": "Feature", "properties": {"type": "way", "id": 93845430, "tags": {"alt_name": "Markmandens hus", "building": "house", "heritage": "2", "historic": "house", "name": "Markmandshuset", "start_date": "1811", "tourism": "attraction", "wikidata": "Q26237268"}}, "geometry": {"type": "Point", "coordinates": [8.7039642, 55.141293]}}, {"type": "Feature", "properties": {"type": "way", "id": 419270714, "tags": {"layer": "-1", "location": "underground", "name": "Hjemsted Oldtidspark", "note": "This museum is underground. The size is a rough guess from memory. The shape is too complex for me to recreate from memory. The entry is marked. The exit is via corkskrew stairs to the Northfarm.", "tourism": "museum"}}, "geometry": {"type": "Point", "coordinates": [8.741829, 55.1533338]}}, {"type": "Feature", "properties": {"type": "way", "id": 159975865, "tags": {"alt_name": "Mand\u00f8 Museum", "building": "yes", "name": "Mand\u00f8huset", "start_date": "1831", "tourism": "museum", "website": "https://mandoehuset.dk/", "wikidata": "Q12325887", "wikipedia": "da:Mand\u00f8huset"}}, "geometry": {"type": "Point", "coordinates": [8.5373349, 55.2740478]}}, {"type": "Feature", "properties": {"type": "way", "id": 241140612, "tags": {"building": "yes", "name": "Det gamle spr\u00f8jtehus", "tourism": "museum"}}, "geometry": {"type": "Point", "coordinates": [8.4709536, 55.3495267]}},