{"version": 0.6, "generator": "Overpass API 0.7.56.7 b85c4387", "osm3s": {"timestamp_osm_base": "2021-03-03T10:59:43Z", "timestamp_areas_base": "2021-03-03T08:19:27Z", "copyright": "The data included in this document is from www.openstreetmap.org. The data is made available under ODbL."}, "elements": [{"type": "node", "id": 5776422649, "lat": 39.1108574, "lon": 8.366614, "tags": {"email": "fondazionemacc@gmail.com", "name": "Fondazione MACC - Museo d'Arte Contemporanea Calasetta", "opening_hours": "We-Su 18:00-21:00", "phone": "0781 887219", "tourism": "museum", "website": "http://www.fondazionemacc.it/"}}, {"type": "node", "id": 7908579251, "lat": 39.1371741, "lon": 8.3117892, "tags": {"addr:city": "Carloforte", "addr:country": "IT", "addr:housename": "Torre di San Vittorio", "addr:housenumber": "51", "addr:postcode": "09014", "addr:street": "Viale Osservatorio Astronomico", "name": "Museo Multimediale della Torre San Vittorio", "tourism": "museum"}}, {"type": "node", "id": 6449230973, "lat": 38.968387, "lon": 8.7743667, "tags": {"name": "Casa baronale Sanjust", "tourism": "museum"}}, {"type": "node", "id": 5358948309, "lat": 39.0699934, "lon": 8.4516834, "tags": {"name": "EcoMuseo del Maestro di Tela Chiara Vigo", "tourism": "museum"}}, {"type": "node", "id": 6441408938, "lat": 39.0709574, "lon": 8.4497494, "tags": {"addr:city": "Sant'Antioco", "addr:postcode": "09017", "addr:street": "Via Necropoli", "email": "archeotur@tiscali.it", "name": "Museo Etnografico Su Magasinu De Su Binu", "opening_hours": "Apr 01-Sep 30 09:00-19:00; Oct 01-15 09:00-13:00,15:30-20:00; Oct 16-Mar 31 09:00-13:00,15:00-18:00", "operator": "Cooperativa Archeotur", "phone": "+39 389 0505107", "tourism": "museum", "website": "http://mabsantantioco.it", "wikidata": "Q55375378"}}, {"type": "node", "id": 6441437788, "lat": 39.0707655, "lon": 8.4497747, "tags": {"addr:city": "Sant'Antioco", "addr:housenumber": "18/A", "addr:postcode": "09017", "addr:street": "Via Necropoli", "email": "archeotur@tiscali.it", "name": "Villaggio Ipogeico", "opening_hours": "Apr 01-Sep 30 09:00-19:00; Oct 01-15 09:00-13:00,15:30-20:00; Oct 16-Mar 31 09:00-13:00,15:00-18:00", "operator": "Cooperativa Archeotur", "phone": "+39 389 0505107", "tourism": "museum", "website": "http://mabsantantioco.it"}}, {"type": "node", "id": 1325429081, "lat": 39.1632259, "lon": 8.5095762, "tags": {"name": "Miniera di Serbariu - Museo del Carbone", "tourism": "museum", "wikidata": "Q3867938", "wikipedia": "it:Museo del carbone"}}, {"type": "node", "id": 1325694466, "lat": 39.1635901, "lon": 8.5250173, "tags": {"name": "Museo Archeologico Villa Sulcis", "tourism": "museum", "wikidata": "Q27992761"}}, {"type": "node", "id": 3347710629, "lat": 39.2779261, "lon": 8.5438665, "tags": {"name": "Museo di Genna Luas", "tourism": "museum", "wikidata": "Q68662024"}}, {"type": "node", "id": 966997488, "lat": 39.3114146, "lon": 8.5320317, "tags": {"name": "Museo dell'Arte Mineraria", "tourism": "museum", "website": "http://www.museoartemineraria.it", "wikidata": "Q55386964"}}, {"type": "node", "id": 956185779, "lat": 39.4004335, "lon": 8.4006128, "tags": {"name": "Museo del Minatore", "tourism": "museum", "website": "http://www.museobuggerru.it/", "wikidata": "Q68664709"}}, {"type": "node", "id": 956151760, "lat": 39.4357885, "lon": 8.4974693, "tags": {"name": "Museo Etnografico", "tourism": "museum", "wikidata": "Q55375345"}}, {"type": "node", "id": 5079326820, "lat": 39.2238165, "lon": 9.0244765, "tags": {"addr:city": "Assemini", "addr:postcode": "09032", "addr:unit": "Zona industriale Macchiareddu", "email": "faisaline@fondoambiente.it", "name": "Saline Conti Vecchi", "opening_hours": "May 27-Jun 16: 10:00-18:00; Jun 17-Sep 3: 09:00-12:30,16:30-20:30; Sep 4-Oct 31: 10:00-18:00; Nov 1-Jan 7: 10:00-17:00; Dec 24-26,Jan 1 off; Jan 8- Feb 28: \"on appointment\"", "opening_hours:url": "http://www.visitfai.it/salinecontivecchi/la-tua-visita/info-e-orari", "operator": "Fondo Ambiente Italiano", "phone": "070 247032", "tourism": "museum", "website": "http://www.visitfai.it/salinecontivecchi/"}}, {"type": "node", "id": 1670392027, "lat": 39.2145776, "lon": 9.1146284, "tags": {"contact:email": "info@mutseu.org", "contact:phone": "+39 391 46 94 189", "contact:website": "http://www.mutseu.org", "name": "Museo Sant'Eulalia", "opening_hours": "Nov 01-Mar 21 09:30-16:00; Mar 22-Oct 31 10:00-13:00,16:00-19:00", "tourism": "museum", "wikidata": "Q3867981", "wikipedia": "it:Museo del tesoro di Sant'Eulalia"}}, {"type": "node", "id": 5104812757, "lat": 39.2186311, "lon": 9.1165683, "tags": {"addr:city": "Cagliari", "addr:housenumber": "6", "addr:postcode": "09123", "addr:street": "Piazza Palazzo", "museum": "art", "name": "Palazzo di Citt\u00e0", "opening_hours:covid19": "Mo-Fr 09:00-21:30; Sa, Su, PH off", "operator": "Comune di Cagliari", "operator:type": "public", "phone": "+39 070 6776482", "tourism": "museum", "website": "https://sistemamuseale.museicivicicagliari.it/palazzo-di-citta/"}}, {"type": "node", "id": 4229466617, "lat": 39.2212794, "lon": 9.1165149, "tags": {"addr:city": "Cagliari", "addr:housenumber": "4", "addr:street": "Piazza Indipendenza", "museum": "history", "name": "Ex Regio Museo Archeologico", "source": "Regione Autonoma della Sardegna (www.sardegnageoportale.it)", "tourism": "museum"}}, {"type": "node", "id": 4366976717, "lat": 39.2228071, "lon": 9.1167589, "tags": {"addr:city": "Cagliari", "addr:housenumber": "1", "addr:postcode": "09124", "addr:street": "Piazza Arsenale", "fee": "no", "name": "Museo Etnografico Regionale - Collezione Cocco", "opening_hours": "Tu-Su 09:00-20:00", "operator": "ISRE - Istituto Superiore Etnografico della Sardegna", "phone": "+39 346 9724935", "phone_1": "+39 0784 242900", "tourism": "museum", "website": "http://www.isresardegna.it", "wikidata": "Q17636861", "wikipedia": "it:Museo sardo di antropologia ed etnografia"}}, {"type": "node", "id": 4449216135, "lat": 39.2220051, "lon": 9.1169675, "tags": {"contact:website": "http://pacs.unica.it/cere/", "name": "Museo delle cere anatomiche Clemente Susini", "opening_hours": "Tu-Su 09:00-13:00,16:00-19:00", "tourism": "museum", "wikidata": "Q3868140", "wikipedia": "it:Museo delle cere anatomiche Clemente Susini"}}, {"type": "node", "id": 4592425127, "lat": 39.2228753, "lon": 9.1170527, "tags": {"contact:facebook": "https://www.facebook.com/PINACOTECA-NAZIONALE-CAGLIARI-128812843828111/", "contact:twitter": "@PinacotecaCA", "contact:website": "http://www.pinacoteca.cagliari.beniculturali.it/", "email": "pm-sar.pinacoteca.cagliari@beniculturali.it", "name": "Pinacoteca Nazionale", "opening_hours": "Tu-Su 09:00-20:00", "phone": "+39 070 662496", "tourism": "museum", "website": "http://musei.sardegna.beniculturali.it/musei/pinacoteca-nazionale-di-cagliari/", "wikidata": "Q3905131", "wikipedia": "it:Pinacoteca nazionale (Cagliari)"}}, {"type": "node", "id": 4592425128, "lat": 39.2228071, "lon": 9.1173005, "tags": {"addr:city": "Cagliari", "addr:housenumber": "1", "addr:postcode": "09123", "addr:street": "Piazza Arsenale", "email": "infoeprenotazioni@museicivicicagliari.it", "museum": "art", "name": "Museo civico d'arte siamese Stefano Cardu", "opening_hours:covid19": "Mo-Fr 10:00-18:00; Sa, Su, PH off", "operator": "Comune di Cagliari", "operator:type": "public", "phone": "+ 39 070 6776543", "tourism": "museum", "website": "https://sistemamuseale.museicivicicagliari.it/museo-darte-siamese/", "wikidata": "Q3867803", "wikipedia": "it:Museo civico d'arte siamese Stefano Cardu"}}, {"type": "node", "id": 4614528251, "lat": 39.2223534, "lon": 9.1166477, "tags": {"addr:city": "Cagliari", "addr:housenumber": "1", "addr:postcode": "09124", "addr:street": "Piazza Arsenale", "name": "Museo Archeologico Nazionale di Cagliari", "name:en": "National Archaeological Museum of Cagliari", "name:es": "Museo Arqueol\u00f3gico Nacional de Cagliari", "name:it": "Museo Archeologico Nazionale di Cagliari", "name:ru": "\u041d\u0430\u0446\u0438\u043e\u043d\u0430\u043b\u044c\u043d\u044b\u0439 \u0430\u0440\u0445\u0435\u043e\u043b\u043e\u0433\u0438\u0447\u0435\u0441\u043a\u0438\u0439 \u043c\u0443\u0437\u0435\u0439 \u041a\u0430\u043b\u044c\u044f\u0440\u0438", "opening_hours": "09:00-20:00", "tourism": "museum", "wikidata": "Q1151133"}}, {"type": "node", "id": 7804596710, "lat": 39.2208246, "lon": 9.1166925, "tags": {"name": "Casa Massonica", "tourism": "museum"}}, {"type": "node", "id": 3319949939, "lat": 39.2086163, "lon": 9.1252652, "tags": {"contact:website": "http://www.bonaria.eu/storia-di-bonaria/museo/museo/", "name": "Museo di Bonaria", "tourism": "museum", "wikidata": "Q3868165", "wikipedia": "it:Museo di Bonaria"}}, {"type": "node", "id": 3319949938, "lat": 39.216249, "lon": 9.1312832, "tags": {"name": "Museo dell'arciconfraternita dei Genovesi", "tourism": "museum", "wikidata": "Q3868009", "wikipedia": "it:Museo dell'arciconfraternita dei Genovesi"}}, {"type": "node", "id": 2219334798, "lat": 39.4196493, "lon": 8.9235526, "tags": {"tourism": "museum"}}, {"type": "node", "id": 3818550014, "lat": 39.2707095, "lon": 9.1238237, "tags": {"name": "Museo sardo di Antropologia ed Etnografia", "tourism": "museum"}}, {"type": "node", "id": 1718551729, "lat": 39.5266392, "lon": 8.5981228, "tags": {"name": "Museo del Coltello Sardo", "tourism": "museum", "website": "http://www.museodelcoltello.it/", "wikidata": "Q55375732"}}, {"type": "node", "id": 8068915849, "lat": 39.7146771, "lon": 8.6445247, "tags": {"addr:city": "Terralba", "addr:postcode": "09098", "addr:street": "Via Giovanni Matteo De Candia", "museum": "gallery", "name": "Museo Pinacoteca Eliseo", "tourism": "museum"}}, {"type": "node", "id": 2280041644, "lat": 39.7238804, "lon": 8.6341501, "tags": {"name": "Archivio Storico Comunale", "tourism": "museum"}}, {"type": "node", "id": 2614811491, "lat": 39.6807929, "lon": 8.7774491, "tags": {"tourism": "museum"}}, {"type": "node", "id": 2133931594, "lat": 39.786032, "lon": 8.6650419, "tags": {"tourism": "museum"}}, {"type": "node", "id": 3708371943, "lat": 39.6327749, "lon": 8.8683821, "tags": {"name": "Museo Archeologico Genna Maria", "tourism": "museum", "website": "http://www.gennamaria.it/", "wikidata": "Q27992939"}}, {"type": "node", "id": 1996998154, "lat": 39.6715679, "lon": 8.8880496, "tags": {"addr:city": "Siddi", "addr:housenumber": "7/8", "addr:postcode": "09020", "addr:street": "Piazza Leonardo da Vinci", "air_conditioning": "yes", "description": "Il Museo Ornitologico della Sardegna si trova a Siddi, borgo rurale che sorge fra morbide colline nel cuore della Marmilla.\nAffacciato sulla piazza principale del paese, il museo \u00e8 custodito in una parte dell\u2019edificio che ha ospitato l\u2019ospedale Managu, ra", "email": "coopvillasilli@gmail.com", "image": "https://www.museoparcosiddi.it/gallery/galleria-fotografica/Museo/#prettyPhoto[Galleria%20fotografica]/0/", "internet_access": "wlan", "museum": "nature", "name": "Museo Ornitologico della Sardegna", "opening_hours": "tutti i giorni 10:00-13-00 /16:00 -19:00 - Chiuso il Luned\u00ec", "opening_hours:covid19": "off", "operator": "Cooperativa Villa Silli", "operator:type": "private_for_profit", "phone": "070 939888 / +39 347 5116787", "tourism": "museum", "website": "https://www.museoparcosiddi.it", "wheelchair": "yes", "wikidata": "Q55375743"}}, {"type": "node", "id": 8240058385, "lat": 39.6717749, "lon": 8.8887699, "tags": {"addr:city": "Siddi", "addr:housenumber": "2", "addr:postcode": "09020", "addr:street": "Via Roma", "museum": "history", "name": "Museo delle Tradizioni Agroalimentari Casa Steri", "opening_hours": "su prenotazione", "opening_hours:covid19": "closed", "operator": "Associazione Casa Steri", "operator:type": "private", "tourism": "museum"}}, {"type": "node", "id": 3803609287, "lat": 39.7133972, "lon": 8.8743286, "tags": {"name": "Casa Museo", "tourism": "museum", "wikidata": "Q72682195"}}, {"type": "node", "id": 1774615135, "lat": 39.7028949, "lon": 9.0006761, "tags": {"name": "Polo museale casa Zapata", "tourism": "museum", "wheelchair": "yes", "wikidata": "Q67370033"}}, {"type": "node", "id": 4592619941, "lat": 39.7155148, "lon": 8.958509, "tags": {"name": "Museo dell'Olio", "opening_hours": "Tu-Su 10:00-13:00,15:00-19:00", "tourism": "museum"}}, {"type": "node", "id": 4592619942, "lat": 39.7156843, "lon": 8.9585506, "tags": {"name": "Museo degli Strumenti Musicali Sardi", "opening_hours": "Tu-Su 10:00-13:00,15:00-19:00", "tourism": "museum"}}, {"type": "node", "id": 299608181, "lat": 39.7057508, "lon": 8.9975913, "tags": {"amenity": "parking", "name": "Barumini - Centro Giovanni Lilliu", "tourism": "museum"}}, {"type": "node", "id": 3741499312, "lat": 39.7060113, "lon": 8.9943575, "tags": {"name": "Collezione Mineralogica \u201cPaolo Locci\u201d", "tourism": "museum", "wikidata": "Q67369840"}}, {"type": "node", "id": 3268779903, "lat": 39.7420252, "lon": 9.106909, "tags": {"addr:housenumber": "8", "addr:street": "Piazza San Giuseppe", "name": "Museo per l'Arte del rame e del tessuto", "tourism": "museum", "website": "http://www.marate.it/", "wikidata": "Q55375296"}}, {"type": "node", "id": 1885910019, "lat": 39.8544798, "lon": 9.0522513, "tags": {"addr:city": "Laconi", "addr:housenumber": "10", "addr:postcode": "08034", "addr:street": "Piazza Guglielmo Marconi", "alt_name": "Museo Delle Statue Menhir", "contact:mobile": "+39 342 3507760", "email": "menhirlaconi@tiscali.it", "email_1": "info@menhirmuseum.it", "facebook": "https://www.facebook.com/Menhir-Museum-Museo-della-Statuaria-Preistorica-in-Sardegna-281694675223975/", "fax": "+39 0782 869579", "name": "Menhir Museum - Museo della Statuaria Preistorica in Sardegna", "name:en": "Menhir Museum", "name:it": "Museo della Statuaria Preistorica in Sardegna", "name:sc": "Museu de is Pedras Fitas", "opening_hours": "Apr 01-Sep 30 Tu-Su 10:00-13:00,15:30-19:00; Oct 01-Mar 31 Tu-Su 10:00-13:00,15:00-18:00; Dec 25 Off; Jan 01 Off", "operator": "Consorzio Turistico Sa Perda \u2018e Iddocca", "phone": "+39 0782 693238", "tourism": "museum", "website": "http://www.menhirmuseum.eu", "website_1": "http://menhirmuseum.it/", "wikidata": "Q3868111", "wikipedia": "it:Museo della statuaria preistorica in Sardegna"}}, {"type": "node", "id": 4497986746, "lat": 39.1437612, "lon": 9.518449, "tags": {"addr:city": "Villasimius", "addr:housenumber": "5", "addr:postcode": "09049", "addr:street": "Via Aventino Frau", "name": "Museo Archeologico di Villasimius", "source": "Regione Autonoma della Sardegna", "tourism": "museum", "website": "http://www.villasimiusweb.com", "wikidata": "Q55375278"}}, {"type": "node", "id": 915433562, "lat": 39.3054646, "lon": 9.3944785, "tags": {"name": "Museo del Cervo Sardo", "tourism": "museum", "wikidata": "Q72686347"}}, {"type": "node", "id": 3668603616, "lat": 39.2365936, "lon": 9.4989492, "tags": {"name": "Museo del territorio di Castadias (antiche carceri)", "tourism": "museum"}}, {"type": "node", "id": 6466439358, "lat": 39.2975145, "lon": 9.6093329, "tags": {"name": "Ceas Centro di educazione ambientale - Naturalia", "operator": "Comune di Muravera - Fondazione FOMDA", "tourism": "museum"}}, {"type": "node", "id": 6466366638, "lat": 39.4195474, "lon": 9.5771534, "tags": {"description": "Il museo dedicato a Donna Francesca Sanna Sulis imprenditrice e benefattrice muraverese, \u00e8 un piccolo museo al femminile.", "name": "MIF Museo dell'Imprenditoria Femminile Donna Francesca Sanna Sulis", "tourism": "museum"}}, {"type": "node", "id": 6466366639, "lat": 39.4186509, "lon": 9.576749, "tags": {"description": "Sezione etnografica del MIF, la Casa dei Candelai presenta al suo interno laboratori di antichi mestieri artigiani come la fabbricazione artigianale delle candele, attivit\u00e0 svolta dalla sua ultima abitante, Zia Savina.", "name": "Mif Museo dell'Imprenditoria Femminile - Sezione etnografica Casa dei Candelai", "tourism": "museum"}}, {"type": "node", "id": 3461259827, "lat": 39.5222156, "lon": 9.3835401, "tags": {"addr:city": "Armungia", "addr:postcode": "09040", "addr:street": "Piazza Municipio", "name": "Museo Etnografico 'Sa domu de is ainas'", "tourism": "museum"}}, {"type": "node", "id": 3983086257, "lat": 39.8396926, "lon": 9.3241201, "tags": {"addr:city": "Seui", "addr:housenumber": "38", "addr:postcode": "08037", "addr:street": "Via della Sapienza", "email": "eremigu@tiscali.it", "facebook": "https://www.facebook.com/Musei-di-Seui-122855714408868", "fee": "yes", "layer": "1", "name": "Galleria Civica", "opening_hours": "Apr-Sep: Tu-Su 09:00-13:00,15:30-19:30; Oct-Mar: Tu-Su 09:00-13:00,15:00-17:30", "operator": "Percorso museale Sehuiense - Societ\u00e0 cooperativa S'eremigu a r.l.", "phone": "+39 0782 539002", "tourism": "museum", "website": "http://museiseui.altervista.org", "wheelchair": "yes", "wikidata": "Q69547768"}}, {"type": "node", "id": 2005579920, "lat": 37.7162, "lon": 12.5045, "tags": {"addr:housenumber": "34", "addr:street": "Via Gianinea", "name": "Museo della Civilt\u00e0 Contadina", "ref:datiopen": "40", "source": "DatiOpen.it - Provincia Regionale di Trapani", "source:url": "http://www.datiopen.it/it/data/Musei_della_Provincia_di_Trapani", "tourism": "museum"}}, {"type": "node", "id": 2005579923, "lat": 37.742, "lon": 12.481, "tags": {"addr:housenumber": "198", "name": "Museo Mirabile delle Tradizioni ed Arti Popolari", "ref:datiopen": "22", "source": "DatiOpen.it - Provincia Regionale di Trapani", "source:url": "http://www.datiopen.it/it/data/Musei_della_Provincia_di_Trapani", "tourism": "museum"}}, {"type": "node", "id": 2005579926, "lat": 37.7987, "lon": 12.434, "tags": {"addr:housenumber": "57", "addr:postcode": "91025", "addr:street": "Via Giuseppe Garraffa", "name": "Museo degli Arazzi", "opening_hours": "Tu, Th 09:00-13:00, 16:30-19:30; We, Fr-Su 09:00-13:00", "phone": "+39 0923 711327", "ref:datiopen": "23", "source": "DatiOpen.it - Provincia Regionale di Trapani", "source:url": "http://www.datiopen.it/it/data/Musei_della_Provincia_di_Trapani", "tourism": "museum", "wikidata": "Q3867883"}}, {"type": "node", "id": 4076445601, "lat": 38.0150078, "lon": 12.5065643, "tags": {"addr:street": "Via", "description": "Modern and contemporary art", "name": "Museo G. Perricone", "opening_hours": "Tu-Su 10:30-12:30; Tu-Su 16:30-19:30", "tourism": "museum"}}, {"type": "node", "id": 6934818268, "lat": 38.0176402, "lon": 12.5121533, "tags": {"addr:city": "Trapani", "addr:housenumber": "70", "addr:postcode": "91100", "addr:street": "Via Giuseppe Garibaldi", "description": "Museo della stampa tipografica - Collezione Tipopgrafia La Combattente", "name": "Typographiae Museo della Stampa", "opening_hours": "24/7", "operator": "Regione siciliana", "operator:type": "public", "tourism": "museum", "website": "http://www.regione.sicilia.it/beniculturali/soprintp/"}}, {"type": "node", "id": 2005579932, "lat": 37.9817599, "lon": 12.5618651, "tags": {"addr:housenumber": "46", "name": "Museo della Civilt\u00e0 Preistorica", "ref:datiopen": "28", "source": "DatiOpen.it - Provincia Regionale di Trapani", "source:url": "http://www.datiopen.it/it/data/Musei_della_Provincia_di_Trapani", "tourism": "museum", "wikidata": "Q67203024"}}, {"type": "node", "id": 7925581484, "lat": 37.6554446, "lon": 12.5886935, "tags": {"name": "Mazara in miniatura", "tourism": "museum"}}, {"type": "node", "id": 2005579922, "lat": 37.633661, "lon": 12.7473878, "tags": {"addr:housenumber": "2", "name": "Museo Etnografico", "ref:datiopen": "5", "source": "DatiOpen.it - Provincia Regionale di Trapani", "source:url": "http://www.datiopen.it/it/data/Musei_della_Provincia_di_Trapani", "tourism": "museum", "wikidata": "Q66057509"}}, {"type": "node", "id": 1882538216, "lat": 37.6764251, "lon": 12.7915397, "tags": {"addr:housenumber": "50", "contact:website": "http://www.selinunte.net/museo_cv.htm", "name": "Museo Civico", "ref:datiopen": "9", "source": "DatiOpen.it - Provincia Regionale di Trapani", "source:url": "http://www.datiopen.it/it/data/Musei_della_Provincia_di_Trapani", "tourism": "museum"}}, {"type": "node", "id": 6064375088, "lat": 37.5393858, "lon": 13.0442104, "tags": {"addr:housenumber": "30", "addr:street": "Via Cartabubbo", "name": "Casa museo del Sapone", "tourism": "museum"}}, {"type": "node", "id": 6576268347, "lat": 37.6486458, "lon": 13.1119193, "tags": {"name": "Museo Arte Sacra", "tourism": "museum"}}, {"type": "node", "id": 6576385606, "lat": 37.649285, "lon": 13.1125736, "tags": {"name": "Palazzo Truncali Panitteri", "tourism": "museum"}}, {"type": "node", "id": 6576394930, "lat": 37.6491337, "lon": 13.1120848, "tags": {"name": "Museo etnoantropologico della terra di Zabut", "tourism": "museum"}}, {"type": "node", "id": 3382158200, "lat": 37.728258, "lon": 13.1844957, "tags": {"addr:city": "Contessa Entellina", "addr:postcode": "90030", "addr:street": "Piazza Umberto I", "tourism": "museum"}}, {"type": "node", "id": 6033667797, "lat": 37.5950664, "lon": 13.2897485, "tags": {"name": "Museo delle mummie", "tourism": "museum"}}, {"type": "node", "id": 2005579914, "lat": 37.8174, "lon": 12.8013, "tags": {"name": "Mostra di Cimeli del Risorgimento", "ref:datiopen": "36", "source": "DatiOpen.it - Provincia Regionale di Trapani", "source:url": "http://www.datiopen.it/it/data/Musei_della_Provincia_di_Trapani", "tourism": "museum"}}, {"type": "node", "id": 2005579918, "lat": 37.8173798, "lon": 12.8013085, "tags": {"name": "Museo Civico", "ref:datiopen": "33", "source": "DatiOpen.it - Provincia Regionale di Trapani", "source:url": "http://www.datiopen.it/it/data/Musei_della_Provincia_di_Trapani", "tourism": "museum"}}, {"type": "node", "id": 2005579924, "lat": 37.7707, "lon": 12.8798, "tags": {"name": "Museo Nino Cordio", "ref:datiopen": "35", "source": "DatiOpen.it - Provincia Regionale di Trapani", "source:url": "http://www.datiopen.it/it/data/Musei_della_Provincia_di_Trapani", "tourism": "museum", "wikidata": "Q68318812"}}, {"type": "node", "id": 2005579927, "lat": 37.8020046, "lon": 12.8821141, "tags": {"addr:hamlet": "Contrada Salinella", "addr:housename": "Baglio Di Stefano", "name": "Museo del Granaio Al Baglio Di Stefano", "ref:datiopen": "18", "source": "DatiOpen.it - Provincia Regionale di Trapani", "source:url": "http://www.datiopen.it/it/data/Musei_della_Provincia_di_Trapani", "tourism": "museum"}}, {"type": "node", "id": 2005579933, "lat": 37.8020935, "lon": 12.8816895, "tags": {"addr:hamlet": "Contrada Salinella", "addr:housename": "Baglio Di Stefano", "name": "Museo delle Trame Mediterranee", "ref:datiopen": "16", "source": "DatiOpen.it - Provincia Regionale di Trapani", "source:url": "http://www.datiopen.it/it/data/Musei_della_Provincia_di_Trapani", "tourism": "museum"}}, {"type": "node", "id": 2005579917, "lat": 37.812, "lon": 12.875, "tags": {"name": "Museo Civico d'Arte Contemporanea", "ref:datiopen": "15", "source": "DatiOpen.it - Provincia Regionale di Trapani", "source:url": "http://www.datiopen.it/it/data/Musei_della_Provincia_di_Trapani", "tourism": "museum"}}, {"type": "node", "id": 1860894165, "lat": 37.78088, "lon": 12.9134789, "tags": {"name": "Castello di Rampinzeri", "tourism": "museum"}}, {"type": "node", "id": 6379006586, "lat": 37.9414823, "lon": 12.8351069, "tags": {"addr:city": "Calatafimi Segesta", "addr:housenumber": "1", "addr:postcode": "91013", "addr:street": "Strada Provinciale 57 Buseto Palizzolo - Bruca - Pocorobba - Segesta", "name": "Parco Archeologico Segesta", "name:en": "Segesta Archaeological Park", "name:ru": "\u0410\u0440\u0445\u0435\u043e\u043b\u043e\u0433\u0438\u0447\u0435\u0441\u043a\u0438\u0439 \u043f\u0430\u0440\u043a \u0421\u0435\u0433\u0435\u0441\u0442\u0430", "opening_hours": "Jan 1- Feb 28 Mo-Su 09:00-17:00; Mar 1-Mar 30 Mo-Su 09:00-18:30; Mar 31-Sep 30 Mo-Su 09:00-19:30; Oct 1-Oct 26 Mo-Su 09:00-18:30; Oct 27-Dec 31 Mo-Su 09:00-17:00", "phone": "+39 0924 952356", "tourism": "museum", "website": "https://www.segestawelcome.com/main/"}}, {"type": "node", "id": 2005579919, "lat": 38.0384609, "lon": 12.5880736, "tags": {"addr:street": "Piazza San Domenico", "name": "Museo Daniel Chalonge", "ref:datiopen": "13", "source": "DatiOpen.it - Provincia Regionale di Trapani", "source:url": "http://www.datiopen.it/it/data/Musei_della_Provincia_di_Trapani", "tourism": "museum", "wikidata": "Q3664811", "wikipedia": "it:Centro di Cultura Scientifica Ettore Majorana"}}, {"type": "node", "id": 2005579925, "lat": 38.0384397, "lon": 12.5879919, "tags": {"addr:street": "Piazza San Domenico", "name": "Museo Paul Adrien Maurice Dirac", "ref:datiopen": "14", "source": "DatiOpen.it - Provincia Regionale di Trapani", "source:url": "http://www.datiopen.it/it/data/Musei_della_Provincia_di_Trapani", "tourism": "museum", "wikidata": "Q70333099"}}, {"type": "node", "id": 2005579915, "lat": 38.0783221, "lon": 12.67551, "tags": {"name": "Museo Casa del Pellegrino", "ref:datiopen": "10", "source": "DatiOpen.it - Provincia Regionale di Trapani", "source:url": "http://www.datiopen.it/it/data/Musei_della_Provincia_di_Trapani", "tourism": "museum"}}, {"type": "node", "id": 2005579931, "lat": 38.0129064, "lon": 12.7120973, "tags": {"name": "Museo della Civilt\u00e0 Locale", "ref:datiopen": "3", "source": "DatiOpen.it - Provincia Regionale di Trapani", "source:url": "http://www.datiopen.it/it/data/Musei_della_Provincia_di_Trapani", "tourism": "museum"}}, {"type": "node", "id": 2005579929, "lat": 38.1759773, "lon": 12.7341893, "tags": {"contact:website": "http://www.santuariodisanvitolocapo.it/museo/museo.html", "name": "Museo del Santuario", "ref:datiopen": "37", "source": "DatiOpen.it - Provincia Regionale di Trapani", "source:url": "http://www.datiopen.it/it/data/Musei_della_Provincia_di_Trapani", "tourism": "museum", "wikidata": "Q55359847"}}, {"type": "node", "id": 2005579921, "lat": 38.0305312, "lon": 12.8816283, "tags": {"contact:email": "info@almadarig.com", "contact:fax": "+39 0924 33790", "contact:mobile": "+393313906634", "contact:website": "http://www.annalisabuccellato.it/", "name": "Museo Etno-Antropologico Annalisa Buccellato", "opening_hours": "Tu-Sa 10:30-12:30, 16:30-18:30", "ref:datiopen": "7", "ref:vatin": "IT93038690819", "source": "DatiOpen.it - Provincia Regionale di Trapani", "source:url": "http://www.datiopen.it/it/data/Musei_della_Provincia_di_Trapani", "tourism": "museum", "wikidata": "Q69555991"}}, {"type": "node", "id": 2005579928, "lat": 38.0279362, "lon": 12.8792467, "tags": {"name": "Museo del Mare", "ref:datiopen": "6", "source": "DatiOpen.it - Provincia Regionale di Trapani", "source:url": "http://www.datiopen.it/it/data/Musei_della_Provincia_di_Trapani", "tourism": "museum", "wikidata": "Q66057451"}}, {"type": "node", "id": 2005579930, "lat": 38.0303951, "lon": 12.8814822, "tags": {"name": "Museo dell'Acqua e dei Mulini ad Acqua", "ref:datiopen": "8", "source": "DatiOpen.it - Provincia Regionale di Trapani", "source:url": "http://www.datiopen.it/it/data/Musei_della_Provincia_di_Trapani", "tourism": "museum", "wikidata": "Q70865781"}}, {"type": "node", "id": 2664044959, "lat": 37.9795331, "lon": 12.9667542, "tags": {"name": "Museo Etnico, Agricolo, Pastorale e Artigianale", "tourism": "museum", "wikidata": "Q72703632"}}, {"type": "node", "id": 3154031669, "lat": 37.9811964, "lon": 12.9655769, "tags": {"name": "Museo d'arte sacra Basilica Santa Maria Assunta", "tourism": "museum", "website": "http://www.chiesamadrealcamo.it", "wikidata": "Q20009253", "wikipedia": "it:Museo d'arte sacra (Alcamo)"}}, {"type": "node", "id": 3874596957, "lat": 37.9620423, "lon": 13.1752017, "tags": {"addr:city": "San Cipirello", "addr:housenumber": "287", "addr:street": "Via roma", "name": "centro polifunzionale", "tourism": "museum", "wheelchair": "yes"}}, {"type": "node", "id": 4843420022, "lat": 37.8116492, "lon": 13.3018515, "tags": {"addr:housenumber": "7", "addr:postcode": "90034", "addr:street": "Via G. Valenti", "name": "C.I.D.M.A.", "name:it": "Centro Internazionale di Documentazione sulla Mafia e del Movimento Antimafia", "opening_hours": "Mo-Fr 11:00-13:00, 15:00-17:00", "phone": "+39 340 402 5601", "tourism": "museum", "website": "https://cidmacorleone.it/"}}, {"type": "node", "id": 6385323217, "lat": 38.0819916, "lon": 13.2927814, "tags": {"addr:city": "Monreale", "addr:housenumber": "2", "addr:postcode": "90046", "addr:street": "Via Arcivescovado", "name": "Museo Diocesano di Monreale", "source": "http://www.museodiocesanomonreale.it/index.php?option=com_content&view=article&id=33&Itemid=145", "tourism": "museum", "website": "http://www.museodiocesanomonreale.it", "wikidata": "Q16336836", "wikipedia": "it:Museo diocesano (Monreale)"}}, {"type": "node", "id": 1962531883, "lat": 38.1043965, "lon": 13.3470991, "tags": {"name": "Museo storico dei motori e dei meccanismi", "tourism": "museum", "url": "http://www.museomotori.unipa.it", "wikidata": "Q55105282"}}, {"type": "node", "id": 3321172961, "lat": 38.108694, "lon": 13.3324895, "tags": {"name": "Esposizione strumenti medici ex ospedale psichiatrico", "tourism": "museum"}}, {"type": "node", "id": 267673035, "lat": 38.1166201, "lon": 13.3410945, "tags": {"addr:city": "Palermo", "addr:postcode": "90135", "addr:street": "Piazza Zisa", "name": "museo dell'Islam", "tourism": "museum", "wheelchair": "no", "wikidata": "Q1954317", "wikipedia": "it:Museo d'arte islamica (Palermo)"}}, {"type": "node", "id": 2027074010, "lat": 38.1114372, "lon": 13.3531724, "tags": {"man_made": "observatory", "name": "Museo dell'Osservatorio Astronomico", "tourism": "museum", "wheelchair": "yes", "wikidata": "Q3886764", "wikipedia": "it:Osservatorio astronomico di Palermo"}}, {"type": "node", "id": 4056938289, "lat": 38.11373, "lon": 13.355544, "tags": {"addr:city": "Palermo", "addr:housenumber": "2", "addr:postcode": "90100", "addr:street": "Via Matteo Bonello", "name": "Museo Diocesano di Palermo (MUdiPA)", "tourism": "museum", "website": "http://www.museodiocesanopa.it", "wheelchair": "yes", "wheelchair:description": "Museo Diocesano nel Palazzo Arcivescovile di Palermo", "wikidata": "Q518412", "wikipedia": "it:Museo diocesano (Palermo)"}}, {"type": "node", "id": 2577234736, "lat": 38.1151739, "lon": 13.3599625, "tags": {"name": "Museo d'Arte Contemporanea della Sicilia", "tourism": "museum", "wikidata": "Q1421391", "wikipedia": "it:Palazzo Riso"}}, {"type": "node", "id": 7174955199, "lat": 38.1138883, "lon": 13.3573264, "tags": {"addr:city": "Palermo", "addr:housenumber": "452", "addr:postcode": "90134", "addr:street": "Corso Vittorio Emanuele", "description": "Le otto sale museali conservano i cimeli pi\u00f9 incredibili del mondo collezionistico della Mela. Dallo straordinario Apple I ad una raccolta di scatti inediti del suo fondatore Steve Jobs.", "email": "info@mecmuseum.it", "fee": "yes", "museum": "technology", "name": "MEC Museum", "opening_hours": "Tu-Sa 09:30-17:00; Su 09:00-12:00, 17:00-20:00", "phone": "+39 091 9891901", "start_date": "31/01/2020", "tourism": "museum", "website": "https://www.mecmuseum.it/"}}, {"type": "node", "id": 2320556452, "lat": 38.1165506, "lon": 13.3682238, "tags": {"name": "museo di Palazzo Mirto", "tourism": "museum", "wikidata": "Q3890489", "wikipedia": "it:Palazzo Mirto"}}, {"type": "node", "id": 2498804753, "lat": 38.1150762, "lon": 13.3658349, "tags": {"addr:city": "Palermo", "addr:housenumber": "21", "addr:postcode": "90133", "addr:street": "Via Sant'Anna", "name": "Galleria d'arte moderna \"Empedocle Restivo\"", "name:en": "Modern art gallery \"Empedocle Restivo\"", "opening_hours": "Tu-Su 09:30-18:30", "toilets:wheelchair": "yes", "tourism": "museum", "wheelchair": "yes", "wheelchair:description": "Galleria d'arte moderna Empedocle Restivo", "wikidata": "Q1492337", "wikipedia": "it:Galleria d'arte moderna Sant'Anna"}}, {"type": "node", "id": 2577229586, "lat": 38.1129109, "lon": 13.367352, "tags": {"addr:city": "Palermo", "addr:housenumber": "11", "addr:postcode": "90133", "addr:street": "Via Giuseppe Garibaldi", "contact:mobile": "+39 380 367 3773", "museum": "art", "name": "Museo delle maioliche \"Stanze al genio\"", "opening_hours": "Tu-Fr 16:00-18:00; Su 10:00-12:00; Su 10:30-11:30", "tourism": "museum", "website": "https://www.stanzealgenio.it/", "wikidata": "Q3968266", "wikipedia": "it:Stanze al Genio"}}, {"type": "node", "id": 8266578279, "lat": 38.113725, "lon": 13.3635427, "tags": {"addr:city": "Palermo", "addr:housenumber": "157", "addr:street": "Via Maqueda", "museum": "local", "name": "Archivio Storico Comunale", "tourism": "museum", "wikidata": "Q635845", "wikipedia": "it:Archivio storico comunale di Palermo"}}, {"type": "node", "id": 2215309343, "lat": 38.1194078, "lon": 13.3630909, "tags": {"name": "Museo del Risorgimento Vittorio Emanuele Orlando", "tourism": "museum", "wikidata": "Q1954299", "wikipedia": "it:Museo del Risorgimento (Palermo)"}}, {"type": "node", "id": 1572913967, "lat": 38.1165922, "lon": 13.3711754, "tags": {"name": "Galleria Regionale", "tourism": "museum", "wikidata": "Q1255652", "wikipedia": "it:Palazzo Abatellis"}}, {"type": "node", "id": 1816345209, "lat": 38.1185396, "lon": 13.3705559, "tags": {"addr:housenumber": "5", "addr:street": "Piazzetta Antonio Pasqualino", "contact:email": "mimap@museomarionettepalermo.it", "contact:fax": "+39 091 328276", "contact:phone": "+39 091 328060", "name": "museo internazionale delle marionette Antonio Pasqualino", "tourism": "museum", "website": "http://museomarionettepalermo.it/", "wikidata": "Q1954250", "wikipedia": "it:Museo internazionale delle marionette Antonio Pasqualino"}}, {"type": "node", "id": 6124516286, "lat": 38.1190373, "lon": 13.370897, "tags": {"name:ru": "\u041c\u0443\u0437\u0435\u0439 \u043c\u0430\u0440\u0438\u043e\u043d\u0435\u0442\u043e\u043a", "tourism": "museum"}}, {"type": "node", "id": 1927130930, "lat": 38.1344399, "lon": 13.3489259, "tags": {"name": "Museo d'arte e archeologia Ignazio Mormino", "tourism": "museum", "wikidata": "Q3867861", "wikipedia": "it:Museo d'arte e archeologia Ignazio Mormino"}}, {"type": "node", "id": 1948131038, "lat": 38.1366598, "lon": 13.3672465, "tags": {"name": "Arsenale della Real Marina", "tourism": "museum", "wheelchair": "yes", "wikidata": "Q3867956", "wikipedia": "it:Arsenale di Palermo - Museo del mare"}}, {"type": "node", "id": 1792426013, "lat": 40.5594199, "lon": 8.3119382, "tags": {"name": "Museo Casa Manno", "name:en": "Casa Manno Museum", "opening_hours": "Mo-Su 16:00-20:00; Tu off; We off; Th off", "tourism": "museum", "wikidata": "Q3867589", "wikipedia": "it:Museo casa Manno"}}, {"type": "node", "id": 1792426014, "lat": 40.5592069, "lon": 8.3131306, "tags": {"name": "Museo diocesano", "name:en": "Diocesan Museum of Sacred Art", "opening_hours": "Mo,We 16:00-18:00; Th,Fr 10:00-13:00; Sa 18:00-22:00; Su 21:00-23:00", "tourism": "museum", "wikidata": "Q3868254", "wikipedia": "it:Museo diocesano (Alghero)"}}, {"type": "node", "id": 7794562787, "lat": 40.5573315, "lon": 8.3141593, "tags": {"name": "Museo Archeologico", "name:en": "Archeological Museum", "opening_hours": "Mo,We 11:00-13:00; Tu,Th 17:30-20:30; Fr-Su 11:00-13:00,17:30-20:30", "tourism": "museum"}}, {"type": "node", "id": 7890863485, "lat": 40.5573159, "lon": 8.314186, "tags": {"name": "Museo Archeologico di Alghero", "tourism": "museum"}}, {"type": "node", "id": 4994852845, "lat": 40.9356715, "lon": 8.2276037, "tags": {"addr:housenumber": "36", "addr:street": "Via Lepanto", "name": "Museo della Tonnara", "tourism": "museum", "website": "http://www.mutstintino.com/"}}, {"type": "node", "id": 3275212212, "lat": 39.9027411, "lon": 8.5899647, "tags": {"addr:city": "Oristano", "addr:housenumber": "1", "addr:postcode": "09170", "addr:street": "Piazza Duomo", "contact:email": "archividiocesior@gmail.com", "contact:facebook": "https://www.facebook.com/Museo-Diocesano-Arborense-1174936305884830/", "name": "Museo Diocesano Arborense", "phone": "+39 342 5887847", "tourism": "museum"}}, {"type": "node", "id": 7886330385, "lat": 39.9044346, "lon": 8.5924212, "tags": {"name": "Museum Antiquarium Arborese", "tourism": "museum"}}, {"type": "node", "id": 1416201750, "lat": 39.9746029, "lon": 8.5370918, "tags": {"tourism": "museum"}}, {"type": "node", "id": 4692633546, "lat": 40.048711, "lon": 8.6366054, "tags": {"addr:city": "Milis", "addr:postcode": "09070", "addr:street": "Piazza Martiri d'Italia", "alt_name": "Palazzo Boyl", "fee": "no", "name": "Museo del gioiello e del costume sardo", "opening_hours": "\"reservation by phone\"", "phone": "+39 0783 51665", "tourism": "museum", "wikidata": "Q55375602"}}, {"type": "node", "id": 1593356518, "lat": 40.0829266, "lon": 8.763209, "tags": {"addr:city": "Paulilatino", "addr:housenumber": "127", "addr:postcode": "09070", "addr:street": "Via Nazionale", "charge": "3,50\u20ac", "contact:mobile": "+39 347 7746747", "email": "archeotour@tiscali.it", "fee": "yes", "name": "Museo Archeologico / Etnografico Palazzo Atzori", "opening_hours": "Jun 22-Sep 22: Tu-Su 09:00-13:00,16:30-19:30; Sep 23-Mar 20: Tu-Su 09:00-13:00,15:00-17:30; Mar 23-Jun 21: Tu-Su 09:00-13:00,15:30-18:30", "operator": "Cooperativa Archeotour", "phone": "+39 0785 55438", "tourism": "museum", "website": "http://museoatzori.altervista.org/", "wikidata": "Q72709277"}}, {"type": "node", "id": 4475788152, "lat": 39.9567571, "lon": 8.8640525, "tags": {"name": "CIMA - Civico Museo Allai", "tourism": "museum"}}, {"type": "node", "id": 1950339046, "lat": 40.007735, "lon": 9.2253425, "tags": {"tourism": "museum"}}, {"type": "node", "id": 3234819895, "lat": 40.1105996, "lon": 8.8838865, "tags": {"addr:city": "Tadasuni", "addr:country": "IT", "addr:housenumber": "7", "addr:postcode": "09080", "addr:street": "Corso Impero", "building": "yes", "name": "Museo degli strumenti della musica popolare sarda", "tourism": "museum"}}, {"type": "node", "id": 1789157480, "lat": 40.1131009, "lon": 8.9371023, "tags": {"name": "Museo de S'Omo 'e Sa Majarza", "tourism": "museum", "wikidata": "Q55386982"}}, {"type": "node", "id": 2056323955, "lat": 40.2816642, "lon": 8.8303249, "tags": {"name": "Museo", "tourism": "museum"}}, {"type": "node", "id": 6520723502, "lat": 40.2345613, "lon": 9.0442451, "tags": {"addr:city": "Ottana", "addr:postcode": "08020", "email": "ig.ottana@studioprogetto2.it", "email_1": "sailonzana@gmail.com", "facebook": "https://www.facebook.com/MATmuseoartietradizioni/", "instagram": "https://www.instagram.com/mat_museoartietradizioni/", "name": "MAT - Museo Arti e Tradizioni - Casa Barca", "opening_hours": "Mo-Fr 10:00-13:00; Tu,Th 15:00-18:00; Jun-Sep Tu,Th 16:00-19:00", "operator": "Associazione Culturale Sa Ilonzana", "phone": "+39 3667205050", "tourism": "museum", "website": "http://www.comune.ottana.nu.it"}}, {"type": "node", "id": 6520723503, "lat": 40.234162, "lon": 9.0442331, "tags": {"addr:city": "Ottana", "addr:postcode": "08020", "addr:street": "Via Cesare Battisti", "email": "ig.ottana@studioprogetto2.it", "email_1": "sailonzana@gmail.com", "facebook": "https://www.facebook.com/MATmuseoartietradizioni/", "instagram": "https://www.instagram.com/mat_museoartietradizioni/", "name": "MAT - Museo Arti e Tradizioni - Casa Fenudi", "opening_hours": "Mo-Fr 10:00-13:00; Tu,Th 15:00-18:00; Jun-Sep Tu,Th 16:00-19:00", "operator": "Associazione Culturale Sa Ilonzana", "phone": "+39 3667205050", "tourism": "museum", "website": "http://www.comune.ottana.nu.it"}}, {"type": "node", "id": 4388341836, "lat": 40.2470685, "lon": 9.1803193, "tags": {"addr:city": "Orani", "addr:housenumber": "2", "addr:postcode": "08026", "addr:street": "Via Gonare", "charge": "5\u20ac", "email": "info@museonivola.it", "fee": "yes", "name": "Museo Nivola", "name:en": "Nivola Museum", "name:it": "Museo Nivola", "name:sc": "Museu Nivola", "opening_hours": "Oct 01-May 31 Tu-Su 10:00-13:00,15:00-19:00; Aug 01-Sep 30 10:00-13:00,15:00-19:00; Aug 01-Sep 30 We off", "phone": "+39 0784 730063", "tourism": "museum", "website": "http://www.museonivola.it/", "wikidata": "Q3867630", "wikipedia": "it:Museo Nivola"}}, {"type": "node", "id": 4396897421, "lat": 40.2501277, "lon": 9.1774366, "tags": {"addr:city": "Orani", "addr:housenumber": "7", "addr:postcode": "08026", "addr:street": "Piazza Italia", "email": "info@comune.orani.nu.it", "fee": "no", "name": "Collezione Xilografica Mario Delitala", "opening_hours": "Mo-Sa 07:30-14:00; Tu 07:30-14:00,15:00-18:00", "operator": "Comune di Orani", "phone": "+39 0784 74123", "phone_1": "+39 0784 74462", "tourism": "museum", "website": "http://www.comune.orani.nu.it/", "wikidata": "Q61723551"}}, {"type": "node", "id": 7765157759, "lat": 40.2944346, "lon": 8.5002476, "tags": {"name": "Museo delle Conce", "opening_hours": "Mo-Su 10:00-13:00,15:00-20:00", "tourism": "museum", "wikidata": "Q32815631"}}, {"type": "node", "id": 4982564245, "lat": 40.2957889, "lon": 8.5015518, "tags": {"addr:housenumber": "74", "addr:street": "Corso Vittorio Emanuele", "name": "Pinacoteca Antonio Atza", "tourism": "museum"}}, {"type": "node", "id": 4982564246, "lat": 40.2959167, "lon": 8.5016135, "tags": {"addr:housenumber": "59", "addr:street": "Corso Vittorio Emanuele", "name": "Museo Casa Deriu", "tourism": "museum", "wikidata": "Q32814927"}}, {"type": "node", "id": 5010040422, "lat": 40.4714286, "lon": 8.5600656, "tags": {"name": "Centropanificazione Monteleone Rocca Doria", "name:en": "Bread Art Museum", "name:it": "Centropanificazione Monteleone Rocca Doria", "name:pt": "Museu da Arte do P\u00e3o", "tourism": "museum"}}, {"type": "node", "id": 2132541140, "lat": 40.5723216, "lon": 8.6962045, "tags": {"name": "palazzo solinas", "tourism": "museum"}}, {"type": "node", "id": 2132541164, "lat": 40.5731447, "lon": 8.6971003, "tags": {"name": "arte contemporanea fondazione Logudoru\u00f9", "tourism": "museum"}}, {"type": "node", "id": 3263178043, "lat": 40.5860366, "lon": 9.003239, "tags": {"addr:city": "Otieri/Ozieri", "addr:housenumber": "3", "addr:postcode": "07014", "addr:street": "Piazza Pietro Micca", "alt_name": "Museo Archeologico Alle Clarisse", "contact:facebook": "https://www.facebook.com/museozieri/", "contact:twitter": "https://twitter.com/museoarcheoz", "email": "museo.ozieri@tiscali.it", "fax": "+39 079 785 1052", "instagram": "https://www.instagram.com/museozieri/", "museum": "archaeological", "name": "Civico Museo Archeologico di Ozieri", "opening_hours": "Tu-Fr 09:00-13:00,15:00-19:00; Sa,Su 10:00-13:00,15:00-18:00", "opening_hours:covid19": "open", "operator": "Istituzione San Michele", "operator:type": "public", "phone": "+39 079 785 1052", "tourism": "museum", "website": "http://museo.comune.ozieri.ss.it/", "wikidata": "Q3867785", "wikipedia": "sc:Museu Tz\u00ecvicu Archeol\u00f2gicu de Otieri"}}, {"type": "node", "id": 5335643298, "lat": 40.5894944, "lon": 9.0003937, "tags": {"name": "Museo del Mulino", "tourism": "museum"}}, {"type": "node", "id": 7161317676, "lat": 40.584398, "lon": 9.0024979, "tags": {"name": "Museo Diocesano", "opening_hours": "Tu-Fr 10:00-13:00, 15:00-18:00; Sa 10:00-13:00; Su-Mo off", "tourism": "museum"}}, {"type": "node", "id": 7209545433, "lat": 40.583873, "lon": 9.0009543, "tags": {"name": "Taverna dell'Aquila", "tourism": "museum", "wheelchair": "no"}}, {"type": "node", "id": 4919120134, "lat": 40.5829082, "lon": 9.1106226, "tags": {"addr:city": "Patada/Pattada", "addr:postcode": "07016", "addr:street": "Via Roma", "name": "Museo del Coltello", "tourism": "museum"}}, {"type": "node", "id": 4919700795, "lat": 40.5818188, "lon": 9.1101145, "tags": {"addr:city": "Patada/Pattada", "addr:postcode": "07016", "addr:street": "Via Vittorio Emanuele", "name": "Culter - museo internazionale del coltello", "tourism": "museum"}}, {"type": "node", "id": 3817193944, "lat": 39.8789856, "lon": 9.5192645, "tags": {"tourism": "museum"}}, {"type": "node", "id": 2516891012, "lat": 40.2110011, "lon": 9.2835321, "tags": {"addr:city": "Mamoiada", "addr:housenumber": "15", "addr:postcode": "08024", "addr:street": "Piazza Europa", "charge": "4\u20ac", "email": "info@museodellemaschere.it", "facebook": "https://www.facebook.com/museodellemaschere/", "fax": "+39 0784 56 719", "fee": "yes", "name": "Museo delle Maschere Mediterranee", "name:en": "Museum of Mediterrean Masks", "name:it": "Museo delle Maschere Mediterranee", "name:sc": "Museu de sas Caratzas Mediterr\u00e0neas", "opening_hours": "09:00-13:00,15:00-19:00; Oct-May Mo off", "operator": "Societ\u00e0 Cooperativa Viseras", "phone": "+39 0784 569018", "tourism": "museum", "website": "http://www.museodellemaschere.it/"}}, {"type": "node", "id": 2851086851, "lat": 40.2136257, "lon": 9.2833975, "tags": {"addr:city": "Mamoiada", "addr:postcode": "08024", "addr:street": "Via Sardegna", "charge": "4\u20ac", "email": "info@viseras.it", "facebook": "https://www.facebook.com/museodellemaschere/", "fee": "yes", "name": "Museo della Cultura e del Lavoro", "opening_hours": "Tu-Su 10:00-13:00,15:00-18:00", "operator": "Associazione Turistica Pro Loco Mamoiada", "phone": "+39 0784 569018", "tourism": "museum", "website": "http://www.viseras.it/", "wikidata": "Q55676958"}}, {"type": "node", "id": 4377492376, "lat": 40.2129063, "lon": 9.2836276, "tags": {"addr:city": "Mamoiada", "addr:housenumber": "15", "addr:postcode": "08024", "addr:street": "Piazza Europa", "charge": "4\u20ac", "email": "info@museomater.com", "facebook": "https://www.facebook.com/museodellemaschere/", "fax": "+39 0784 56719", "fee": "yes", "name": "MATER - Museo dell'Archeologia e del Territorio", "name:en": "MATER - Museum of Archeology and Territory", "name:it": "MATER - Museo dell'Archeologia e del Territorio", "name:sc": "MATER - Museu de s'Archeologia e de su Territ\u00f2riu", "opening_hours": "Tu-Su 10:00-13:00,15:00-18:00", "operator": "Societ\u00e0 Cooperativa Viseras", "phone": "+39 0784 569018", "tourism": "museum", "website": "http://www.museomater.com/"}}, {"type": "node", "id": 4532861096, "lat": 40.2055169, "lon": 9.3544062, "tags": {"addr:city": "Org\u00f2solo/Orgosolo", "addr:housenumber": "45", "addr:postcode": "08027", "addr:street": "Via Rinascita", "fee": "no", "name": "Collezione in Collaborazione", "opening_hours": "Mo-Su 09:00-12:00,16:00-19:00", "operator": "Polizia di Stato", "tourism": "museum"}}, {"type": "node", "id": 5094520322, "lat": 40.2034394, "lon": 9.3578928, "tags": {"addr:city": "Orgosolo", "addr:housenumber": "338", "addr:postcode": "08027", "addr:street": "Corso Repubblica", "name": "Meseo del Supramonte", "tourism": "museum"}}, {"type": "node", "id": 8243564947, "lat": 40.3653939, "lon": 9.3315068, "tags": {"alt_name": "Museo del tempo", "name": "Casa Museo Lollove", "tourism": "museum"}}, {"type": "node", "id": 472465984, "lat": 40.317109, "lon": 9.3353041, "tags": {"addr:city": "Nuoro", "addr:housenumber": "56", "addr:postcode": "08100", "addr:street": "Via Antonio Mereu", "alt_name": "Museo della vita e delle tradizioni popolari sarde", "alt_name_1": "Museo del costume e delle tradizioni popolari", "charge": "5\u20ac", "email": "isresardegna@isresardegna.org", "fax": "+39 0784 37484", "fax_1": "+39 0784 253943", "fee": "yes", "name": "Museo Etnografico Sardo", "name:en": "Sardinian Ethnographic Museum", "name:sc": "Museu Etnogr\u00e0ficu Sardu", "opening_hours": "Oct 01-Mar 15: Tu-Su 10:00-13:00,15:00-19:00; Mar 16-Sep 30: Tu-Su 10:00-13:00,15:00-20:00", "operator": "ISRE - Istituto Superiore Etnografico della Sardegna", "phone": "+39 0784 257035", "phone_1": "+39 0784 242900", "tourism": "museum", "website": "http://www.isresardegna.it", "wikidata": "Q3868118", "wikipedia": "it:Museo della vita e delle tradizioni popolari sarde"}}, {"type": "node", "id": 4207256495, "lat": 40.322241, "lon": 9.3338851, "tags": {"addr:city": "Nuoro", "addr:housenumber": "23", "addr:postcode": "08100", "addr:street": "Via Angelo Brofferio", "contact:facebook": "https://www.facebook.com/SpazioIlisso/", "email": "spazioilisso@spazioilisso.it", "fax": "+39 0784 35413", "museum": "art", "name": "Spazio Ilisso", "opening_hours": "Tu 15:00-19:00; We-Su 10:00-13:00,15:00-19:00", "operator": "Ilisso Edizioni", "operator:type": "private", "phone": "+39 0784 31551", "phone_1": "+39 0784 33033", "source": "Regione Autonoma della Sardegna (www.sardegnageoportale.it)", "start_date": "2019-12-14", "tourism": "museum", "website": "http://www.spazioilisso.it/", "wikidata": "Q90416443", "wikipedia": "sc:Spazio Ilisso"}}, {"type": "node", "id": 2247380221, "lat": 40.2918823, "lon": 9.5883174, "tags": {"name": "Museo Archelogico", "tourism": "museum"}}, {"type": "node", "id": 2248543428, "lat": 40.2892732, "lon": 9.5885403, "tags": {"name": "Museo \"Fancello\"", "tourism": "museum", "wikidata": "Q55375404"}}, {"type": "node", "id": 2255562577, "lat": 40.2829324, "lon": 9.6331322, "tags": {"name": "Museo della Foca Monaca ", "tourism": "museum", "wikidata": "Q55375407"}}, {"type": "node", "id": 5602923117, "lat": 40.3074903, "lon": 9.629761, "tags": {"name": "S'Abba Frisca Parco Museo", "tourism": "museum", "wikidata": "Q16337820"}}, {"type": "node", "id": 2382175009, "lat": 40.3859555, "lon": 9.614615, "tags": {"name": "Museo Etnografico", "tourism": "museum", "wikidata": "Q55375421"}}, {"type": "node", "id": 8464260986, "lat": 40.4708929, "lon": 9.4876231, "tags": {"addr:city": "L\u00f9vula/Lula", "addr:postcode": "08020", "addr:street": "Piazza Rosa Luxemburg", "museum": "art", "name": "Museo Arte Contemporanea Lula", "operator": "Associazione Julia Spazio D\u2019Arte", "operator:type": "association", "source": "https://www.exibart.com/musei/in-sardegna-il-sogno-del-nuovo-mac-di-lula-sta-per-diventare-realta/", "start_date": "2021-09", "tourism": "museum", "website": "http://www.maclula.com/"}}, {"type": "node", "id": 6730784561, "lat": 40.3787097, "lon": 9.6953589, "tags": {"addr:housenumber": "26b", "addr:street": "Via Guiseppe Musio", "name": "Museo Don Giovanni Guiso", "opening_hours": "We, Th, Sa, Su 20:00-23:00; Tu, Fr 10:00-12:00, 21:00-23:00", "phone": "0784998184", "tourism": "museum"}}, {"type": "node", "id": 2391406778, "lat": 40.7239011, "lon": 8.5558708, "tags": {"name": "Museo etnografico - F. Bande", "tourism": "museum", "wikidata": "Q3868355"}}, {"type": "node", "id": 2130436042, "lat": 40.7264646, "lon": 8.5634847, "tags": {"name": "Museo della Brigata Sassari", "tourism": "museum", "wikidata": "Q3868031", "wikipedia": "it:Museo della Brigata Sassari"}}, {"type": "node", "id": 2268148486, "lat": 40.7271196, "lon": 8.5597691, "tags": {"addr:city": "Sassari", "addr:housenumber": "4", "addr:postcode": "07100", "addr:street": "Via Santa Caterina", "email": "pm-sar.pinacoteca.sassari@beniculturali.it", "name": "Pinacoteca nazionale di Sassari", "opening_hours": "Tu-Su 09:00-18:00; Su[1,3] 09:00-18:00; Mo off; Su [2,4] off", "phone": "+39 079 231560", "tourism": "museum", "website": "http://musei.sardegna.beniculturali.it/musei/pinacoteca-nazionale-di-sassari/", "wikidata": "Q3867641", "wikipedia": "it:Museo Sassari Arte"}}, {"type": "node", "id": 2267756818, "lat": 40.7226621, "lon": 8.567491, "tags": {"addr:city": "Sassari", "addr:housenumber": "64", "addr:postcode": "07100", "addr:street": "Via Roma", "email": "pm-sar.museoarcheo.sassari@beniculturali.it", "name": "Museo nazionale Sanna", "opening_hours": "Tu-Su 09:00-20:00; Mo off", "phone": "+39 079 272203", "tourism": "museum", "website": "http://musei.beniculturali.it/musei?mid=239&nome=museo-nazionale-archeologico-ed-etnografico-giovanni-antonio-sanna", "wikidata": "Q743529", "wikipedia": "it:Museo nazionale archeologico ed etnografico G. A. Sanna"}}, {"type": "node", "id": 2284653750, "lat": 40.7298384, "lon": 8.5602729, "tags": {"name": "Museo - Palazzo della Frumentaria", "tourism": "museum", "wikidata": "Q3753788", "wikipedia": "it:Frumentaria"}}, {"type": "node", "id": 3632110743, "lat": 40.7288101, "lon": 8.5619453, "tags": {"name": "Museo dell'arte del novecento e del contemporaneo", "tourism": "museum", "wikidata": "Q3868011", "wikipedia": "it:Museo dell'arte del novecento e del contemporaneo"}}, {"type": "node", "id": 7896036785, "lat": 40.7280313, "lon": 8.559802, "tags": {"name": "Museo della Cita", "tourism": "museum"}}, {"type": "node", "id": 2268060427, "lat": 40.7341958, "lon": 8.5604747, "tags": {"name": "Museo d'arte contemporanea \"Masedu\"", "tourism": "museum", "wikidata": "Q3867851", "wikipedia": "it:Museo d'arte contemporanea Masedu"}}, {"type": "node", "id": 2129442312, "lat": 40.838389, "lon": 8.3969772, "tags": {"addr:city": "Portotorres", "addr:housenumber": "89", "addr:postcode": "07046", "addr:street": "Via Ponte Romano", "email": "pm-sar.museoarcheo.portotorres@beniculturali.it", "name": "Museo Archeologico Nazionale Antiquarium Turritano e area archeologica", "opening_hours": "Mo,Tu,Th,Fr,Sa,Su 09:00-18:00; We off", "phone": "+39 079 514433", "tourism": "museum", "website": "http://musei.beniculturali.it/musei?mid=6029&nome=museo-archeologico-nazionale-antiquarium-turritano-e-area-archeologica", "wikidata": "Q16336143", "wikipedia": "it:Antiquarium Turritano"}}, {"type": "node", "id": 5005094678, "lat": 40.8379065, "lon": 8.3998418, "tags": {"name": "Museo del Porto", "tourism": "museum", "website": "https://www.comune.porto-torres.ss.it/Comunicazione/Argomenti/Porto-Torres-Turismo/Da-visitare/Museo-del-Porto-e-Memoriale-della-Corazzata-Roma", "wikidata": "Q21196215", "wikipedia": "it:Museo del porto"}}, {"type": "node", "id": 1900945849, "lat": 40.9155927, "lon": 8.7122838, "tags": {"castle_type": "defensive", "historic": "castle", "name": "Castello dei Doria", "start_date": "1102", "tourism": "museum"}}, {"type": "node", "id": 4493008378, "lat": 40.9155339, "lon": 8.712498, "tags": {"addr:city": "Castelsardo", "addr:housenumber": "1", "addr:postcode": "07031", "addr:street": "Via Guglielmo Marconi", "charge": "3\u20ac", "contact:mobile": "+39 347 1118547", "email": "direzione.museointreccio@gmail.com", "fee": "yes", "name": "MIM - Museo dell'Intreccio Mediterraneo", "opening_hours": "Jan 01-Mar 30,Nov 02-Dec 31 10:30-16:30; Mar 20-May 01,Oct 01-Nov 01 09:00-19:00; May 01-Jun 30,Sep 01-30 09:30-21:30; Jul-Aug 00:00-24:00; Dec 25 13:00-16:30", "phone": "+39 079 470220", "tourism": "museum", "website": "http://www.mimcastelsardo.it"}}, {"type": "node", "id": 3955419304, "lat": 40.8349481, "lon": 8.8877998, "tags": {"addr:city": "P\u00e8ifugas/Perfugas", "addr:city:it": "Perfugas", "addr:city:sc": "P\u00e8ifugas", "addr:housenumber": "1", "addr:postcode": "07034", "addr:street": "Via Nazario Sauro", "charge": "3 \u20ac", "contact:mobile": "+39 349 7777103", "email": "info@sarundine.com", "email_1": "comunediperfugas@tiscali.it", "facebook": "https://www.facebook.com/Museo-Archeologico-Paleobotanico-Perfugas-559185217546410/", "fee": "yes", "name": "MAP - Museo Archeologico e Paleobotanico di Perfugas", "name:sc": "MAP - Museu archeol\u00f2gicu e paleobot\u00e0nicu de P\u00e8ifugas", "opening_hours": "Oct-May Tu-Su 09:00-13:00,15:00-19:00; Jun-Sep Tu-Su 09:00-13:00,16:00-20:00", "operator": "Sa Rundine s.n.c.", "phone": "+39 079 564241", "tourism": "museum", "website": "https://www.sarundine.com/"}}, {"type": "node", "id": 2063107236, "lat": 40.7884252, "lon": 9.1707298, "tags": {"name": "Museo del Vino", "tourism": "museum"}}, {"type": "node", "id": 479953699, "lat": 40.9008958, "lon": 9.105212, "tags": {"tourism": "museum"}}, {"type": "node", "id": 2483697519, "lat": 40.9286156, "lon": 9.0653944, "tags": {"name": "Museo Etnografico Oliva Carta Cannas", "tourism": "museum", "wikidata": "Q20770745", "wikipedia": "it:Museo etnografico Oliva Carta Cannas"}}, {"type": "node", "id": 3686814227, "lat": 40.929539, "lon": 9.065814, "tags": {"name": "Museo del Banditismo", "tourism": "museum", "wikidata": "Q20770633", "wikipedia": "it:Museo del banditismo"}}, {"type": "node", "id": 6813539984, "lat": 40.9293718, "lon": 9.0656578, "tags": {"name": "Museo dell\u2019amore perduto", "name:fr": "Mus\u00e9e de l'amour perdu", "start_date": "2019", "tourism": "museum", "wikidata": "Q68066465"}}, {"type": "node", "id": 3771666325, "lat": 40.9223341, "lon": 9.1912549, "tags": {"addr:city": "Calangianus", "addr:housenumber": "3", "addr:street": "Via S.Francesco", "name": "museo del sughero", "name:fr": "mus\u00e9e du li\u00e8ge", "old_name": "convento dei frati cappuccini", "phone": "+39 346 369 3859", "start_date": "2011", "tourism": "museum", "website": "http://www.museodelsughero.com", "wikidata": "Q21051968", "wikipedia": "fr:Mus\u00e9e du li\u00e8ge de Calangianus", "wikipedia:fr": "Mus\u00e9e du li\u00e8ge de Calangianus"}}, {"type": "node", "id": 4580861689, "lat": 40.87483, "lon": 9.3519825, "tags": {"addr:city": "Telti", "addr:postcode": "07020", "addr:street": "Via Duomo", "name": "Centro Anziani", "name:en": "Museum and Cultural Centre", "name:it": "Centro Anziani", "tourism": "museum"}}, {"type": "node", "id": 4475926618, "lat": 41.081667, "lon": 9.372536, "tags": {"name": "Museo Labenur", "tourism": "museum"}}, {"type": "node", "id": 1589508395, "lat": 40.7088567, "lon": 9.7001553, "tags": {"name": "Museo dello stazzo e della civilt\u00e0 contadina", "tourism": "museum", "wikidata": "Q67014080"}}, {"type": "node", "id": 1798000482, "lat": 40.8942976, "lon": 12.9667282, "tags": {"tourism": "museum"}}, {"type": "node", "id": 4148030417, "lat": 40.7901573, "lon": 13.4186859, "tags": {"name": "Museo della Migrazione ed osservatorio ornitologixo", "tourism": "museum"}}, {"type": "node", "id": 5842207880, "lat": 41.4483509, "lon": 12.6193133, "tags": {"fee": "no", "name": "Sito Archeologico Palazzo Imperiale (Villa di Nerone)", "name:en": "Archeological site of the imperial villa (Villa of Nero)", "opening_hours": "Oct-Feb Th-Su 10:30-12:30,15:00-17:00;Mar-May Th-Su 10:30-12:30,16:00-18:00;Jun-Aug We-Su 10:30-12:30,18:00-21:00;Sep We-Su 10:30-12:30,17:00-20:00", "tourism": "museum", "website": "http://www.anzio.it/www.anzio.it/Foto_Anzio/Pagine/Parco_Archeologico.html"}}, {"type": "node", "id": 5842208133, "lat": 41.4501, "lon": 12.6304176, "tags": {"fee": "no", "name": "Museo Civico Archeologico", "opening_hours": "Tu,Th,Sa,Su 10:30-12:30,16:00-18:00; Jul-Aug 10:30-12:30,17:00-19:00", "tourism": "museum", "website": "http://www.anzio.it/museo%20archeologico.htm"}}, {"type": "node", "id": 5842208134, "lat": 41.4501, "lon": 12.6301897, "tags": {"fee": "no", "name": "Museo dello sbarco di Anzio", "name:en": "Anzio beachhead museum", "opening_hours": "Tu,Th,Sa,Su 10:30-12:30,16:00-18:00; Jul-Aug 10:30-12:30,17:00-19:00", "tourism": "museum", "website": "http://www.sbarcodianzio.it", "wikidata": "Q55360008"}}, {"type": "node", "id": 2228507382, "lat": 41.4567048, "lon": 12.6559423, "tags": {"name": "Antiquarium Comunale", "tourism": "museum"}}, {"type": "node", "id": 2228507576, "lat": 41.4565036, "lon": 12.656055, "tags": {"name": "Museo dello sbarco alleato", "tourism": "museum"}}, {"type": "node", "id": 2189712755, "lat": 41.4588782, "lon": 12.8943538, "tags": {"name": "Planetario Livio Gratton", "tourism": "museum"}}, {"type": "node", "id": 5070171856, "lat": 41.4653119, "lon": 12.9035604, "tags": {"name": "Museo civico Duilio Cambellotti", "tourism": "museum", "wikidata": "Q3867774", "wikipedia": "it:Museo civico Duilio Cambellotti"}}, {"type": "node", "id": 8412922143, "lat": 41.4668359, "lon": 12.8982413, "tags": {"addr:city": "Latina", "addr:housenumber": "24", "addr:postcode": "04100", "addr:street": "Piazza del Quadrato", "email": "museo.terrapontina@hotmail.it", "museum": "local", "name": "Museo della Terra Pontina", "phone": "+39 0773 400088", "tourism": "museum", "website": "http://www.museodellaterrapontina.altervista.org/index.html"}}, {"type": "node", "id": 3916615528, "lat": 41.463547, "lon": 12.9058579, "tags": {"name": "Museo Mario Valeriani", "tourism": "museum", "wikidata": "Q73002172"}}, {"type": "node", "id": 5008190946, "lat": 41.4713275, "lon": 12.9070099, "tags": {"name": "Museo di Arte e Giacimenti Minerari", "tourism": "museum"}}, {"type": "node", "id": 5070171857, "lat": 41.2998105, "lon": 13.0245052, "tags": {"name": "Museo Emilio Greco", "tourism": "museum", "wikidata": "Q19545437", "wikipedia": "it:Museo Emilio Greco (Sabaudia)"}}, {"type": "node", "id": 1574091866, "lat": 41.2916098, "lon": 13.2486666, "tags": {"addr:street": "Piazza Municipio", "name": "Museo Civico Archeologico", "tourism": "museum", "wheelchair": "no", "wikidata": "Q69548632"}}, {"type": "node", "id": 5068404431, "lat": 41.2910956, "lon": 13.2494257, "tags": {"addr:street": "Piazza Santa Domitilla", "fee": "yes", "name": "Palazzo della bonifica pontificia", "name:en": "Papal reclamation palace", "name:it": "Palazzo della bonifica pontificia", "opening_hours": "Mo-Su 18:00-23:00", "tourism": "museum"}}, {"type": "node", "id": 7362232954, "lat": 41.4096802, "lon": 13.0431906, "tags": {"addr:city": "Pontinia", "addr:postcode": "04014", "addr:street": "Piazza John Fitzgerald Kennedy", "description": "MAP:Museo Agro Pontino\nIl Museo testimonia le vicende storiche e culturali della citt\u00e0 di Pontinia e del territorio circostante.", "museum": "local", "name": "M.A.P.", "tourism": "museum"}}, {"type": "node", "id": 7319322634, "lat": 42.357336, "lon": 10.9214425, "tags": {"addr:city": "Isola del Giglio", "name": "Museo della Mineralogia e Geologia dell'Isola del Giglio", "tourism": "museum", "wikidata": "Q93895616"}}, {"type": "node", "id": 7319337277, "lat": 42.7894448, "lon": 10.1697973, "tags": {"addr:city": "Marciana", "name": "Museo dell'Arte Contadina di Marciana", "tourism": "museum", "wikidata": "Q55385879"}}, {"type": "node", "id": 7319337278, "lat": 42.7893015, "lon": 10.1676267, "tags": {"addr:city": "Marciana", "name": "Museo Civico Archeologico di Marciana", "tourism": "museum", "wikidata": "Q16336146", "wikipedia": "it:Museo archeologico di Marciana"}}, {"type": "node", "id": 7319337279, "lat": 42.794811, "lon": 10.1698861, "tags": {"addr:city": "Marciana", "name": "Fortezza Pisana", "tourism": "museum"}}, {"type": "node", "id": 5790090491, "lat": 42.7519955, "lon": 10.2124914, "tags": {"name": "MUM - Museo Mineralogico Luigi Celleri", "tourism": "museum"}}, {"type": "node", "id": 5659317419, "lat": 42.745452, "lon": 10.3775821, "tags": {"name": "Museo del Mare", "tourism": "museum", "website": "https://www.isoladelba.toscana.it/musei-isoladelba/museodelmare-capoliveri-isoladelba"}}, {"type": "node", "id": 6634731042, "lat": 42.7855072, "lon": 10.2803404, "tags": {"addr:city": "Portoferraio", "addr:postcode": "57037", "addr:street": "Via di San Martino", "email": "pm-tos.elba.villasanmartino@beniculturali.it", "name": "Museo nazionale delle residenze Napoleoniche Villa di San Martino", "opening_hours": "Tu, Th, Sa, Su 08:30-13:30; We, Fr 14:00-19:30; Mo off; Jan 1 off; Dec 25 off", "phone": "+39 0565 914688", "tourism": "museum", "website": "http://www.polomusealetoscana.beniculturali.it/index.php?it/218/portoferraio-li-museo-nazionale-delle-residenze-napoleoniche-dellisola-delba-villa-di-san-martino"}}, {"type": "node", "id": 7319337270, "lat": 42.7905192, "lon": 10.2872853, "tags": {"addr:city": "Portoferraio", "name": "Open-Air Museum Italo Bolano", "tourism": "museum"}}, {"type": "node", "id": 5593931720, "lat": 42.7167704, "lon": 10.3949362, "tags": {"addr:city": "Capoliveri", "addr:street": "Localit\u00e0 Calamita", "email": "info@minieredicalamita.it", "name": "Museo della Vecchia Officina - Miniere di Calamita", "tourism": "museum", "website": "https://www.minieredicalamita.it/", "wikidata": "Q55674602", "wikipedia": "it:Monte Calamita"}}, {"type": "node", "id": 5647552297, "lat": 42.7702808, "lon": 10.3985448, "tags": {"name": "La piccola miniera", "tourism": "museum", "website": "http://www.lapiccolaminiera.it/"}}, {"type": "node", "id": 6514048993, "lat": 42.8168508, "lon": 10.3181885, "tags": {"name": "NatLab - Museo Naturalistico Arcipelago Toscano", "subject": "nature", "tourism": "museum", "wheelchair": "no"}}, {"type": "node", "id": 7319337269, "lat": 42.8162611, "lon": 10.3317039, "tags": {"addr:city": "Portoferraio", "name": "Pinacoteca Comunale Foresiana", "tourism": "museum", "wikidata": "Q55374380"}}, {"type": "node", "id": 7319337271, "lat": 42.8161931, "lon": 10.332105, "tags": {"addr:city": "Portoferraio", "name": "Museo Napoleonico della Misericordia", "tourism": "museum", "wikidata": "Q55374375"}}, {"type": "node", "id": 7319337273, "lat": 42.814635, "lon": 10.329624, "tags": {"addr:city": "Portoferraio", "name": "Fortezze Medicee - Forte Falcone", "tourism": "museum"}}, {"type": "node", "id": 7955795333, "lat": 42.8168143, "lon": 10.3321976, "tags": {"addr:city": "Portoferraio", "addr:postcode": "57037", "addr:street": "Piazzale Napoleone", "email": "pm-tos.elba.villamulini@beniculturali.it", "name": "Museo nazionale delle residenze Napoleoniche Palazzina dei Mulini", "opening_hours": "Apr-Oct: We-Mo 08:30-19:30; Su, PH  08:30-13:30; Tu off; Nov-Mar: Mo-Su 08:30-13:30; Jan 1 off; Dec 25 off", "operator": "MIBAC", "operator:type": "private", "phone": "+39 0565 915846", "tourism": "museum", "website": "http://www.polomusealetoscana.beniculturali.it/index.php?it/217/portoferraio-li-museo-nazionale-delle-residenze-napoleoniche-palazzina-dei-mulini", "wikidata": "Q55685981"}}, {"type": "node", "id": 7319337267, "lat": 42.8133189, "lon": 10.4022126, "tags": {"addr:city": "Rio", "name": "Civico Museo Archeologico del Distretto Minerario", "tourism": "museum", "wikidata": "Q55374395"}}, {"type": "node", "id": 7319337268, "lat": 42.8161361, "lon": 10.4278283, "tags": {"addr:city": "Rio", "name": "Parco Minerario dell'Isola d'Elba - Museo Dei Minerali e dell'Arte Mineraria", "tourism": "museum", "wikidata": "Q93895626"}}, {"type": "node", "id": 1970201003, "lat": 42.9233729, "lon": 10.5219787, "tags": {"addr:city": "Piombino", "addr:housenumber": "8", "addr:postcode": "57025", "addr:street": "Piazza Cittadella", "name": "Museo archeologico del territorio di Populonia", "tourism": "museum", "wikidata": "Q3329470", "wikipedia": "it:Museo archeologico del territorio di Populonia"}}, {"type": "node", "id": 4096962706, "lat": 42.9214438, "lon": 10.5261206, "tags": {"addr:city": "Piombino", "addr:housenumber": "3", "addr:street": "Piazza Giovanni Bovio", "email": "museomare@biomare.it", "fax": "+39 0565 22 70 21", "name": "Museo del Mare", "phone": "+39 0565 225196", "tourism": "museum", "website": "http://www.biomare.it/", "wikidata": "Q3867957", "wikipedia": "it:Museo del mare (Piombino)"}}, {"type": "node", "id": 7319337276, "lat": 42.9217425, "lon": 10.5292892, "tags": {"addr:city": "Piombino", "name": "Museo del Castello e delle Ceramiche Medievali", "tourism": "museum"}}, {"type": "node", "id": 5008411259, "lat": 42.9342853, "lon": 10.5119848, "tags": {"name": "Museo di entomologia", "tourism": "museum", "wikidata": "Q3868209", "wikipedia": "it:Museo di entomologia"}}, {"type": "node", "id": 7319337274, "lat": 42.9893842, "lon": 10.4918004, "tags": {"addr:city": "Piombino", "name": "Museo Etrusco di Populonia Collezione Gasparri", "tourism": "museum", "wikidata": "Q93895623"}}, {"type": "node", "id": 7319322615, "lat": 42.9078161, "lon": 10.8520573, "tags": {"addr:city": "Scarlino", "name": "Centro Documentazione del Territorio Riccardo Francovich", "tourism": "museum", "wikidata": "Q16337219"}}, {"type": "node", "id": 7319322616, "lat": 42.9093969, "lon": 10.8506347, "tags": {"addr:city": "Scarlino", "name": "Centro di Documentazione Gli Etruschi a Scarlino", "tourism": "museum", "wikidata": "Q55677208"}}, {"type": "node", "id": 7319385589, "lat": 43.0309835, "lon": 10.6031903, "tags": {"addr:city": "Campiglia Marittima", "name": "Museo della Civilt\u00e0 del Lavoro", "tourism": "museum", "wikidata": "Q55378028"}}, {"type": "node", "id": 7319385590, "lat": 43.0593818, "lon": 10.6167871, "tags": {"addr:city": "Campiglia Marittima", "name": "Museo del Minerale di Campiglia Marittima", "tourism": "museum", "wikidata": "Q55374278"}}, {"type": "node", "id": 7319385591, "lat": 43.0593564, "lon": 10.6173145, "tags": {"addr:city": "Campiglia Marittima", "name": "Museo d'Arte Sacra di Campiglia Marittima", "tourism": "museum", "wikidata": "Q55374276"}}, {"type": "node", "id": 7319385592, "lat": 43.0602845, "lon": 10.6172652, "tags": {"addr:city": "Campiglia Marittima", "name": "Mostra Museo Permanente Carlo Guarnieri", "tourism": "museum"}}, {"type": "node", "id": 7319385588, "lat": 43.0611104, "lon": 10.6174465, "tags": {"addr:city": "Campiglia Marittima", "name": "Museo della Rocca di Campiglia", "tourism": "museum", "wikidata": "Q55374280"}}, {"type": "node", "id": 7319337263, "lat": 43.0782033, "lon": 10.6785652, "tags": {"addr:city": "Suvereto", "name": "Museo di Arte Sacra di San Giusto", "tourism": "museum", "wikidata": "Q55374403"}}, {"type": "node", "id": 7319337264, "lat": 43.0795332, "lon": 10.6787489, "tags": {"addr:city": "Suvereto", "name": "Museo Artistico della Bambola - Collezione Maria Micaelli", "tourism": "museum", "wikidata": "Q55374401"}}, {"type": "node", "id": 2925656180, "lat": 43.1607745, "lon": 10.6100868, "tags": {"name": "Museo Archivio Giosu\u00e8 Carducci", "tourism": "museum", "wikidata": "Q55374307"}}, {"type": "node", "id": 2925656181, "lat": 43.1615689, "lon": 10.610756, "tags": {"name": "Centro di Valorizzazione Casa Carducci", "payment:coins": "no", "payment:notes": "no", "tourism": "museum"}}, {"type": "node", "id": 7319385587, "lat": 43.1623074, "lon": 10.6109052, "tags": {"addr:city": "Castagneto Carducci", "name": "Centro per la Conservazione dell'Arredo Sacro e del Costume Religioso", "tourism": "museum"}}, {"type": "node", "id": 3257880931, "lat": 43.0499271, "lon": 10.8877016, "tags": {"name": "Museo Archeologico", "tourism": "museum", "wikidata": "Q3329442", "wikipedia": "it:Museo archeologico di Massa Marittima"}}, {"type": "node", "id": 3587646824, "lat": 43.0516912, "lon": 10.8906873, "tags": {"name": "Museo di Arte e Storia delle Miniere", "tourism": "museum", "wikidata": "Q16337307", "wikipedia": "it:Museo di arte e storia delle miniere"}}, {"type": "node", "id": 7319322632, "lat": 43.0504228, "lon": 10.8877426, "tags": {"addr:city": "Massa Marittima", "name": "Antica Falegnameria", "tourism": "museum", "wikidata": "Q16337249"}}, {"type": "node", "id": 3587647657, "lat": 43.0513048, "lon": 10.8924536, "tags": {"addr:city": "Massa Marittima", "addr:country": "IT", "addr:housenumber": "28", "addr:postcode": "58024", "addr:street": "Corso Armando Diaz", "alt_name": "Fondazione Museo Santa Cecilia", "name": "Museo Santa Cecilia di Organi Meccanici Antichi", "opening_hours": "Jun-Sep: 10:30-13:00,15:30-19:00; Oct-May: 10:30-12:30,15:00-18:00", "phone": "+39 0566 940282", "tourism": "museum", "website": "http://museodegliorgani.it", "wikidata": "Q3868200", "wikipedia": "it:Museo di arte sacra di Massa Marittima"}}, {"type": "node", "id": 7251695949, "lat": 43.0511975, "lon": 10.8930415, "tags": {"addr:city": "Massa Marittima", "addr:country": "IT", "addr:housenumber": "36", "addr:postcode": "58024", "addr:street": "Corso Armando Diaz", "alt_name": "Fondazione Museo Santa Cecilia", "name": "Complesso Museale di San Pietro All'Orto: Museo d'Arte Sacra e Centro per l'Arte Contemporanea", "opening_hours": "Apr-Sep: 10:00-13:00, 16:00-19:00; Oct-Mar: 11:00-13:00, 15:00-17:00", "phone": "+39 0566 902289", "tourism": "museum", "wikidata": "Q3868200", "wikipedia": "it:Museo di arte sacra di Massa Marittima"}}, {"type": "node", "id": 7319322630, "lat": 43.0505262, "lon": 10.8946537, "tags": {"addr:city": "Massa Marittima", "name": "Museo Mineralogico Istituto Tecnico Industriale B. Lotti", "tourism": "museum", "wikidata": "Q93895618"}}, {"type": "node", "id": 6553995457, "lat": 43.2007698, "lon": 10.7377903, "tags": {"name": "Museo Geominerario", "tourism": "museum"}}, {"type": "node", "id": 7319261050, "lat": 43.1672867, "lon": 10.863938, "tags": {"addr:city": "Castelnuovo Val di Cecina", "name": "Antiquarium di Sasso Pisano", "tourism": "museum", "wikidata": "Q55674297"}}, {"type": "node", "id": 7319322628, "lat": 42.384905, "lon": 11.1991651, "tags": {"addr:city": "Monte Argentario", "name": "Forte Stella", "tourism": "museum"}}, {"type": "node", "id": 7319322627, "lat": 42.4380378, "lon": 11.1179167, "tags": {"addr:city": "Monte Argentario", "name": "Fortezza Spagnola - Mostra Permanente Memorie Sommerse", "tourism": "museum", "wikidata": "Q55374188"}}, {"type": "node", "id": 7319322624, "lat": 42.4385103, "lon": 11.2144027, "tags": {"addr:city": "Orbetello", "name": "Museo Archeologico di Orbetello", "tourism": "museum"}}, {"type": "node", "id": 7319322625, "lat": 42.4385095, "lon": 11.2144007, "tags": {"addr:city": "Orbetello", "name": "Mostra Permanente Frontone di Talamone", "tourism": "museum"}}, {"type": "node", "id": 7319322623, "lat": 42.4121837, "lon": 11.2839112, "tags": {"addr:city": "Orbetello", "name": "Museo Archeologico Nazionale di Cosa", "tourism": "museum"}}, {"type": "node", "id": 7319322622, "lat": 42.5021224, "lon": 11.205548, "tags": {"addr:city": "Orbetello", "name": "Museo della Cultura Contadina di Albinia", "tourism": "museum", "wikidata": "Q16337076", "wikipedia": "it:Museo della cultura contadina"}}, {"type": "node", "id": 7319322621, "lat": 42.5547232, "lon": 11.1321877, "tags": {"addr:city": "Orbetello", "name": "Museo della Pesca e delle Tradizioni Lagunari", "tourism": "museum", "wikidata": "Q55386204"}}, {"type": "node", "id": 7319322635, "lat": 42.7615269, "lon": 11.1139337, "tags": {"addr:city": "Grosseto", "name": "Museolab Citt\u00e0 di Grosseto", "tourism": "museum"}}, {"type": "node", "id": 7319322633, "lat": 42.6452748, "lon": 11.3209758, "tags": {"addr:city": "Magliano in Toscana", "name": "Centro di Documentazione Archeologica di Magliano In Toscana", "tourism": "museum"}}, {"type": "node", "id": 4185947029, "lat": 42.5874023, "lon": 11.5159429, "tags": {"addr:city": "Manciano", "addr:housenumber": "1", "addr:postcode": "58014", "addr:street": "Via Corsini", "name": "Museo di Preistoria e Protostoria della Valle del Fiora", "tourism": "museum"}}, {"type": "node", "id": 7319322617, "lat": 42.6884426, "lon": 11.3372921, "tags": {"addr:city": "Scansano", "name": "Museo Archeologico e della Vite e del Vino", "tourism": "museum", "wikidata": "Q16337654"}}, {"type": "node", "id": 3587645235, "lat": 42.66497, "lon": 11.5060025, "tags": {"name": "Museo Archeologico di Saturnia", "tourism": "museum", "wikidata": "Q16337661", "wikipedia": "it:Museo archeologico di Saturnia"}}, {"type": "node", "id": 7319322618, "lat": 42.7935414, "lon": 11.4708359, "tags": {"addr:city": "Roccalbegna", "name": "Museo della Focarazza di Santa Caterina di Roccalbegna", "tourism": "museum", "wikidata": "Q16336951"}}, {"type": "node", "id": 4185890616, "lat": 42.6750894, "lon": 11.5464916, "tags": {"description": "Il museo ospita gli strumenti ed i documenti della banda paesana, istituita nel 1884 ed ancora attiva.", "name": "Museo Storico della Filarmonica \"Pietro Mascagni\"", "tourism": "museum"}}, {"type": "node", "id": 4187017396, "lat": 42.6294792, "lon": 11.6694715, "tags": {"name": "Museo archeologico all'aperto Alberto Manzi", "tourism": "museum", "wikidata": "Q16337029", "wikipedia": "it:Museo archeologico all'aperto Alberto Manzi"}}, {"type": "node", "id": 7319322620, "lat": 42.6333332, "lon": 11.6660858, "tags": {"addr:city": "Pitigliano", "name": "Museo di Cultura Ebraica La Piccola Gerusalemme", "tourism": "museum", "wikidata": "Q55374203"}}, {"type": "node", "id": 4187017397, "lat": 42.6347746, "lon": 11.6688614, "tags": {"name": "Museo archeologico della civilt\u00e0 etrusca", "tourism": "museum"}}, {"type": "node", "id": 7319322619, "lat": 42.6346774, "lon": 11.6683974, "tags": {"addr:city": "Pitigliano", "name": "Museo di Palazzo Orsini", "tourism": "museum"}}, {"type": "node", "id": 2946105698, "lat": 42.6572618, "lon": 11.6460893, "tags": {"name": "Museo archeologico", "tourism": "museum"}}, {"type": "node", "id": 4187016165, "lat": 42.6830487, "lon": 11.7146867, "tags": {"name": "Museo del Medioevo e del Rinascimento", "phone": "+39 0564 633767", "tourism": "museum", "website": "https://museidimaremma.it/", "wikidata": "Q16337062", "wikipedia": "it:Museo del Medioevo e del Rinascimento"}}, {"type": "node", "id": 7319322643, "lat": 42.7643431, "lon": 11.677866, "tags": {"addr:city": "Castell'Azzara", "name": "Sentiero ed Ex-Gallerie Minerarie del Cornacchino", "tourism": "museum"}}, {"type": "node", "id": 7319322639, "lat": 42.896194, "lon": 10.9271003, "tags": {"addr:city": "Gavorrano", "name": "Mostra Permanente di Arredi e Paramenti Sacri di San Biagio", "tourism": "museum", "wikidata": "Q93895613"}}, {"type": "node", "id": 5043202757, "lat": 42.8829244, "lon": 11.0860419, "tags": {"addr:city": "Montepescali", "addr:country": "IT", "addr:housenumber": "3", "addr:province": "Grosseto", "addr:street": "Via degli Ugurgeri", "alt_name": "Museo etnografico Ildebrando Imberciadori", "entrance": "main", "name": "Museo di storia locale Ildebrando Imberciadori", "tourism": "museum", "wikidata": "Q3868239", "wikipedia": "it:Museo di storia locale Ildebrando Imberciadori"}}, {"type": "node", "id": 7319322637, "lat": 42.914836, "lon": 10.9141001, "tags": {"addr:city": "Gavorrano", "name": "Museo Minerario del Parco Minerario Naturalistico di Gavorrano", "tourism": "museum"}}, {"type": "node", "id": 7319322638, "lat": 42.9209913, "lon": 10.9063914, "tags": {"addr:city": "Gavorrano", "name": "Museo Minerario del Parco Minerario Naturalistico di Gavorrano", "tourism": "museum"}}, {"type": "node", "id": 7319322640, "lat": 42.9249137, "lon": 10.905956, "tags": {"addr:city": "Gavorrano", "name": "Centro di Documentazione Castel di Pietra Davide Manni", "tourism": "museum"}}, {"type": "node", "id": 7319322631, "lat": 43.08334, "lon": 10.9874428, "tags": {"addr:city": "Massa Marittima", "name": "Museo Archeologico di Massa Marittima", "tourism": "museum"}}, {"type": "node", "id": 7319322626, "lat": 43.0528331, "lon": 11.0413309, "tags": {"addr:city": "Montieri", "name": "Il Giardino dei Suoni", "tourism": "museum"}}, {"type": "node", "id": 3673731415, "lat": 43.0090901, "lon": 11.1682448, "tags": {"addr:city": "Roccastrada", "addr:postcode": "58036", "addr:street": "Piazza dell'Orologio", "name": "Museo della vite e del Vino", "tourism": "museum", "wikidata": "Q55374208"}}, {"type": "node", "id": 2886616351, "lat": 43.0789126, "lon": 11.218768, "tags": {"name": "Museo geologico", "tourism": "museum", "wikidata": "Q66058089"}}, {"type": "node", "id": 7319010022, "lat": 43.1159789, "lon": 11.1599223, "tags": {"addr:city": "Monticiano", "name": "Parco Roberto Ciulli", "tourism": "museum"}}, {"type": "node", "id": 7319010023, "lat": 43.1396435, "lon": 11.1797891, "tags": {"addr:city": "Monticiano", "name": "Parco di Sculture Kurt Laurenz Metzler", "tourism": "museum"}}, {"type": "node", "id": 7318884167, "lat": 43.209217, "lon": 11.256397, "tags": {"addr:city": "Sovicille", "name": "Museo Etnografico del Bosco e della Mezzadria", "tourism": "museum", "wikidata": "Q3867936"}}, {"type": "node", "id": 7319322642, "lat": 42.8877899, "lon": 11.4788329, "tags": {"addr:city": "Cinigiano", "name": "Casa Museo di Monticello Amiata", "tourism": "museum", "wikidata": "Q3661341"}}, {"type": "node", "id": 7319010026, "lat": 42.980477, "lon": 11.400618, "tags": {"addr:city": "Montalcino", "name": "Museo Storico del Vetro e della Bottiglia J. F. Mariani", "tourism": "museum", "wikidata": "Q55375082"}}, {"type": "node", "id": 7319322645, "lat": 42.9441615, "lon": 11.4722506, "tags": {"addr:city": "Castel del Piano", "name": "Museo della Vite e del Vino di Montenero d'Orcia", "tourism": "museum"}}, {"type": "node", "id": 7319322646, "lat": 42.909481, "lon": 11.519283, "tags": {"addr:city": "Castel del Piano", "name": "Giardino d'Arte Arte A Parte", "tourism": "museum", "wikidata": "Q55674122"}}, {"type": "node", "id": 3757606638, "lat": 42.8314287, "lon": 11.5854684, "tags": {"addr:city": "Santa Fiora", "addr:housenumber": "23", "addr:postcode": "58037", "addr:street": "Piazza Giuseppe Garibaldi", "name": "Museo delle Miniere di Mercurio del Monte Amiata", "opening_hours": "Tu-Su 10:30-12:30,17:00-19:00 || \"on appointment\"", "operator": "Lucia Franceschelli", "phone": "+39 0564 978823", "tourism": "museum", "website": "http://www.minieredimercurio.it", "wikidata": "Q3328409", "wikipedia": "it:Museo delle miniere di mercurio del Monte Amiata"}}, {"type": "node", "id": 7319322647, "lat": 42.8721907, "lon": 11.5361139, "tags": {"addr:city": "Arcidosso", "name": "Sezione Espositiva del Centro Studi David Lazzaretti", "tourism": "museum", "wikidata": "Q16336937"}}, {"type": "node", "id": 7319322644, "lat": 42.893424, "lon": 11.5389191, "tags": {"addr:city": "Castel del Piano", "name": "Raccolta d'Arte di Palazzo Nerucci", "tourism": "museum", "wikidata": "Q55374049"}}, {"type": "node", "id": 7319010051, "lat": 42.8822291, "lon": 11.6653336, "tags": {"addr:city": "Abbadia San Salvatore", "name": "Parco Museo Minerario di Abbadia San Salvatore", "tourism": "museum"}}, {"type": "node", "id": 7319010052, "lat": 42.8824004, "lon": 11.676128, "tags": {"addr:city": "Abbadia San Salvatore", "name": "Museo dell'Abbazia di San Salvatore", "tourism": "museum"}}, {"type": "node", "id": 7319322614, "lat": 42.9283962, "lon": 11.5567507, "tags": {"addr:city": "Seggiano", "name": "Centro di Documentazione Permanente sui Beni Culturali del Territorio", "tourism": "museum", "wikidata": "Q55374234"}}, {"type": "node", "id": 7319322613, "lat": 42.921762, "lon": 11.569717, "tags": {"addr:city": "Seggiano", "name": "Il Giardino di Daniel Spoerri", "tourism": "museum"}}, {"type": "node", "id": 7319010042, "lat": 43.0061583, "lon": 11.6160556, "tags": {"addr:city": "Castiglione d'Orcia", "contact:facebook": "https://facebook.com/Sala-dArte-San-Giovanni-362244687122489/", "contact:website": "https://www.museisenesi.org/museo/sala-darte-san-giovanni-e-rocca-di-tentennano/", "name": "Sala d'Arte di San Giovanni", "tourism": "museum"}}, {"type": "node", "id": 7319010027, "lat": 43.05615, "lon": 11.490592, "tags": {"addr:city": "Montalcino", "name": "Fortezza di Montalcino", "tourism": "museum"}}, {"type": "node", "id": 7319010047, "lat": 43.1386912, "lon": 11.481904, "tags": {"addr:city": "Buonconvento", "name": "Museo d'Arte Sacra della Val d'Arbia", "tourism": "museum", "wikidata": "Q3868204", "wikipedia": "it:Museo di arte sacra della Val d'Arbia"}}, {"type": "node", "id": 7319010048, "lat": 43.1385922, "lon": 11.4819, "tags": {"addr:city": "Buonconvento", "name": "La Misericordia Patrimonio e Testimonianze", "tourism": "museum", "wikidata": "Q55375032"}}, {"type": "node", "id": 7319010046, "lat": 43.1392276, "lon": 11.4821364, "tags": {"addr:city": "Buonconvento", "addr:housenumber": "10", "addr:postcode": "53022", "addr:street": "Piazzale Garibaldi", "email": "museibuonconvento@gmail.com", "museum": "Ethnography", "name": "Museo Etnografico della Mezzadria Senese", "phone": "+39 0577 809744", "tourism": "museum", "website": "https://www.mezzadria.museibuonconvento.com/"}}, {"type": "node", "id": 759627428, "lat": 43.0765459, "lon": 11.6789076, "tags": {"gfoss_id": "4643", "heritage": "1", "heritage:operator": "whc", "name": "Pienza", "name:zh": "\u76ae\u6069\u624e", "place": "village", "population": "2233", "ref:whc": "789", "source": "geodati.gfoss.it", "whc:criteria": "(i),(ii),(iv)", "whc:inscription_date": "1996", "wikidata": "Q91341", "wikipedia": "it:Pienza"}}, {"type": "node", "id": 7319010019, "lat": 43.0765573, "lon": 11.6792726, "tags": {"addr:city": "Pienza", "name": "Palazzo Borgia - Museo Diocesano di Pienza", "tourism": "museum"}}, {"type": "node", "id": 7319010020, "lat": 43.0765114, "lon": 11.6787139, "tags": {"addr:city": "Pienza", "name": "Museo del Palazzo Piccolomini", "tourism": "museum", "wikidata": "Q55386949"}}, {"type": "node", "id": 7319010021, "lat": 43.0766029, "lon": 11.6812333, "tags": {"addr:city": "Pienza", "name": "Museo Archeologico e della Citt\u00e0 di Pienza", "tourism": "museum", "wikidata": "Q55379260"}}, {"type": "node", "id": 7319010018, "lat": 43.0682569, "lon": 11.7257019, "tags": {"addr:city": "Pienza", "name": "Tepotratos - Scene del Teatro Popolare Tradizionale Toscano", "tourism": "museum", "wikidata": "Q93895654"}}, {"type": "node", "id": 2785131229, "lat": 43.1528585, "lon": 11.5897334, "tags": {"addr:city": "San Giovanni d'Asso", "addr:housenumber": "1", "addr:postcode": "53020", "addr:street": "Piazza Antonio Gramsci", "name": "Museo del Tartufo e Centro di Documentazione", "phone": "+39 0577 803268", "tourism": "museum", "website": "http://museotartufo.museisenesi.org/", "wheelchair": "yes", "wikidata": "Q3867977", "wikipedia": "it:Museo del tartufo"}}, {"type": "node", "id": 7319010049, "lat": 43.1758426, "lon": 11.5443027, "tags": {"addr:city": "Asciano", "name": "Museo dell'Abbazia di Monte Oliveto Maggiore", "tourism": "museum", "wikidata": "Q55386945"}}, {"type": "node", "id": 7318884166, "lat": 43.1408543, "lon": 11.6646818, "tags": {"addr:city": "Trequanda", "name": "Museo d'Arte Sacra della Confraternita della Santissima Trinit\u00e0 e di San Bernardino", "tourism": "museum"}}, {"type": "node", "id": 7154946119, "lat": 43.1415315, "lon": 11.6879022, "tags": {"name": "Museo della Terracotta", "tourism": "museum", "wikidata": "Q3868116"}}, {"type": "node", "id": 7154946115, "lat": 43.1881693, "lon": 11.6664556, "tags": {"name": "Raccolta Archeologica Collezione Pallavicini", "tourism": "museum", "wikidata": "Q55674208"}}, {"type": "node", "id": 5018226554, "lat": 43.2130798, "lon": 11.7382928, "tags": {"name": "LARTH: Le stanze degli Etruschi", "tourism": "museum"}}, {"type": "node", "id": 7172234527, "lat": 41.6079959, "lon": 12.5412405, "tags": {"addr:city": "Ardea", "addr:postcode": "00040", "addr:street": "Via Laurentina km.32", "email": "pm-laz.museomanzu@beniculturali.it", "fee": "no", "museum": "art", "name": "Museo Giacomo Manz\u00f9", "opening_hours": "Tu-Su 09:00-19:00; Mo, Jan 1, Dec 25 off", "operator": "MIBACT", "operator:type": "public", "phone": "+39 06 9135022", "tourism": "museum", "website": "http://www.polomusealelazio.beniculturali.it/index.php?it/247/museo-giacomo-manz", "wheelchair": "yes", "wikidata": "Q55686005"}}, {"type": "node", "id": 4360136021, "lat": 41.8591371, "lon": 12.1905411, "tags": {"description": "centro internazionale di scultura", "name": "Museo Pianeta Azzurro", "tourism": "museum"}}, {"type": "node", "id": 2683531122, "lat": 41.8309736, "lon": 12.4673333, "tags": {"name": "Museo delle poste e telecomunicazioni", "tourism": "museum", "wikidata": "Q3868153", "wikipedia": "it:Museo delle poste e telecomunicazioni"}}, {"type": "node", "id": 401949920, "lat": 41.8320562, "lon": 12.478044, "tags": {"addr:city": "Roma", "addr:housenumber": "10", "addr:postcode": "00144", "addr:street": "Piazza Giovanni Agnelli", "description": "Sul sito viene indicata la chiusura del museo per lavori di ristrutturazione.", "email": "info.museociviltaromana@comune.roma.it", "name": "Museo della Civilt\u00e0 Romana", "name:be": "\u041c\u0443\u0437\u0435\u0439 \u0440\u044b\u043c\u0441\u043a\u0430\u0439 \u0446\u044b\u0432\u0456\u043b\u0456\u0437\u0430\u0446\u044b\u0456", "name:de": "Museo della Civilt\u00e0 Romana", "name:en": "Museum of Roman Civilization", "name:fr": "Mus\u00e9e de la Civilisation romaine", "name:he": "\u05d4\u05de\u05d5\u05d6\u05d9\u05d0\u05d5\u05df \u05dc\u05ea\u05e8\u05d1\u05d5\u05ea \u05d4\u05e8\u05d5\u05de\u05d9\u05ea", "name:nl": "Museo della Civilt\u00e0 Romana", "name:ru": "\u041c\u0443\u0437\u0435\u0439 \u0440\u0438\u043c\u0441\u043a\u043e\u0439 \u0446\u0438\u0432\u0438\u043b\u0438\u0437\u0430\u0446\u0438\u0438", "name:sh": "Muzej rimske civilizacije", "phone": "+39 06 0608", "tourism": "museum", "website": "http://www.museociviltaromana.it/", "wikidata": "Q1275123", "wikipedia": "it:Museo della civilt\u00e0 romana"}}, {"type": "node", "id": 401949921, "lat": 41.8309111, "lon": 12.4774786, "tags": {"name": "Museo dell'Astronomia e Planetario", "tourism": "museum", "website": "http://www.planetarioroma.it/"}}, {"type": "node", "id": 3503692293, "lat": 41.8338956, "lon": 12.4723489, "tags": {"alt_name": "Museo nazionale delle arti e tradizioni popolari \"Lamberto Loria\"", "museum": "folklore", "name": "Museo arti e tradizioni popolari \"L. Loria\"", "network": "Museo delle Civilt\u00e0", "operator": "MIBACT", "tourism": "museum", "website": "https://www.museocivilta.beniculturali.it/", "wikidata": "Q3868427", "wikipedia": "it:Museo nazionale delle arti e tradizioni popolari"}}, {"type": "node", "id": 3503692294, "lat": 41.8323822, "lon": 12.4721478, "tags": {"addr:city": "Roma", "addr:housenumber": "3", "addr:postcode": "00144", "addr:street": "Viale Lincoln", "alt_name": "Museo nazionale dell'Alto Medioevo \"Alessandra Vaccaro\"", "museum": "medieval", "name": "Museo Alto Medioevo \"A. Vaccaro\"", "network": "Museo delle Civilt\u00e0", "opening_hours": "Tu-Fr 09:00-19:00", "operator": "MIBACT", "tourism": "museum", "wikidata": "Q3330731", "wikipedia": "it:Museo nazionale dell'Alto Medioevo"}}, {"type": "node", "id": 7117296633, "lat": 41.8322303, "lon": 12.4717583, "tags": {"alt_name": "Museo Nazionale d'Arte Orientale \"Giuseppe Tucci\"", "fax": "+39 06 46974837", "museum": "orient", "name": "Museo Nazionale d'Arte Orientale \"G. Tucci\"", "network": "Museo delle Civilt\u00e0", "note": "relocated from Palazzo Brancaccio, Via Merulana", "operator": "MIBACT", "phone": "+39 06 46974832", "ref": "MNOR", "start_date": "1958", "tourism": "museum", "website": "http://www.museorientale.beniculturali.it", "wikidata": "Q1318133", "wikipedia": "it:Museo nazionale d'arte orientale Giuseppe Tucci"}}, {"type": "node", "id": 8426324243, "lat": 41.8339978, "lon": 12.4719867, "tags": {"museum": "nature", "name": "Museo di Geopaleontologia italiana Quintino Sella", "operator": "Mibact - ISPRA", "operator:type": "public", "source": "https://www.beniculturali.it/comunicato/cultura-firmata-convenzione-tra-mibact-e-ispra-per-la-valorizzazione-del-patrimonio-geologico ; https://www.exibart.com/musei/il-nuovo-museo-quintino-sella-per-il-patrimonio-geologico-italiano/", "start_date": "2021-12", "tourism": "museum"}}, {"type": "node", "id": 7876169064, "lat": 41.8208889, "lon": 12.4816757, "tags": {"addr:housenumber": "10", "addr:street": "Via Antonio Cippico", "name": "Archivio museo storico di Fiume", "tourism": "museum", "website": "http://www.fiume-rijeka.it/", "wikidata": "Q3621669"}}, {"type": "node", "id": 8074581531, "lat": 41.8653208, "lon": 12.4514655, "tags": {"museum": "nature", "name": "Museo Anatomico \"E. Morelli\"", "opening_hours:covid19": "off", "tourism": "museum"}}, {"type": "node", "id": 3218242360, "lat": 41.8762875, "lon": 12.472991, "tags": {"alt_name": "Museo D'Arte Contemporanea Roma", "name": "Macro Testaccio", "tourism": "museum", "website": "http://museomacro.org/it/macro-testaccio"}}, {"type": "node", "id": 6497896682, "lat": 41.8883948, "lon": 12.4614944, "tags": {"addr:city": "Roma", "addr:postcode": "00153", "addr:street": "Largo di Porta San Pancrazio", "description": "Il museo si trova all'interno della Porta San Pancrazio.", "email": "mara.minasi@comune.roma.it", "name": "Museo della Repubblica Romana e della memoria garibaldina", "opening_hours": "Tu-Fr 10:00-14:00; Sa,Su,PH 10:00-18:00; Mo off; Jan 1 off; May 1 off; Dec 25 off", "phone": "+39 06 0608", "tourism": "museum", "website": "http://www.museodellarepubblicaromana.it/it/il_museo/editoriale", "wikidata": "Q3868045"}}, {"type": "node", "id": 4292016589, "lat": 41.8889045, "lon": 12.4666124, "tags": {"addr:housenumber": "3", "addr:postcode": "00153", "addr:street": "Piazza di San Pietro in Montorio", "name": "Real Academia de Espa\u00f1a", "tourism": "museum", "wikidata": "Q531779", "wikipedia": "it:Accademia di Spagna"}}, {"type": "node", "id": 5070171858, "lat": 41.8932889, "lon": 12.4666902, "tags": {"name": "Galleria nazionale d'arte antica di palazzo Corsini", "opening_hours": "We-Mo 08:30-19:00", "tourism": "museum", "website": "https://www.barberinicorsini.org", "wikidata": "Q3757768", "wikipedia": "it:Galleria nazionale d'arte antica di palazzo Corsini"}}, {"type": "node", "id": 656532697, "lat": 41.8938866, "lon": 12.4722011, "tags": {"addr:city": "Roma", "addr:housenumber": "13", "addr:postcode": "00186", "addr:street": "Piazza Capo di Ferro", "email": "palazzospada@gebart.it", "name": "Galleria Spada", "name:ko": "\uc2a4\ud30c\ub2e4 \uad81", "name:ru": "\u0413\u0430\u043b\u0435\u0440\u0435\u044f \u0421\u043f\u0430\u0434\u0430", "opening_hours": "We-Mo 08:30-19:30; Tu off; May 1 off; Dec 25 off", "phone": "+ 39 06 6832409", "tourism": "museum", "website": "http://galleriaspada.beniculturali.it/index.php?it/1/home", "wikidata": "Q3757699", "wikipedia": "it:Galleria Spada"}}, {"type": "node", "id": 4470099910, "lat": 41.8919593, "lon": 12.4779863, "tags": {"addr:street": "Largo Stefano Gaj Tach\u00e8", "name": "Museo Ebraico di Roma", "name:en": "Jewish Museum of Rome", "name:ru": "\u0435\u0432\u0440\u0435\u0439\u0441\u043a\u0438\u0439 \u043c\u0443\u0437\u0435\u0439 \u0420\u0438\u043c\u0430", "opening_hours": "Apr 18-20 off;Apr 25-26 off;Aug 15 off;Aug 9 off;Fr 09:00-13:15;Jan 1 off;Jun 8-9 off;Mar 20 off;May 10 off;Oct 13-14 off;Oct 19-21 off;Oct 7-8 off;Sa off;Sep 29-30 off;Su-Tu 10:00-16:15", "start_date": "1960", "tourism": "museum", "wikidata": "Q6756984", "wikipedia": "it:Museo ebraico (Roma)"}}, {"type": "node", "id": 7114360986, "lat": 41.9021023, "lon": 12.4615757, "tags": {"name": "Museo Leonardo da Vinci", "tourism": "museum"}}, {"type": "node", "id": 1674754682, "lat": 41.9001125, "lon": 12.471373, "tags": {"addr:city": "Roma", "addr:housenumber": "5", "addr:postcode": "00186", "addr:street": "Arco della Pace", "name": "Chiostro del Bramante", "name:en": "Cloisters of Bramante", "name:hu": "Bramante kereng\u0151je", "phone": "+39 06 68809035", "tourism": "museum", "website": "http://www.chiostrodelbramante.it/", "wheelchair": "limited", "wikidata": "Q25100007", "wikipedia": "en:Chiostro del Bramante"}}, {"type": "node", "id": 3761580107, "lat": 41.8985849, "lon": 12.4675164, "tags": {"addr:city": "Roma", "addr:country": "IT", "addr:housenumber": "282-284", "addr:postcode": "00186", "addr:street": "Corso Vittorio Emanuele II", "name": "Giacomo Guidi Arte Contemporanea", "name:hu": "Giacomo Guidi Kort\u00e1rs M\u0171v\u00e9szeti M\u00fazeum", "tourism": "museum"}}, {"type": "node", "id": 4258490090, "lat": 41.8976957, "lon": 12.466697, "tags": {"addr:city": "Roma", "addr:country": "IT", "addr:housenumber": "29", "addr:street": "Via del Gonfalone", "name": "Museo Criminologico", "name:hu": "B\u0171n\u00fcgyi M\u00fazeum", "name:it": "Museo Criminologico", "name:ru": "\u041c\u0443\u0437\u0435\u0439 \u043a\u0440\u0438\u043c\u0438\u043d\u043e\u043b\u043e\u0433\u0438", "short_name": "MUCRI", "tourism": "museum", "website": "http://www.museocriminologico.it/", "wikidata": "Q3867843", "wikipedia": "it:Museo criminologico MUCRI"}}, {"type": "node", "id": 4473463243, "lat": 41.8965566, "lon": 12.4714308, "tags": {"addr:housenumber": "1", "addr:street": "Piazza della Cancelleria", "name": "Mostra Leonardo da Vinci", "opening_hours": "Mo-Su 09:30-19:30", "tourism": "museum", "website": "https://www.mostradileonardo.com/"}}, {"type": "node", "id": 656829698, "lat": 41.8972775, "lon": 12.4727772, "tags": {"addr:city": "Roma", "addr:housenumber": "10", "addr:postcode": "00186", "addr:street": "Via di San Pantaleo", "email": "museodiroma@comune.roma.it", "name": "Museo di Roma", "name:it": "Museo di Roma", "name:zh": "\u7f57\u9a6c\u535a\u7269\u9986", "opening_hours": "Tu-Su 10:00-19:00; Dec 24, Dec 31 10:00-14:00; Mo off; Jan 1 off; May 1 off; Dec 25 off", "phone": "+39 06 0608", "tourism": "museum", "website": "http://www.museodiroma.it/", "wheelchair": "yes", "wikidata": "Q3868175", "wikipedia": "it:Museo di Roma a palazzo Braschi"}}, {"type": "node", "id": 2296913458, "lat": 41.9002159, "lon": 12.4725305, "tags": {"addr:city": "Roma", "addr:country": "IT", "addr:housenumber": "3", "addr:postcode": "00186", "addr:street": "Via di Tor Sanguigna", "alt_name": "Stadium of Domitian", "concessionaire": "MKT121 Srl.", "description": "Piazza Navona, ai tempi dell'antica Roma, era lo Stadio di Domiziano, costruito dall'imperatore Domiziano nell'85. Era lungo 276 m, largo 106 e poteva ospitare 30.000 spettatori.", "email": "info@stadiodomiziano.com", "historic": "archaeological_site", "historic:civilization": "ancient_roman", "name": "Stadio di Domiziano", "opening_hours": "Mo-Fr 10:00-19:00, Su 10:00-19:00; Sa 10:00-20:00", "operator": "Sovrintendenza Capitolina ai Beni Culturali", "phone": "+39 06 68805311", "ref:vatin": "IT09993821009", "site_type": "stadium", "tourism": "museum", "website": "https://stadiodomiziano.com/", "wheelchair": "no", "wikidata": "Q963671", "wikipedia": "it:Stadio di Domiziano"}}, {"type": "node", "id": 4311294814, "lat": 41.8968178, "lon": 12.4725968, "tags": {"addr:housenumber": "166/A", "addr:street": "Corso Vittorio Emanuele II", "alt_name": "Museo Barracco", "email": "info.museobarracco@comune.roma.it", "entrance": "yes", "name": "Museo di scultura antica Giovanni Barracco", "opening_hours": "Oct-May: Tu-Su 10:00-16:00; Dec 24,Dec 31 09:00-14:00; Jun-Sep: Tu-Su 13:00-19:00, Mo off; Mo off; Jan 01 off; May 01 off; Dec 25 off", "phone": "+39 06 0608", "tourism": "museum", "website": "http://www.museobarracco.it/", "wikidata": "Q2729588", "wikipedia": "it:Museo Barracco"}}, {"type": "node", "id": 4644981092, "lat": 41.8948017, "lon": 12.4766981, "tags": {"addr:housenumber": "24", "addr:postcode": "00186", "addr:street": "Via Florida", "name": "Fondazione Museo della Shoah", "tourism": "museum"}}, {"type": "node", "id": 5826726788, "lat": 41.8989371, "lon": 12.4734564, "tags": {"name": "Gladiator Museum", "opening_hours": "Mo-Su 10:00-19:30", "phone": "+39 06 6889 1777", "tourism": "museum", "website": "http://www.gladiatormuseum.com/", "wheelchair": "no"}}, {"type": "node", "id": 6499816579, "lat": 41.90308, "lon": 12.4661811, "tags": {"addr:city": "Roma", "addr:housenumber": "50", "addr:postcode": "00193", "addr:street": "Lungotevere Castello", "email": "pm-laz@beniculturali.it", "name": "Museo Nazionale di Castel Sant\u2019Angelo", "name:zh": "\u570b\u7acb\u8056\u5929\u4f7f\u5821\u535a\u7269\u9928", "opening_hours": "Mo-Su 09:00-19:30; Jan 1 off; May 1 off; Dec 25 off", "phone": "+39 06 6819111", "tourism": "museum", "website": "http://castelsantangelo.beniculturali.it", "wikidata": "Q55685976"}}, {"type": "node", "id": 677476578, "lat": 41.9011978, "lon": 12.4728382, "tags": {"addr:city": "Roma", "addr:housenumber": "46", "addr:postcode": "00186", "addr:street": "Piazza di Sant'Apollinare", "name": "Museo Nazionale Romano", "name:hu": "Nemzeti R\u00f3mai Kori M\u00fazeum", "name:uk": "\u041f\u0430\u043b\u0430\u0446\u0446\u043e \u0410\u043b\u044c\u0442\u0435\u043c\u043f\u0441", "name:zh": "\u7f57\u9a6c\u56fd\u5bb6\u535a\u7269\u9986\u963f\u5c14\u6ed5\u666e\u65af\u5bab", "opening_hours": "Tu-Su 09:00-19:45", "operator": "Soprintendenza Speciale per i Beni Archeologici di Roma", "phone": "+39 06 39967700", "tourism": "museum", "website": "https://www.museonazionaleromano.beniculturali.it", "wheelchair": "yes", "wikidata": "Q1816007", "wikipedia": "it:Museo nazionale romano di palazzo Altemps"}}, {"type": "node", "id": 1938346422, "lat": 41.901854, "lon": 12.4719899, "tags": {"addr:city": "Roma", "addr:country": "IT", "addr:housenumber": "1", "addr:postcode": "00186", "addr:street": "Piazza di Ponte Umberto I", "email": "museonapoleonico@comune.roma.it", "name": "Museo napoleonico di Roma", "opening_hours": "Tu-Su 10:00-18:00; Dec 24,Dec 31 10:00-14:00; Mo off; Jan 01 off; May 01 off; Dec 25 off", "phone": "+39 06 6874240", "tourism": "museum", "website": "http://www.museonapoleonico.it/", "wheelchair": "no", "wikidata": "Q15141205", "wikipedia": "it:Museo napoleonico di Roma"}}, {"type": "node", "id": 5340598393, "lat": 41.9057281, "lon": 12.4756711, "tags": {"name": "Esposizione permanente Fausto delle Chiaie", "tourism": "museum", "website": "https://www.facebook.com/groups/38676398171/about/"}},