{"type": "FeatureCollection", "features": [{"type": "Feature", "properties": {"type": "node", "id": 1448737876, "tags": {"name": "Bab\u00f3csa", "railway": "station", "ref:mav": "225"}}, "geometry": {"type": "Point", "coordinates": [17.3422495, 46.0283614]}}, {"type": "Feature", "properties": {"type": "node", "id": 94722982, "tags": {"name": "V\u00edzv\u00e1r", "railway": "station", "ref:mav": "224"}}, "geometry": {"type": "Point", "coordinates": [17.2392621, 46.1015275]}}, {"type": "Feature", "properties": {"type": "node", "id": 1448733468, "tags": {"alt_name": "Barcs, vas\u00fat\u00e1llom\u00e1s", "name": "Barcs", "name:de": "Bartsch", "name:hr": "Bar\u010d", "name:ru": "\u0411\u0430\u0440\u0447", "name:sl": "Bar\u010d", "name:sr": "\u0411\u0430\u0440\u0447", "old_name:de": "Draustadt", "railway": "station", "ref:mav": "228", "wheelchair": "limited"}}, "geometry": {"type": "Point", "coordinates": [17.4466876, 45.9517329]}}, {"type": "Feature", "properties": {"type": "node", "id": 94730713, "tags": {"name": "K\u00f6z\u00e9prig\u00f3c", "railway": "station", "ref:mav": "230"}}, "geometry": {"type": "Point", "coordinates": [17.5247092, 45.9705317]}}, {"type": "Feature", "properties": {"type": "node", "id": 94730718, "tags": {"name": "Dar\u00e1ny", "name:ru": "\u0414\u0430\u0440\u0430\u043d\u044c", "railway": "station", "ref:mav": "231"}}, "geometry": {"type": "Point", "coordinates": [17.5982893, 45.9922343]}}, {"type": "Feature", "properties": {"type": "node", "id": 94301821, "tags": {"name": "Gy\u00e9k\u00e9nyes", "railway": "station", "ref:mav": "3836"}}, "geometry": {"type": "Point", "coordinates": [16.9551447, 46.2491089]}}, {"type": "Feature", "properties": {"type": "node", "id": 94301795, "tags": {"name": "\u0150rtilos", "railway": "station", "ref:mav": "219"}}, "geometry": {"type": "Point", "coordinates": [16.8875655, 46.2977897]}}, {"type": "Feature", "properties": {"type": "node", "id": 94722975, "tags": {"name": "Berzence", "name:ru": "\u0411\u0435\u0440\u0437\u0435\u043d\u0446\u0435", "public_transport": "stop_position", "railway": "stop", "train": "yes"}}, "geometry": {"type": "Point", "coordinates": [17.143579, 46.2011975]}}, {"type": "Feature", "properties": {"type": "node", "id": 4945221400, "tags": {"name": "Berzence", "name:ru": "\u0411\u0435\u0440\u0437\u0435\u043d\u0446\u0435", "public_transport": "station", "railway": "station", "ref:mav": "221", "train": "yes"}}, "geometry": {"type": "Point", "coordinates": [17.14387, 46.2012652]}}, {"type": "Feature", "properties": {"type": "node", "id": 94743609, "tags": {"name": "Csurg\u00f3", "public_transport": "station", "railway": "station", "ref:mav": "3834"}}, "geometry": {"type": "Point", "coordinates": [17.0917873, 46.2616551]}}, {"type": "Feature", "properties": {"type": "node", "id": 94743602, "tags": {"name": "Szenta", "name:ru": "\u0421\u0435\u043d\u0442\u0430", "network": "M\u00c1V", "operator": "M\u00c1V", "public_transport": "station", "railway": "station", "ref:mav": "3832", "train:route": "307"}}, "geometry": {"type": "Point", "coordinates": [17.1808273, 46.2736722]}}, {"type": "Feature", "properties": {"type": "node", "id": 1437481403, "tags": {"name": "Szenta", "operator": "KEV", "railway": "station"}}, "geometry": {"type": "Point", "coordinates": [17.1811786, 46.2737883]}}, {"type": "Feature", "properties": {"type": "node", "id": 344909742, "tags": {"name": "Murakereszt\u00far", "railway": "station", "ref:mav": "3624"}}, "geometry": {"type": "Point", "coordinates": [16.8782504, 46.364194]}}, {"type": "Feature", "properties": {"type": "node", "id": 94290634, "tags": {"name": "\u00dajudvar", "operator": "M\u00c1V", "public_transport": "station", "railway": "station", "railway:name:M\u00c1V": "\u00dajudvar", "ref:mav": "213", "train": "yes", "uic_ref": "5505488"}}, "geometry": {"type": "Point", "coordinates": [16.9799562, 46.5193303]}}, {"type": "Feature", "properties": {"type": "node", "id": 94290630, "tags": {"name": "Nagykanizsa", "operator": "M\u00c1V", "railway": "station", "railway:name:M\u00c1V": "Nagykanizsa", "ref:mav": "3622", "uic_ref": "5503624", "website": "http://www.vasutallomasok.hu/allomas.php?az=ngkn"}}, "geometry": {"type": "Point", "coordinates": [16.987217, 46.4406865]}}, {"type": "Feature", "properties": {"type": "node", "id": 467097189, "tags": {"name": "Nagyr\u00e9cse", "railway": "station", "ref:mav": "3621"}}, "geometry": {"type": "Point", "coordinates": [17.0434467, 46.4637521]}}, {"type": "Feature", "properties": {"type": "node", "id": 467097188, "tags": {"name": "Zalaszentjakab", "railway": "station", "ref:mav": "3620"}}, "geometry": {"type": "Point", "coordinates": [17.1352677, 46.4913441]}}, {"type": "Feature", "properties": {"type": "node", "id": 94939411, "tags": {"name": "Zalakom\u00e1r", "railway": "station", "ref:mav": "3625"}}, "geometry": {"type": "Point", "coordinates": [17.1879051, 46.5298633]}}, {"type": "Feature", "properties": {"type": "node", "id": 338000585, "tags": {"name": "Nagyat\u00e1d", "public_transport": "station", "railway": "station", "ref:mav": "260"}}, "geometry": {"type": "Point", "coordinates": [17.3542785, 46.2264875]}}, {"type": "Feature", "properties": {"type": "node", "id": 1437481401, "tags": {"name": "Kasz\u00f3", "railway": "station"}}, "geometry": {"type": "Point", "coordinates": [17.2204114, 46.3172863]}}, {"type": "Feature", "properties": {"type": "node", "id": 94743595, "tags": {"name": "Somogyszob", "name:ru": "\u0428\u043e\u043c\u043e\u0434\u044c\u0441\u043e\u0431", "railway": "station", "ref:mav": "3830"}}, "geometry": {"type": "Point", "coordinates": [17.3067484, 46.289052]}}, {"type": "Feature", "properties": {"type": "node", "id": 94743620, "tags": {"name": "Beleg", "name:ru": "\u0411\u0435\u043b\u0435\u0433", "railway": "station", "ref:mav": "3828"}}, "geometry": {"type": "Point", "coordinates": [17.4208763, 46.3167788]}}, {"type": "Feature", "properties": {"type": "node", "id": 94743562, "tags": {"name": "J\u00e1k\u00f3-Nagybajom", "railway": "station", "ref:mav": "3826"}}, "geometry": {"type": "Point", "coordinates": [17.5551156, 46.3446904]}}, {"type": "Feature", "properties": {"type": "node", "id": 94743561, "tags": {"name": "Kiskorp\u00e1d", "railway": "station", "ref:mav": "3825"}}, "geometry": {"type": "Point", "coordinates": [17.6077193, 46.3620628]}}, {"type": "Feature", "properties": {"type": "node", "id": 1437544220, "tags": {"name": "Mesztegny\u0151 kisvas\u00fat v\u00e1.", "operator": "SEFAG Zrt.", "railway": "station", "website": "http://sefag.hu/kozjolet/mesztegnyoi-erdei-vasut"}}, "geometry": {"type": "Point", "coordinates": [17.433568, 46.5074977]}}, {"type": "Feature", "properties": {"type": "node", "id": 4821991067, "tags": {"name": "Dr\u00e1vafok", "railway": "station"}}, "geometry": {"type": "Point", "coordinates": [17.751884, 45.8874841]}}, {"type": "Feature", "properties": {"type": "node", "id": 409004984, "tags": {"name": "Sellye", "name:de": "Schelle", "name:hr": "\u0160eljin", "railway": "station", "ref:mav": "4993"}}, "geometry": {"type": "Point", "coordinates": [17.8591505, 45.8731904]}}, {"type": "Feature", "properties": {"type": "node", "id": 409557413, "tags": {"name": "Cs\u00e1nyoszr\u00f3", "railway": "station"}}, "geometry": {"type": "Point", "coordinates": [17.9096654, 45.8844629]}}, {"type": "Feature", "properties": {"type": "node", "id": 4817066840, "tags": {"name": "Vajszl\u00f3", "railway": "station"}}, "geometry": {"type": "Point", "coordinates": [17.9885452, 45.8617926]}}, {"type": "Feature", "properties": {"type": "node", "id": 94730730, "tags": {"name": "Szigetv\u00e1r", "name:de": "Inselburg", "name:hr": "Siget", "railway": "station", "ref:mav": "235"}}, "geometry": {"type": "Point", "coordinates": [17.8023004, 46.0429982]}}, {"type": "Feature", "properties": {"type": "node", "id": 1061100152, "tags": {"name": "Sumony", "railway": "station", "ref:mav": "4971"}}, "geometry": {"type": "Point", "coordinates": [17.911898, 45.9606204]}}, {"type": "Feature", "properties": {"type": "node", "id": 335404400, "tags": {"name": "Szentl\u0151rinc", "railway": "station", "ref:mav": "4950"}}, "geometry": {"type": "Point", "coordinates": [17.9906863, 46.0330993]}}, {"type": "Feature", "properties": {"type": "node", "id": 343658483, "tags": {"name": "B\u00fckk\u00f6sd", "railway": "station", "ref:mav": "4948"}}, "geometry": {"type": "Point", "coordinates": [17.9997005, 46.1130621]}}, {"type": "Feature", "properties": {"type": "node", "id": 1063783516, "tags": {"name": "\u00c1ta", "railway": "station", "ref:mav": "4958"}}, "geometry": {"type": "Point", "coordinates": [18.3070355, 45.9358864]}}, {"type": "Feature", "properties": {"type": "node", "id": 344972517, "tags": {"name": "Vill\u00e1ny", "railway": "station", "ref:mav": "4963"}}, "geometry": {"type": "Point", "coordinates": [18.4515631, 45.8773029]}}, {"type": "Feature", "properties": {"type": "node", "id": 342155899, "tags": {"name": "Bics\u00e9rd", "railway": "station", "ref:mav": "4951"}}, "geometry": {"type": "Point", "coordinates": [18.0539127, 46.0409744]}}, {"type": "Feature", "properties": {"type": "node", "id": 7504061809, "tags": {"name": "Hetvehely", "public_transport": "stop_position", "railway": "stop", "ref:mav": "4947", "source": "turistautak.hu", "train": "yes", "url": "http://turistautak.hu/poi.php?id=10530"}}, "geometry": {"type": "Point", "coordinates": [18.0451757, 46.1283042]}}, {"type": "Feature", "properties": {"type": "node", "id": 343659248, "tags": {"name": "Abaliget", "railway": "station", "ref:mav": "4946"}}, "geometry": {"type": "Point", "coordinates": [18.0749423, 46.1526476]}}, {"type": "Feature", "properties": {"type": "node", "id": 342152127, "tags": {"name": "Mecsekalja-Cserk\u00fat", "railway": "station", "ref:mav": "4952"}}, "geometry": {"type": "Point", "coordinates": [18.1519161, 46.0602316]}}, {"type": "Feature", "properties": {"type": "node", "id": 25546152, "tags": {"name": "P\u00e9cs", "name:cs": "P\u011btikostel\u00ed", "name:de": "F\u00fcnfkirchen", "name:hr": "Pe\u010duh", "name:la": "Quinque Ecclesiae", "name:ru": "\u041f\u0435\u0447", "name:sk": "P\u00e4\u0165kostolie", "name:sr": "\u041f\u0435\u0447\u0443\u0458", "name:uk": "\u041f\u0435\u0447", "old_name:la": "Sopianae", "operator": "M\u00c1V", "railway": "station", "railway:ref": "PS", "ref:mav": "4953"}}, "geometry": {"type": "Point", "coordinates": [18.225298, 46.0664531]}}, {"type": "Feature", "properties": {"type": "node", "id": 340413312, "tags": {"name": "P\u00e9cs-K\u00fclv\u00e1ros", "railway": "station", "ref:mav": "4954"}}, "geometry": {"type": "Point", "coordinates": [18.2402321, 46.0717346]}}, {"type": "Feature", "properties": {"type": "node", "id": 94528727, "tags": {"alt_name:de": "Ruppertsberg;Ruppertsburg", "name": "Kaposv\u00e1r", "name:de": "Kopisch", "name:ru": "\u041a\u0430\u043f\u043e\u0448\u0432\u0430\u0440", "name:sr": "\u041a\u0430\u043f\u043e\u0448\u0432\u0430\u0440", "operator": "M\u00c1V", "public_transport": "station", "railway": "station", "railway:ref": "KA", "ref:mav": "3821", "train": "yes", "wikidata": "Q12814852"}}, "geometry": {"type": "Point", "coordinates": [17.7948725, 46.3526409]}}, {"type": "Feature", "properties": {"type": "node", "id": 1141836627, "tags": {"name": "Almamell\u00e9k", "public_transport": "station", "railway": "station"}}, "geometry": {"type": "Point", "coordinates": [17.8892525, 46.1677203]}}, {"type": "Feature", "properties": {"type": "node", "id": 1141836666, "tags": {"name": "Sasr\u00e9t", "railway": "station"}}, "geometry": {"type": "Point", "coordinates": [17.8898624, 46.2047852]}}, {"type": "Feature", "properties": {"type": "node", "id": 1065130840, "tags": {"name": "Bat\u00e9", "railway": "station", "ref:mav": "3817"}}, "geometry": {"type": "Point", "coordinates": [17.9610432, 46.3557942]}}, {"type": "Feature", "properties": {"type": "node", "id": 94528674, "tags": {"name": "Kaposm\u00e9r\u0151", "railway": "station", "ref:mav": "3823"}}, "geometry": {"type": "Point", "coordinates": [17.6994858, 46.3655204]}}, {"type": "Feature", "properties": {"type": "node", "id": 412454445, "tags": {"name": "Kaposf\u00fcred", "public_transport": "station", "railway": "station", "ref:mav": "6076", "train": "yes", "wikidata": "Q22132184"}}, "geometry": {"type": "Point", "coordinates": [17.7591273, 46.4145855]}}, {"type": "Feature", "properties": {"type": "node", "id": 8445702970, "tags": {"name": "V\u00e1rda", "network": "36-os vonal", "operator": "M\u00c1V", "public_transport": "stop_position", "railway": "stop", "train": "yes"}}, "geometry": {"type": "Point", "coordinates": [17.7266605, 46.4596645]}}, {"type": "Feature", "properties": {"type": "node", "id": 412453997, "tags": {"name": "Osztop\u00e1n", "public_transport": "station", "railway": "station", "ref:mav": "6079", "train": "yes"}}, "geometry": {"type": "Point", "coordinates": [17.6570512, 46.5144855]}}, {"type": "Feature", "properties": {"type": "node", "id": 412454417, "tags": {"name": "Somogyj\u00e1d", "public_transport": "station", "railway": "station", "ref:mav": "6078", "train": "yes"}}, "geometry": {"type": "Point", "coordinates": [17.6944844, 46.4916095]}}, {"type": "Feature", "properties": {"type": "node", "id": 95043970, "tags": {"name": "Fels\u0151mocsol\u00e1d", "railway": "station", "ref:mav": "5009"}}, "geometry": {"type": "Point", "coordinates": [17.8212632, 46.5606266]}}, {"type": "Feature", "properties": {"type": "node", "id": 1065129977, "tags": {"name": "Tasz\u00e1r", "railway": "station", "ref:mav": "3819"}}, "geometry": {"type": "Point", "coordinates": [17.8938707, 46.3634677]}}, {"type": "Feature", "properties": {"type": "node", "id": 95043975, "tags": {"name": "Mernye", "railway": "station", "ref:mav": "5008"}}, "geometry": {"type": "Point", "coordinates": [17.8321914, 46.5095421]}}, {"type": "Feature", "properties": {"type": "node", "id": 354578892, "tags": {"name": "Godisa", "railway": "station", "ref:mav": "4945"}}, "geometry": {"type": "Point", "coordinates": [18.1046737, 46.2233061]}}, {"type": "Feature", "properties": {"type": "node", "id": 92829746, "tags": {"name": "S\u00e1sd", "name:de": "Schaschd", "name:hr": "\u0160a\u0161", "old_name:de": "Ried", "public_transport": "station", "railway": "station", "ref:mav": "4944", "train": "yes"}}, "geometry": {"type": "Point", "coordinates": [18.1044834, 46.2572582]}}, {"type": "Feature", "properties": {"type": "node", "id": 1260939556, "tags": {"name": "Magyarsz\u00e9k", "railway": "station", "ref:mav": "4966"}}, "geometry": {"type": "Point", "coordinates": [18.1861178, 46.2101911]}}, {"type": "Feature", "properties": {"type": "node", "id": 1260939554, "tags": {"name": "Mecsekj\u00e1nosi", "railway": "station", "ref:mav": "4968"}}, "geometry": {"type": "Point", "coordinates": [18.241862, 46.2164962]}}, {"type": "Feature", "properties": {"type": "node", "id": 355209315, "tags": {"name": "V\u00e1s\u00e1rosdomb\u00f3", "public_transport": "station", "railway": "station", "ref:mav": "4731", "train": "yes"}}, "geometry": {"type": "Point", "coordinates": [18.138684, 46.3102244]}}, {"type": "Feature", "properties": {"type": "node", "id": 354597184, "tags": {"name": "M\u00e1gocs-Als\u00f3mocsol\u00e1d", "railway": "station", "ref:mav": "3875"}}, "geometry": {"type": "Point", "coordinates": [18.2237073, 46.3070001]}}, {"type": "Feature", "properties": {"type": "node", "id": 355873876, "tags": {"name": "Koml\u00f3", "name:de": "Kumlau", "railway": "station", "ref:mav": "4969"}}, "geometry": {"type": "Point", "coordinates": [18.2646266, 46.1891425]}}, {"type": "Feature", "properties": {"type": "node", "id": 409646085, "tags": {"name": "M\u00e1za-Sz\u00e1szv\u00e1r", "railway": "station", "ref:mav": "3878"}}, "geometry": {"type": "Point", "coordinates": [18.4090496, 46.2790568]}}, {"type": "Feature", "properties": {"type": "node", "id": 1065129623, "tags": {"name": "Csoma-Szabadi", "railway": "station", "ref:mav": "2403"}}, "geometry": {"type": "Point", "coordinates": [18.0447614, 46.3663465]}}, {"type": "Feature", "properties": {"type": "node", "id": 2533005517, "tags": {"name": "Csoma-Szabadi", "railway": "station", "ref:mav": "2403"}}, "geometry": {"type": "Point", "coordinates": [18.0447161, 46.3663904]}}, {"type": "Feature", "properties": {"type": "node", "id": 336099929, "tags": {"name": "Domb\u00f3v\u00e1r als\u00f3", "operator": "M\u00c1V", "railway": "station", "railway:ref": "DM", "ref:mav": "1760"}}, "geometry": {"type": "Point", "coordinates": [18.1340735, 46.3637356]}}, {"type": "Feature", "properties": {"type": "node", "id": 6656051319, "tags": {"name": "Domb\u00f3v\u00e1r", "name:de": "Dombowa", "operator": "M\u00c1V", "public_transport": "stop_position", "railway": "station", "railway:ref": "UD", "ref:mav": "1759", "train": "yes"}}, "geometry": {"type": "Point", "coordinates": [18.1496155, 46.3699064]}}, {"type": "Feature", "properties": {"type": "node", "id": 619127249, "tags": {"name": "D\u00f6br\u00f6k\u00f6z", "public_transport": "stop_position", "railway": "station", "ref:mav": "1758", "train": "yes"}}, "geometry": {"type": "Point", "coordinates": [18.2527873, 46.4158798]}}, {"type": "Feature", "properties": {"type": "node", "id": 619127253, "tags": {"name": "Kurd", "public_transport": "stop_position", "railway": "station", "ref:mav": "1757", "train": "yes"}}, "geometry": {"type": "Point", "coordinates": [18.3188205, 46.4497138]}}, {"type": "Feature", "properties": {"type": "node", "id": 619127258, "tags": {"name": "Csibr\u00e1k", "public_transport": "stop_position", "railway": "halt", "ref:mav": "1756", "train": "yes"}}, "geometry": {"type": "Point", "coordinates": [18.3352983, 46.466195]}}, {"type": "Feature", "properties": {"type": "node", "id": 92829291, "tags": {"name": "D\u00fazs", "public_transport": "stop_position", "railway": "halt", "ref:mav": "1755", "train": "yes"}}, "geometry": {"type": "Point", "coordinates": [18.3772846, 46.4940328]}}, {"type": "Feature", "properties": {"type": "node", "id": 619127259, "tags": {"name": "Szak\u00e1ly-H\u0151gy\u00e9sz", "public_transport": "stop_position", "railway": "station", "ref:mav": "1754", "train": "yes"}}, "geometry": {"type": "Point", "coordinates": [18.3891931, 46.5238718]}}, {"type": "Feature", "properties": {"type": "node", "id": 619127262, "tags": {"name": "Reg\u00f6ly", "public_transport": "stop_position", "railway": "halt", "ref:mav": "1753", "train": "yes"}}, "geometry": {"type": "Point", "coordinates": [18.3954882, 46.5685483]}}, {"type": "Feature", "properties": {"type": "node", "id": 344972535, "tags": {"name": "Magyarb\u00f3ly", "railway": "station", "ref:mav": "4964"}}, "geometry": {"type": "Point", "coordinates": [18.4920304, 45.8340929]}}, {"type": "Feature", "properties": {"type": "node", "id": 335898854, "tags": {"name": "B\u00f3ly", "railway": "station", "ref:mav": "4985"}}, "geometry": {"type": "Point", "coordinates": [18.538347, 45.9375817]}}, {"type": "Feature", "properties": {"type": "node", "id": 335898836, "tags": {"name": "Moh\u00e1cs", "railway": "station", "ref:mav": "4986"}}, "geometry": {"type": "Point", "coordinates": [18.683689, 46.0025163]}}, {"type": "Feature", "properties": {"type": "node", "id": 1065129356, "tags": {"name": "M\u00e1t\u00e9h\u00e1zapuszta", "railway": "station"}}, "geometry": {"type": "Point", "coordinates": [19.0637098, 46.1501803]}}, {"type": "Feature", "properties": {"type": "node", "id": 408869286, "tags": {"name": "B\u00e1csbokod-B\u00e1csbors\u00f3d", "railway": "station", "ref:mav": "1133"}}, "geometry": {"type": "Point", "coordinates": [19.1594005, 46.1155569]}}, {"type": "Feature", "properties": {"type": "node", "id": 409643296, "tags": {"name": "Hidas-Bonyh\u00e1d", "railway": "station", "ref:mav": "3881"}}, "geometry": {"type": "Point", "coordinates": [18.5230123, 46.2692833]}}, {"type": "Feature", "properties": {"type": "node", "id": 344464908, "tags": {"name": "B\u00e1tasz\u00e9k", "railway": "station", "ref:mav": "3884"}}, "geometry": {"type": "Point", "coordinates": [18.7153619, 46.2025708]}}, {"type": "Feature", "properties": {"type": "node", "id": 408872396, "tags": {"name": "P\u00f6rb\u00f6ly", "railway": "station", "ref:mav": "3885"}}, "geometry": {"type": "Point", "coordinates": [18.8284651, 46.1990774]}}, {"type": "Feature", "properties": {"type": "node", "id": 1435965392, "tags": {"public_transport": "stop_position", "railway": "stop"}}, "geometry": {"type": "Point", "coordinates": [18.8256534, 46.2001726]}}, {"type": "Feature", "properties": {"type": "node", "id": 1435965393, "tags": {"public_transport": "stop_position", "railway": "stop"}}, "geometry": {"type": "Point", "coordinates": [18.8256851, 46.2001971]}}, {"type": "Feature", "properties": {"type": "node", "id": 5463144596, "tags": {"name": "P\u00f6rb\u00f6ly", "operator": "Gemenci \u00c1llami Erdei Vas\u00fat", "railway": "station", "website": "http://www.gemenczrt.hu/index.php?apps=content&c_id=22"}}, "geometry": {"type": "Point", "coordinates": [18.8256694, 46.2001848]}}, {"type": "Feature", "properties": {"type": "node", "id": 344464892, "tags": {"name": "Decs", "railway": "station", "ref:mav": "3865"}}, "geometry": {"type": "Point", "coordinates": [18.7559064, 46.2838339]}}, {"type": "Feature", "properties": {"type": "node", "id": 445818127, "tags": {"name": "Szeksz\u00e1rd", "operator": "M\u00c1V", "railway": "station", "ref:mav": "3863"}}, "geometry": {"type": "Point", "coordinates": [18.7126833, 46.3496057]}}, {"type": "Feature", "properties": {"type": "node", "id": 445818128, "tags": {"name": "Tolna-M\u00f6zs", "railway": "station", "ref:mav": "3861"}}, "geometry": {"type": "Point", "coordinates": [18.7501823, 46.4152336]}}, {"type": "Feature", "properties": {"type": "node", "id": 408870015, "tags": {"name": "Baja", "name:de": "Frankenstadt", "railway": "station", "ref:mav": "1136"}}, "geometry": {"type": "Point", "coordinates": [18.9574444, 46.1870051]}}, {"type": "Feature", "properties": {"type": "node", "id": 1435965366, "tags": {"public_transport": "stop_position", "railway": "stop"}}, "geometry": {"type": "Point", "coordinates": [18.9078109, 46.3208501]}}, {"type": "Feature", "properties": {"type": "node", "id": 1435965370, "tags": {"public_transport": "stop_position", "railway": "stop"}}, "geometry": {"type": "Point", "coordinates": [18.9079499, 46.3209276]}}, {"type": "Feature", "properties": {"type": "node", "id": 411752399, "tags": {"name": "Kalocsa", "name:de": "Kollotschau", "name:hr": "Kalo\u010da", "name:sr": "\u041a\u0430\u043b\u043e\u0447\u0430", "name:sr-Latn": "Kalo\u010da", "note": "Out of public use.", "public_transport": "station", "railway": "station"}}, "geometry": {"type": "Point", "coordinates": [18.9946049, 46.5349287]}}, {"type": "Feature", "properties": {"type": "node", "id": 411752395, "tags": {"name": "\u00d6regcsert\u0151", "railway": "station"}}, "geometry": {"type": "Point", "coordinates": [19.1177386, 46.5236414]}}, {"type": "Feature", "properties": {"type": "node", "id": 411753255, "tags": {"name": "Kecel", "railway": "station"}}, "geometry": {"type": "Point", "coordinates": [19.241809, 46.5524974]}}, {"type": "Feature", "properties": {"type": "node", "id": 2757199959, "tags": {"name": "B\u00e1csalm\u00e1s", "railway": "station", "ref:mav": "1130"}}, "geometry": {"type": "Point", "coordinates": [19.3467014, 46.1176759]}}, {"type": "Feature", "properties": {"type": "node", "id": 408865238, "tags": {"name": "M\u00e9lyk\u00fat", "railway": "station", "ref:mav": "1129"}}, "geometry": {"type": "Point", "coordinates": [19.3704542, 46.2128635]}}, {"type": "Feature", "properties": {"type": "node", "id": 408863987, "tags": {"name": "J\u00e1noshalma", "railway": "station", "ref:mav": "1128"}}, "geometry": {"type": "Point", "coordinates": [19.3307258, 46.292901]}}, {"type": "Feature", "properties": {"type": "node", "id": 408857870, "tags": {"name": "Kunfeh\u00e9rt\u00f3", "railway": "station", "ref:mav": "1126"}}, "geometry": {"type": "Point", "coordinates": [19.416784, 46.3560563]}}, {"type": "Feature", "properties": {"type": "node", "id": 1065129586, "tags": {"name": "Tompa", "public_transport": "stop_position", "railway": "stop", "ref:mav": "474", "train": "yes"}}, "geometry": {"type": "Point", "coordinates": [19.5771948, 46.2334972]}}, {"type": "Feature", "properties": {"type": "node", "id": 476898043, "tags": {"name": "Kelebia", "public_transport": "stop_position", "railway": "stop", "ref:mav": "475", "train": "yes"}}, "geometry": {"type": "Point", "coordinates": [19.610159, 46.1948628]}}, {"type": "Feature", "properties": {"type": "node", "id": 8371157150, "tags": {"name": "Kelebia", "operator": "M\u00c1V", "railway": "station", "train": "yes"}}, "geometry": {"type": "Point", "coordinates": [19.6102501, 46.194754]}}, {"type": "Feature", "properties": {"type": "node", "id": 1065130159, "tags": {"name": "Kissz\u00e1ll\u00e1s", "public_transport": "stop_position", "railway": "stop", "ref:mav": "473", "train": "yes"}}, "geometry": {"type": "Point", "coordinates": [19.538756, 46.278717]}}, {"type": "Feature", "properties": {"type": "node", "id": 411796765, "tags": {"name": "Balotasz\u00e1ll\u00e1s", "public_transport": "stop_position", "railway": "stop", "ref:mav": "472", "train": "yes"}}, "geometry": {"type": "Point", "coordinates": [19.53292, 46.3492441]}}, {"type": "Feature", "properties": {"type": "node", "id": 295489366, "tags": {"name": "Kiskunhalas", "name:de": "Hallasch", "name:hr": "Ola\u0161", "public_transport": "stop_position", "railway": "stop", "ref:mav": "471", "train": "yes"}}, "geometry": {"type": "Point", "coordinates": [19.4940388, 46.4335494]}}, {"type": "Feature", "properties": {"type": "node", "id": 1061100159, "tags": {"name": "Soltvadkert", "public_transport": "stop_position", "railway": "stop", "ref:mav": "468", "train": "yes"}}, "geometry": {"type": "Point", "coordinates": [19.3954199, 46.569708]}}, {"type": "Feature", "properties": {"type": "node", "id": 673213132, "tags": {"name": "Pirt\u00f3", "public_transport": "stop_position", "railway": "stop", "ref:mav": "470", "train": "yes"}}, "geometry": {"type": "Point", "coordinates": [19.4500896, 46.4989053]}}, {"type": "Feature", "properties": {"type": "node", "id": 1063783575, "tags": {"name": "Pirt\u00f3i sz\u0151l\u0151k", "public_transport": "stop_position", "railway": "stop", "ref:mav": "469", "train": "yes"}}, "geometry": {"type": "Point", "coordinates": [19.4343372, 46.521323]}}, {"type": "Feature", "properties": {"type": "node", "id": 409020131, "tags": {"name": "Harkak\u00f6t\u00f6ny", "railway": "station", "ref:mav": "1137"}}, "geometry": {"type": "Point", "coordinates": [19.6020258, 46.4585786]}}, {"type": "Feature", "properties": {"type": "node", "id": 1065130282, "tags": {"name": "Taj\u00f3", "railway": "station", "ref:mav": "1138"}}, "geometry": {"type": "Point", "coordinates": [19.6502067, 46.4725129]}}, {"type": "Feature", "properties": {"type": "node", "id": 292816809, "tags": {"name": "R\u00f6szke", "public_transport": "stop_position", "railway": "stop", "train": "yes"}}, "geometry": {"type": "Point", "coordinates": [20.0329107, 46.1940064]}}, {"type": "Feature", "properties": {"type": "node", "id": 1065130564, "tags": {"name": "Kiskundorozsma", "railway": "station", "ref:mav": "6109"}}, "geometry": {"type": "Point", "coordinates": [20.0910873, 46.2714432]}}, {"type": "Feature", "properties": {"type": "node", "id": 929923092, "tags": {"name": "Szeged-R\u00f3kus", "operator": "M\u00c1V", "railway": "station", "railway:ref": "RO", "ref:mav": "7258"}}, "geometry": {"type": "Point", "coordinates": [20.1250874, 46.2663784]}}, {"type": "Feature", "properties": {"type": "node", "id": 1061100166, "tags": {"name": "Szatymaz", "operator": "M\u00c1V", "public_transport": "stop_position", "railway": "station", "railway:ref": "SY", "ref:mav": "6108", "train": "yes"}}, "geometry": {"type": "Point", "coordinates": [20.0441102, 46.3457113]}}, {"type": "Feature", "properties": {"type": "node", "id": 1065129354, "tags": {"name": "Kiskunmajsa", "railway": "station", "ref:mav": "1139"}}, "geometry": {"type": "Point", "coordinates": [19.7276133, 46.5017902]}}, {"type": "Feature", "properties": {"type": "node", "id": 7431917792, "tags": {"name": "J\u00e1szszentl\u00e1szl\u00f3", "railway": "station", "ref:mav": "1140"}}, "geometry": {"type": "Point", "coordinates": [19.7535604, 46.5659721]}}, {"type": "Feature", "properties": {"type": "node", "id": 1065130498, "tags": {"name": "Csengele", "railway": "station", "ref:mav": "6105"}}, "geometry": {"type": "Point", "coordinates": [19.9092133, 46.53828]}}, {"type": "Feature", "properties": {"type": "node", "id": 1259198885, "tags": {"name": "Bal\u00e1stya", "railway": "station", "ref:mav": "6107"}}, "geometry": {"type": "Point", "coordinates": [20.0012615, 46.4136872]}}, {"type": "Feature", "properties": {"type": "node", "id": 507900259, "tags": {"name": "Kistelek", "railway": "station", "ref:mav": "6106", "source": "GPS"}}, "geometry": {"type": "Point", "coordinates": [19.9665463, 46.4674505]}}, {"type": "Feature", "properties": {"type": "node", "id": 5530281286, "tags": {"name": "Szentgotth\u00e1rd", "name:de": "St. Gotthard", "name:hu": "Szentgotth\u00e1rd", "name:sl": "Mono\u0161ter", "name:sr": "\u0421\u0435\u043d\u0442\u0433\u043e\u0442\u0430\u0440\u0434", "operator": "GySEV", "public_transport": "station", "railway": "station", "railway:position": "168.9", "railway:ref": "GH", "railway:ref:\u00f6bb": "Gh", "ref:mav": "53587", "uic_name": "Szentgotthard", "uic_ref": "5500029"}}, "geometry": {"type": "Point", "coordinates": [16.2635094, 46.9573953]}}, {"type": "Feature", "properties": {"type": "node", "id": 1212434580, "tags": {"name": "R\u00e9dics", "railway": "station", "ref:mav": "2516"}}, "geometry": {"type": "Point", "coordinates": [16.4715257, 46.6180692]}}, {"type": "Feature", "properties": {"type": "node", "id": 386789459, "tags": {"name": "Lenti", "name:de": "Nempthy", "name:hr": "Lentiba", "railway": "station", "ref:mav": "2515"}}, "geometry": {"type": "Point", "coordinates": [16.5295494, 46.6211987]}}, {"type": "Feature", "properties": {"type": "node", "id": 1065130559, "tags": {"name": "Cs\u00f6m\u00f6d\u00e9r-P\u00e1ka", "railway": "station", "ref:mav": "2513"}}, "geometry": {"type": "Point", "coordinates": [16.6418659, 46.6078268]}}, {"type": "Feature", "properties": {"type": "node", "id": 1212434623, "tags": {"name": "Gutorf\u00f6lde", "railway": "station", "ref:mav": "2512"}}, "geometry": {"type": "Point", "coordinates": [16.7395721, 46.6468772]}}, {"type": "Feature", "properties": {"type": "node", "id": 619127247, "tags": {"name": "\u0150riszentp\u00e9ter", "name:de": "St. Peter", "name:sl": "\u0160entpeter", "railway": "station", "ref:mav": "187", "wikidata": "Q22115939"}}, "geometry": {"type": "Point", "coordinates": [16.4162228, 46.8290789]}}, {"type": "Feature", "properties": {"type": "node", "id": 1212435091, "tags": {"name": "Als\u00f3r\u00f6n\u00f6k", "public_transport": "station", "railway": "station", "ref:mav": "65391"}}, "geometry": {"type": "Point", "coordinates": [16.3782407, 46.9642795]}}, {"type": "Feature", "properties": {"type": "node", "id": 1212434385, "tags": {"name": "Cs\u00e1k\u00e1nydoroszl\u00f3", "public_transport": "stop_position", "railway": "stop", "ref:mav": "65521", "train": "yes"}}, "geometry": {"type": "Point", "coordinates": [16.4996288, 46.9783692]}}, {"type": "Feature", "properties": {"type": "node", "id": 8131906323, "tags": {"name": "Cs\u00e1k\u00e1nydoroszl\u00f3", "public_transport": "station", "railway": "station"}}, "geometry": {"type": "Point", "coordinates": [16.4999649, 46.9784226]}}, {"type": "Feature", "properties": {"type": "node", "id": 412818756, "tags": {"name": "Zalal\u00f6v\u0151", "railway": "station", "ref:mav": "2519"}}, "geometry": {"type": "Point", "coordinates": [16.5773591, 46.8454686]}}, {"type": "Feature", "properties": {"type": "node", "id": 1065129970, "tags": {"name": "Zalacs\u00e9b-Salomv\u00e1r", "railway": "station", "ref:mav": "2524"}}, "geometry": {"type": "Point", "coordinates": [16.6614399, 46.8578701]}}, {"type": "Feature", "properties": {"type": "node", "id": 8197311166, "tags": {"name": "K\u00f6rmend", "operator": "M\u00c1V", "public_transport": "station", "railway": "station", "train": "yes"}}, "geometry": {"type": "Point", "coordinates": [16.5973455, 47.0160941]}}, {"type": "Feature", "properties": {"type": "node", "id": 268196808, "tags": {"name": "Egyh\u00e1zasr\u00e1d\u00f3c", "railway": "station", "ref:mav": "65390"}}, "geometry": {"type": "Point", "coordinates": [16.6197067, 47.0908583]}}, {"type": "Feature", "properties": {"type": "node", "id": 94074460, "tags": {"name": "P\u00fcsp\u00f6kmoln\u00e1ri", "railway": "station", "ref:mav": "65398"}}, "geometry": {"type": "Point", "coordinates": [16.7685562, 47.0849334]}}, {"type": "Feature", "properties": {"type": "node", "id": 1065129602, "tags": {"addr:city": "Balogunyom", "addr:postcode": "9771", "addr:street": "Vas\u00fat utca", "name": "J\u00e1k-Balogunyom", "network": "GySEV", "operator": "GySEV", "railway": "station", "ref:mav": "65394"}}, "geometry": {"type": "Point", "coordinates": [16.6303098, 47.1613303]}}, {"type": "Feature", "properties": {"type": "node", "id": 5008124072, "tags": {"name": "K\u0151szeg", "name:de": "G\u00fcns", "name:hr": "Kiseg", "name:sk": "Kysek", "old_name": "Kiseg", "operator": "GySEV", "public_transport": "station", "railway": "station", "ref:mav": "65399", "source": "guess", "train": "yes"}}, "geometry": {"type": "Point", "coordinates": [16.5567475, 47.3817648]}}, {"type": "Feature", "properties": {"type": "node", "id": 93800956, "tags": {"name": "Szombathely", "name:de": "Steinamanger", "name:hr": "Sambotel", "name:la": "Savaria", "name:ru": "\u0421\u043e\u043c\u0431\u0430\u0442\u0445\u0435\u0439", "name:sr": "\u0421\u043e\u043c\u0431\u0430\u0442\u0445\u0435\u0459", "old_name:de": "Stein am Anger", "operator": "GySEV", "public_transport": "station", "railway": "station", "railway:ref": "SM", "ref:mav": "53589"}}, "geometry": {"type": "Point", "coordinates": [16.6328209, 47.2373728]}}, {"type": "Feature", "properties": {"type": "node", "id": 8197311167, "tags": {"name": "Szombathely", "public_transport": "station", "railway": "stop", "train": "yes"}}, "geometry": {"type": "Point", "coordinates": [16.6324384, 47.2377552]}}, {"type": "Feature", "properties": {"type": "node", "id": 93548712, "tags": {"name": "V\u00e9p", "railway": "station", "ref:mav": "65415"}}, "geometry": {"type": "Point", "coordinates": [16.7269689, 47.2360368]}}, {"type": "Feature", "properties": {"type": "node", "id": 618346248, "tags": {"name": "Acs\u00e1d", "operator": "GySEV", "railway": "station", "ref:mav": "2534"}}, "geometry": {"type": "Point", "coordinates": [16.7345496, 47.3081641]}}, {"type": "Feature", "properties": {"type": "node", "id": 1065129608, "tags": {"name": "B\u00fck", "railway": "station", "ref:mav": "2533"}}, "geometry": {"type": "Point", "coordinates": [16.7523205, 47.3886927]}}, {"type": "Feature", "properties": {"type": "node", "id": 324567423, "tags": {"alt_name:de": "Zinkendorf", "name": "Nagycenk", "name:de": "Gro\u00dfzinkendorf", "name:hr": "Cinka", "railway": "station", "ref:mav": "2527"}}, "geometry": {"type": "Point", "coordinates": [16.6894127, 47.6013585]}}, {"type": "Feature", "properties": {"type": "node", "id": 685038262, "tags": {"name": "Bar\u00e1ts\u00e1g", "railway": "station"}}, "geometry": {"type": "Point", "coordinates": [16.689675, 47.6157503]}}, {"type": "Feature", "properties": {"type": "node", "id": 685038306, "tags": {"alt_name": "Kast\u00e9ly (Nagycenk)", "name": "Kast\u00e9ly", "railway": "station"}}, "geometry": {"type": "Point", "coordinates": [16.705433, 47.6108985]}}, {"type": "Feature", "properties": {"type": "node", "id": 1212434093, "tags": {"name": "Pinnye", "railway": "station", "ref:mav": "801"}}, "geometry": {"type": "Point", "coordinates": [16.7683588, 47.6002609]}}, {"type": "Feature", "properties": {"type": "node", "id": 4530022025, "tags": {"addr:city": "Harka", "name": "Harka", "name:de": "Harkau", "name:hr": "Horka", "public_transport": "station", "railway": "station", "station": "disused"}}, "geometry": {"type": "Point", "coordinates": [16.6190202, 47.6416351]}}, {"type": "Feature", "properties": {"type": "node", "id": 1045450075, "tags": {"name": "Sopron", "name:de": "\u00d6denburg", "public_transport": "stop_position", "railway": "stop", "train": "yes", "wheelchair": "no"}}, "geometry": {"type": "Point", "coordinates": [16.5869089, 47.6776781]}}, {"type": "Feature", "properties": {"type": "node", "id": 5050446206, "tags": {"name": "Sopron", "name:de": "\u00d6denburg", "public_transport": "stop_position", "railway": "stop", "train": "yes", "wheelchair": "no"}}, "geometry": {"type": "Point", "coordinates": [16.5870638, 47.6777923]}}, {"type": "Feature", "properties": {"type": "node", "id": 5050446207, "tags": {"name": "Sopron", "name:de": "\u00d6denburg", "public_transport": "stop_position", "railway": "stop", "train": "yes", "wheelchair": "no"}}, "geometry": {"type": "Point", "coordinates": [16.5870218, 47.6777608]}}, {"type": "Feature", "properties": {"type": "node", "id": 5050446208, "tags": {"name": "Sopron", "name:de": "\u00d6denburg", "public_transport": "stop_position", "railway": "stop", "train": "yes", "wheelchair": "no"}}, "geometry": {"type": "Point", "coordinates": [16.5867125, 47.6775728]}}, {"type": "Feature", "properties": {"type": "node", "id": 5050446209, "tags": {"name": "Sopron", "name:de": "\u00d6denburg", "public_transport": "stop_position", "railway": "stop", "train": "yes", "wheelchair": "no"}}, "geometry": {"type": "Point", "coordinates": [16.5868382, 47.6776115]}}, {"type": "Feature", "properties": {"type": "node", "id": 5050446210, "tags": {"alt_name": "Sopron-GYSEV pu.", "name": "Sopron", "name:cs": "\u0160opro\u0148", "name:de": "\u00d6denburg", "name:he": "\u05e9\u05d5\u05e4\u05e8\u05d5\u05df", "name:hr": "\u0160opron", "name:it": "Odenburgo", "name:ja": "\u30b7\u30e7\u30d7\u30ed\u30f3", "name:la": "Scarbantia", "name:ru": "\u0428\u043e\u043f\u0440\u043e\u043d", "name:sk": "\u0160opron", "name:sr": "\u0428\u043e\u043f\u0440\u043e\u043d", "operator": "GySEV", "public_transport": "station", "railway": "station", "railway:ref": "SP", "railway:ref:\u00f6bb": "Sop", "ref:mav": "804", "train": "yes", "uic_ref": "5501494", "wheelchair": "no"}}, "geometry": {"type": "Point", "coordinates": [16.5868738, 47.6776464]}}, {"type": "Feature", "properties": {"type": "node", "id": 600743591, "tags": {"name": "Fert\u0151boz", "railway": "station", "ref:mav": "802"}}, "geometry": {"type": "Point", "coordinates": [16.6915281, 47.6250417]}}, {"type": "Feature", "properties": {"type": "node", "id": 685038296, "tags": {"name": "Fert\u0151boz", "railway": "station"}}, "geometry": {"type": "Point", "coordinates": [16.6921099, 47.6245874]}}, {"type": "Feature", "properties": {"type": "node", "id": 94290645, "tags": {"name": "Gelse", "operator": "M\u00c1V", "public_transport": "station", "railway": "station", "railway:name:M\u00c1V": "Gelse", "ref:mav": "211", "uic_ref": "5505454"}}, "geometry": {"type": "Point", "coordinates": [16.9825813, 46.6002182]}}, {"type": "Feature", "properties": {"type": "node", "id": 4768581405, "tags": {"name": "Gelse", "public_transport": "stop_position", "railway": "stop", "ref:mav": "211", "train": "yes"}}, "geometry": {"type": "Point", "coordinates": [16.9826762, 46.5998589]}}, {"type": "Feature", "properties": {"type": "node", "id": 94290568, "tags": {"name": "Fels\u0151rajk", "railway": "station", "ref:mav": "209"}}, "geometry": {"type": "Point", "coordinates": [16.9826863, 46.6671786]}}, {"type": "Feature", "properties": {"type": "node", "id": 1065130578, "tags": {"name": "Bak", "railway": "station", "ref:mav": "2510"}}, "geometry": {"type": "Point", "coordinates": [16.8490232, 46.7319779]}}, {"type": "Feature", "properties": {"type": "node", "id": 7728901592, "tags": {"name": "P\u00f6tr\u00e9te", "public_transport": "stop_position", "railway": "stop", "ref:mav": "208", "train": "yes"}}, "geometry": {"type": "Point", "coordinates": [16.9581445, 46.6818897]}}, {"type": "Feature", "properties": {"type": "node", "id": 94290650, "tags": {"name": "Zalaszentmih\u00e1ly-Pacsa", "railway": "station", "ref:mav": "207"}}, "geometry": {"type": "Point", "coordinates": [16.9518313, 46.7232791]}}, {"type": "Feature", "properties": {"type": "node", "id": 275275246, "tags": {"name": "Zalaegerszeg", "operator": "M\u00c1V", "public_transport": "station", "railway": "station", "railway:ref": "ZE", "ref:mav": "2507"}}, "geometry": {"type": "Point", "coordinates": [16.8483156, 46.8332444]}}, {"type": "Feature", "properties": {"type": "node", "id": 2720648845, "tags": {"name": "Andr\u00e1shida", "railway": "station", "ref:mav": "2521"}}, "geometry": {"type": "Point", "coordinates": [16.7794602, 46.8630479]}}, {"type": "Feature", "properties": {"type": "node", "id": 4768462881, "tags": {"internet_access": "no", "name": "B\u00facs\u00faszentl\u00e1szl\u00f3", "network": "Szombathely\u2013Nagykanizsa", "operator": "M\u00c1V", "public_transport": "station", "railway": "station", "ref:mav": "70"}}, "geometry": {"type": "Point", "coordinates": [16.9328219, 46.792141]}}, {"type": "Feature", "properties": {"type": "node", "id": 94290654, "tags": {"name": "Nagykapornak", "public_transport": "station", "railway": "station", "ref:mav": "2546"}}, "geometry": {"type": "Point", "coordinates": [16.9349507, 46.8321624]}}, {"type": "Feature", "properties": {"type": "node", "id": 7596689103, "tags": {"name": "Nagykapornak", "public_transport": "stop_position", "railway": "stop", "ref:mav": "2546", "train": "yes"}}, "geometry": {"type": "Point", "coordinates": [16.9352212, 46.8322471]}}, {"type": "Feature", "properties": {"type": "node", "id": 4983049198, "tags": {"addr:city": "Zalaszentiv\u00e1n", "addr:postcode": "8921", "name": "Zalaszentiv\u00e1n", "operator": "M\u00c1V", "public_transport": "station", "railway": "station", "ref:mav": "2544"}}, "geometry": {"type": "Point", "coordinates": [16.9111031, 46.8874705]}}, {"type": "Feature", "properties": {"type": "node", "id": 94074423, "tags": {"name": "Egerv\u00e1r-Vasboldogasszony", "public_transport": "station", "railway": "station", "ref:mav": "65442"}}, "geometry": {"type": "Point", "coordinates": [16.8620891, 46.9418644]}}, {"type": "Feature", "properties": {"type": "node", "id": 506539163, "tags": {"name": "P\u00f3kaszepetk", "railway": "station", "ref:mav": "2505"}}, "geometry": {"type": "Point", "coordinates": [16.9720361, 46.9243273]}}, {"type": "Feature", "properties": {"type": "node", "id": 506539304, "tags": {"name": "Zalaszentgr\u00f3t", "public_transport": "stop_position", "train": "yes"}}, "geometry": {"type": "Point", "coordinates": [17.0820702, 46.9511571]}}, {"type": "Feature", "properties": {"type": "node", "id": 5943418693, "tags": {"name": "Zalaszentgr\u00f3t", "railway": "station"}}, "geometry": {"type": "Point", "coordinates": [17.082096, 46.9511219]}}, {"type": "Feature", "properties": {"type": "node", "id": 506539232, "tags": {"name": "Zalab\u00e9r-Batyk", "railway": "station", "ref:mav": "2503", "source": "guess"}}, "geometry": {"type": "Point", "coordinates": [17.0407878, 46.9829629]}}, {"type": "Feature", "properties": {"type": "node", "id": 2910038687, "tags": {"name": "T\u00fcskeszentp\u00e9ter", "railway": "station"}}, "geometry": {"type": "Point", "coordinates": [17.0775047, 46.9699737]}}, {"type": "Feature", "properties": {"type": "node", "id": 467097187, "tags": {"name": "S\u00e1voly", "railway": "station", "ref:mav": "3619"}}, "geometry": {"type": "Point", "coordinates": [17.2353168, 46.6093181]}}, {"type": "Feature", "properties": {"type": "node", "id": 33122622, "tags": {"name": "Balatonszentgy\u00f6rgy", "public_transport": "stop_position", "railway": "station", "ref:mav": "3617", "train": "yes"}}, "geometry": {"type": "Point", "coordinates": [17.2887861, 46.692403]}}, {"type": "Feature", "properties": {"type": "node", "id": 2397493396, "tags": {"name": "Balatonszentgy\u00f6rgy", "railway": "station", "ref:mav": "3617"}}, "geometry": {"type": "Point", "coordinates": [17.2889461, 46.6927207]}}, {"type": "Feature", "properties": {"type": "node", "id": 92752136, "tags": {"name": "Keszthely", "name:de": "Kesthell", "public_transport": "station", "railway": "station", "ref:mav": "2493", "train": "yes"}}, "geometry": {"type": "Point", "coordinates": [17.2474489, 46.7578511]}}, {"type": "Feature", "properties": {"type": "node", "id": 33122966, "tags": {"name": "Balatonber\u00e9ny", "public_transport": "stop_position", "railway": "halt", "ref:mav": "3616", "train": "yes"}}, "geometry": {"type": "Point", "coordinates": [17.3167109, 46.7136524]}}, {"type": "Feature", "properties": {"type": "node", "id": 8431960205, "tags": {"name": "Balatonkereszt\u00far", "operator": "M\u00c1V", "public_transport": "station", "railway": "station", "train": "yes", "uic_ref": "5508615"}}, "geometry": {"type": "Point", "coordinates": [17.3684776, 46.7038009]}}, {"type": "Feature", "properties": {"type": "node", "id": 2386686242, "tags": {"name": "Balatonm\u00e1riaf\u00fcrd\u0151", "public_transport": "stop_position", "railway": "stop", "ref:mav": "3615", "train": "yes"}}, "geometry": {"type": "Point", "coordinates": [17.3764838, 46.704093]}}, {"type": "Feature", "properties": {"type": "node", "id": 3543646128, "tags": {"name": "Balatonm\u00e1riaf\u00fcrd\u0151", "public_transport": "stop_position", "railway": "stop", "ref:mav": "3615", "train": "yes"}}, "geometry": {"type": "Point", "coordinates": [17.3746237, 46.704335]}}, {"type": "Feature", "properties": {"type": "node", "id": 8371157147, "tags": {"name": "Balatonm\u00e1riaf\u00fcrd\u0151", "operator": "M\u00c1V", "public_transport": "station", "railway": "station", "train": "yes", "uic_ref": "5503541"}}, "geometry": {"type": "Point", "coordinates": [17.3747327, 46.7042665]}}, {"type": "Feature", "properties": {"type": "node", "id": 92752232, "tags": {"name": "Vonyarcvashegy", "railway": "station", "ref:mav": "2496", "wheelchair": "yes"}}, "geometry": {"type": "Point", "coordinates": [17.3180657, 46.7551496]}}, {"type": "Feature", "properties": {"type": "node", "id": 92752269, "tags": {"name": "Balatongy\u00f6r\u00f6k", "railway": "station", "ref:mav": "2497"}}, "geometry": {"type": "Point", "coordinates": [17.3542121, 46.7518677]}}, {"type": "Feature", "properties": {"type": "node", "id": 1587550615, "tags": {"name": "Marcali", "name:de": "Martzal", "name:hr": "Marcalin", "operator": "M\u00c1V", "public_transport": "station", "railway": "station", "train": "yes"}}, "geometry": {"type": "Point", "coordinates": [17.4208253, 46.5811769]}}, {"type": "Feature", "properties": {"type": "node", "id": 2386604512, "tags": {"name": "K\u00e9thely", "operator": "M\u00c1V", "public_transport": "station", "railway": "station", "train": "yes"}}, "geometry": {"type": "Point", "coordinates": [17.4116528, 46.6454141]}}, {"type": "Feature", "properties": {"type": "node", "id": 1065130077, "tags": {"name": "Somogyszentp\u00e1l fels\u0151", "railway": "station", "ref:mav": "998"}}, "geometry": {"type": "Point", "coordinates": [17.4714728, 46.6496378]}}, {"type": "Feature", "properties": {"type": "node", "id": 1065129955, "tags": {"name": "Somogyszentp\u00e1l", "railway": "station", "ref:mav": "999"}}, "geometry": {"type": "Point", "coordinates": [17.4784554, 46.6391584]}}, {"type": "Feature", "properties": {"type": "node", "id": 412453433, "tags": {"name": "Lengyelt\u00f3ti", "old_name": "Lengyelt\u00f3ti (Buzs\u00e1k)", "public_transport": "station", "railway": "station", "ref:mav": "6084", "train": "yes"}}, "geometry": {"type": "Point", "coordinates": [17.6132993, 46.6606777]}}, {"type": "Feature", "properties": {"type": "node", "id": 6908568698, "tags": {"name": "M\u00e1riahull\u00e1mtelep", "operator": "M\u00c1V", "public_transport": "stop_position", "railway": "halt", "ref:mav": "3614", "train": "yes"}}, "geometry": {"type": "Point", "coordinates": [17.4327286, 46.7045392]}}, {"type": "Feature", "properties": {"type": "node", "id": 822132943, "tags": {"name": "Balatonfenyves als\u00f3", "operator": "M\u00c1V", "public_transport": "stop_position", "railway": "halt", "ref:mav": "3609", "train": "yes", "wheelchair": "yes"}}, "geometry": {"type": "Point", "coordinates": [17.4537652, 46.7081968]}}, {"type": "Feature", "properties": {"type": "node", "id": 33123126, "tags": {"local_ref": "3", "name": "Balatonfenyves", "public_transport": "stop_position", "railway": "stop", "ref:mav": "3613", "train": "yes"}}, "geometry": {"type": "Point", "coordinates": [17.4827951, 46.7134339]}}, {"type": "Feature", "properties": {"type": "node", "id": 477828393, "tags": {"alt_name": "Balatonfenyves", "name": "Balatonfenyves GV", "railway": "station", "ref:mav": "988"}}, "geometry": {"type": "Point", "coordinates": [17.4793088, 46.7124572]}}, {"type": "Feature", "properties": {"type": "node", "id": 8403327552, "tags": {"local_ref": "1", "name": "Balatonfenyves", "public_transport": "stop_position", "railway": "stop", "ref:mav": "3613", "train": "yes"}}, "geometry": {"type": "Point", "coordinates": [17.4827571, 46.7135348]}}, {"type": "Feature", "properties": {"type": "node", "id": 8403327553, "tags": {"local_ref": "2", "name": "Balatonfenyves", "public_transport": "stop_position", "railway": "stop", "ref:mav": "3613", "train": "yes"}}, "geometry": {"type": "Point", "coordinates": [17.4827668, 46.7135088]}}, {"type": "Feature", "properties": {"type": "node", "id": 8403327556, "tags": {"name": "Balatonfenyves", "railway": "station", "ref:mav": "3613", "train": "yes"}}, "geometry": {"type": "Point", "coordinates": [17.4829012, 46.7134804]}}, {"type": "Feature", "properties": {"type": "node", "id": 1065129417, "tags": {"name": "Als\u00f3b\u00e9latelep", "public_transport": "stop_position", "railway": "halt", "ref:mav": "3612", "train": "yes"}}, "geometry": {"type": "Point", "coordinates": [17.5163159, 46.7241454]}}, {"type": "Feature", "properties": {"type": "node", "id": 1065130568, "tags": {"name": "B\u00e9latelep", "public_transport": "stop_position", "railway": "halt", "ref:mav": "3611", "train": "yes"}}, "geometry": {"type": "Point", "coordinates": [17.5346136, 46.7373375]}}, {"type": "Feature", "properties": {"type": "node", "id": 33123162, "tags": {"name": "Fony\u00f3d", "name:de": "Fonjod", "public_transport": "station", "railway": "station", "ref:mav": "3610", "train": "yes"}}, "geometry": {"type": "Point", "coordinates": [17.5588078, 46.7502909]}}, {"type": "Feature", "properties": {"type": "node", "id": 3017105867, "tags": {"local_ref": "1", "name": "Fony\u00f3d", "name:de": "Fonjod", "public_transport": "stop_position", "railway": "stop", "train": "yes"}}, "geometry": {"type": "Point", "coordinates": [17.559074, 46.7502111]}}, {"type": "Feature", "properties": {"type": "node", "id": 3017105868, "tags": {"local_ref": "2", "name": "Fony\u00f3d", "name:de": "Fonjod", "public_transport": "stop_position", "railway": "stop", "train": "yes"}}, "geometry": {"type": "Point", "coordinates": [17.5590442, 46.7502636]}}, {"type": "Feature", "properties": {"type": "node", "id": 3017105869, "tags": {"local_ref": "3", "name": "Fony\u00f3d", "name:de": "Fonjod", "public_transport": "stop_position", "railway": "stop", "train": "yes"}}, "geometry": {"type": "Point", "coordinates": [17.5589986, 46.7503557]}}, {"type": "Feature", "properties": {"type": "node", "id": 3017105870, "tags": {"local_ref": "4", "name": "Fony\u00f3d", "name:de": "Fonjod", "public_transport": "stop_position", "railway": "stop", "train": "yes"}}, "geometry": {"type": "Point", "coordinates": [17.5589786, 46.7503934]}}, {"type": "Feature", "properties": {"type": "node", "id": 3017105871, "tags": {"local_ref": "5", "name": "Fony\u00f3d", "name:de": "Fonjod", "public_transport": "stop_position", "railway": "stop", "train": "yes"}}, "geometry": {"type": "Point", "coordinates": [17.5589402, 46.7504654]}}, {"type": "Feature", "properties": {"type": "node", "id": 1065130097, "tags": {"name": "Fony\u00f3dliget", "public_transport": "stop_position", "railway": "stop", "ref:mav": "3607", "train": "yes"}}, "geometry": {"type": "Point", "coordinates": [17.5923919, 46.7591402]}}, {"type": "Feature", "properties": {"type": "node", "id": 92752370, "tags": {"name": "Balatonederics", "railway": "station", "ref:mav": "2499"}}, "geometry": {"type": "Point", "coordinates": [17.3851274, 46.802627]}}, {"type": "Feature", "properties": {"type": "node", "id": 73838764, "tags": {"name": "S\u00fcmegi Bazaltb\u00e1nya", "railway": "station", "ref:mav": "2485"}}, "geometry": {"type": "Point", "coordinates": [17.2925192, 46.9523846]}}, {"type": "Feature", "properties": {"type": "node", "id": 73838746, "tags": {"name": "S\u00fcmeg", "railway": "station", "ref:mav": "2486"}}, "geometry": {"type": "Point", "coordinates": [17.2707665, 46.9809595]}}, {"type": "Feature", "properties": {"type": "node", "id": 73838803, "tags": {"name": "Uzsa", "railway": "station", "ref:mav": "2484"}}, "geometry": {"type": "Point", "coordinates": [17.33156, 46.9203004]}}, {"type": "Feature", "properties": {"type": "node", "id": 80221098, "tags": {"name": "Badacsony", "operator": "M\u00c1V", "railway": "station", "ref:mav": "2477"}}, "geometry": {"type": "Point", "coordinates": [17.5066404, 46.7885773]}}, {"type": "Feature", "properties": {"type": "node", "id": 80221090, "tags": {"name": "Badacsonyt\u00f6rdemic-Szigliget", "old_name": "Nemest\u00f6rdemic; Nemest\u00f6rdemic-Szigliget", "operator": "M\u00c1V", "railway": "station", "ref:mav": "2479"}}, "geometry": {"type": "Point", "coordinates": [17.4689981, 46.8099095]}}, {"type": "Feature", "properties": {"type": "node", "id": 2079502878, "tags": {"name": "Tapolca", "operator": "M\u00c1V", "railway": "station", "ref:mav": "2481", "website": "https://www.mavcsoport.hu/"}}, "geometry": {"type": "Point", "coordinates": [17.42885, 46.8770123]}}, {"type": "Feature", "properties": {"type": "node", "id": 80221102, "tags": {"name": "Badacsonytomaj", "operator": "M\u00c1V", "platforms": "3", "railway": "station", "railway:ref": "T", "ref:mav": "2476"}}, "geometry": {"type": "Point", "coordinates": [17.5182914, 46.8046567]}}, {"type": "Feature", "properties": {"type": "node", "id": 94074463, "tags": {"name": "P\u00e1csony", "railway": "station", "ref:mav": "65440"}}, "geometry": {"type": "Point", "coordinates": [16.8334734, 47.0096781]}}, {"type": "Feature", "properties": {"type": "node", "id": 94074329, "tags": {"name": "Vasv\u00e1r", "public_transport": "station", "railway": "station", "ref:mav": "65395"}}, "geometry": {"type": "Point", "coordinates": [16.8000178, 47.057112]}}, {"type": "Feature", "properties": {"type": "node", "id": 73838664, "tags": {"name": "Ukk", "railway": "station", "ref:mav": "2488"}}, "geometry": {"type": "Point", "coordinates": [17.1962493, 47.0407264]}}, {"type": "Feature", "properties": {"type": "node", "id": 73838548, "tags": {"name": "Nemeskereszt\u00far", "railway": "station", "ref:mav": "2489"}}, "geometry": {"type": "Point", "coordinates": [17.1837752, 47.093614]}}, {"type": "Feature", "properties": {"type": "node", "id": 73838931, "tags": {"name": "J\u00e1nosh\u00e1za", "railway": "station", "ref:mav": "2490"}}, "geometry": {"type": "Point", "coordinates": [17.1718446, 47.1155131]}}, {"type": "Feature", "properties": {"type": "node", "id": 73838428, "tags": {"name": "Boba", "railway": "station", "ref:mav": "1651"}}, "geometry": {"type": "Point", "coordinates": [17.1914333, 47.1827729]}}, {"type": "Feature", "properties": {"type": "node", "id": 93800951, "tags": {"name": "Porp\u00e1c", "railway": "station", "ref:mav": "2888"}}, "geometry": {"type": "Point", "coordinates": [16.8331959, 47.238795]}}, {"type": "Feature", "properties": {"type": "node", "id": 93800949, "tags": {"name": "\u00d6lb\u0151-Als\u00f3szeleste", "public_transport": "station", "railway": "station", "ref:mav": "65430"}}, "geometry": {"type": "Point", "coordinates": [16.8432544, 47.3004378]}}, {"type": "Feature", "properties": {"type": "node", "id": 780946519, "tags": {"alt_name:de": "Rotenturm an der Raab", "name": "S\u00e1rv\u00e1r", "name:de": "Kotenburg", "railway": "station", "ref:mav": "2887"}}, "geometry": {"type": "Point", "coordinates": [16.9294418, 47.2590283]}}, {"type": "Feature", "properties": {"type": "node", "id": 93800945, "tags": {"name": "Hegyfalu", "public_transport": "station", "railway": "station", "ref:mav": "65428"}}, "geometry": {"type": "Point", "coordinates": [16.8988099, 47.3579897]}}, {"type": "Feature", "properties": {"type": "node", "id": 268196140, "tags": {"name": "Ostffyasszonyfa", "railway": "station", "ref:mav": "2886"}}, "geometry": {"type": "Point", "coordinates": [17.0241916, 47.2839657]}}, {"type": "Feature", "properties": {"type": "node", "id": 4696599905, "tags": {"name": "Celld\u00f6m\u00f6lk", "name:de": "Kleinmariazell", "name:hr": "Demlak", "public_transport": "station", "railway": "station", "ref:mav": "2883", "train": "yes"}}, "geometry": {"type": "Point", "coordinates": [17.1526088, 47.2612127]}}, {"type": "Feature", "properties": {"type": "node", "id": 1065129544, "tags": {"name": "Kerta", "railway": "station", "ref:mav": "1650"}}, "geometry": {"type": "Point", "coordinates": [17.2383764, 47.1513823]}}, {"type": "Feature", "properties": {"type": "node", "id": 1065130191, "tags": {"name": "T\u00fcskev\u00e1r", "railway": "station", "ref:mav": "1648"}}, "geometry": {"type": "Point", "coordinates": [17.3318956, 47.1286186]}}, {"type": "Feature", "properties": {"type": "node", "id": 1065129390, "tags": {"name": "Soml\u00f3v\u00e1s\u00e1rhely", "railway": "station", "ref:mav": "1647"}}, "geometry": {"type": "Point", "coordinates": [17.3685204, 47.1244747]}}, {"type": "Feature", "properties": {"type": "node", "id": 80231939, "tags": {"name": "Devecser", "name:de": "Dewetscher", "railway": "station", "ref:mav": "1646"}}, "geometry": {"type": "Point", "coordinates": [17.4347371, 47.1124957]}}, {"type": "Feature", "properties": {"type": "node", "id": 71526236, "tags": {"name": "Ajka", "name:de": "Eikau", "operator": "M\u00c1V", "railway": "station", "railway:name:M\u00c1V": "Ajka", "ref:mav": "1643", "uic_ref": "5503996"}}, "geometry": {"type": "Point", "coordinates": [17.5728618, 47.1059403]}}, {"type": "Feature", "properties": {"type": "node", "id": 1063783657, "tags": {"name": "K\u00fcls\u0151vat", "railway": "station", "ref:mav": "2882"}}, "geometry": {"type": "Point", "coordinates": [17.2217295, 47.2800983]}}, {"type": "Feature", "properties": {"type": "node", "id": 276517078, "tags": {"name": "Vin\u00e1r", "railway": "station", "ref:mav": "2881"}}, "geometry": {"type": "Point", "coordinates": [17.2824422, 47.3056986]}}, {"type": "Feature", "properties": {"type": "node", "id": 2971262119, "tags": {"name": "Mez\u0151lak", "public_transport": "station", "railway": "station", "ref:mav": "2879"}}, "geometry": {"type": "Point", "coordinates": [17.3644206, 47.3236577]}}, {"type": "Feature", "properties": {"type": "node", "id": 276516808, "tags": {"addr:city": "P\u00e1pa", "addr:housenumber": "2", "addr:postcode": "8500", "addr:street": "B\u00e9ke t\u00e9r", "name": "P\u00e1pa", "operator": "M\u00c1V", "public_transport": "station", "railway": "station", "railway:ref": "PA", "ref:mav": "2878", "toilets:wheelchair": "yes", "uic_ref": "5502121", "website": "https://www.mavcsoport.hu/mav-start/belfoldi-utazas/vasutallomas/papa", "wheelchair": "limited", "wheelchair:description": "Az \u00e1llom\u00e1s\u00e9p\u00fclet akad\u00e1lymentes, a peronokhoz nem tartozik lift, csak l\u00e9pcs\u0151felvon\u00f3", "wikidata": "Q21876801", "wikipedia": "hu:P\u00e1pa vas\u00fat\u00e1llom\u00e1s"}}, "geometry": {"type": "Point", "coordinates": [17.4593803, 47.3407254]}}, {"type": "Feature", "properties": {"type": "node", "id": 1212435233, "tags": {"name": "Vaszar", "railway": "station", "ref:mav": "2877"}}, "geometry": {"type": "Point", "coordinates": [17.4962886, 47.4024569]}}, {"type": "Feature", "properties": {"type": "node", "id": 412453954, "tags": {"name": "Somogyv\u00e1r", "public_transport": "station", "railway": "station", "ref:mav": "6081", "train": "yes"}}, "geometry": {"type": "Point", "coordinates": [17.6347518, 46.5805088]}}, {"type": "Feature", "properties": {"type": "node", "id": 412453655, "tags": {"name": "\u00d6reglak", "public_transport": "station", "railway": "station", "ref:mav": "6082", "train": "yes"}}, "geometry": {"type": "Point", "coordinates": [17.6325572, 46.6088798]}}, {"type": "Feature", "properties": {"type": "node", "id": 33123282, "tags": {"name": "Balatonbogl\u00e1r", "public_transport": "stop_position", "railway": "stop", "ref:mav": "3608", "train": "yes"}}, "geometry": {"type": "Point", "coordinates": [17.6471745, 46.7760797]}}, {"type": "Feature", "properties": {"type": "node", "id": 2386848660, "tags": {"name": "Balatonbogl\u00e1r", "public_transport": "stop_position", "railway": "stop", "ref:mav": "3608", "train": "yes"}}, "geometry": {"type": "Point", "coordinates": [17.6462743, 46.7759196]}}, {"type": "Feature", "properties": {"type": "node", "id": 8458075882, "tags": {"name": "Balatonbogl\u00e1r", "operator": "M\u00c1V", "public_transport": "station", "railway": "station", "railway:ref": "BG", "train": "yes", "uic_ref": "5503475"}}, "geometry": {"type": "Point", "coordinates": [17.6468726, 46.7760449]}}, {"type": "Feature", "properties": {"type": "node", "id": 95043968, "tags": {"name": "Kisb\u00e1rap\u00e1ti", "railway": "station", "ref:mav": "5010"}}, "geometry": {"type": "Point", "coordinates": [17.8670762, 46.6150348]}}, {"type": "Feature", "properties": {"type": "node", "id": 95043959, "tags": {"name": "Somogymeggyes", "railway": "station", "ref:mav": "5857"}}, "geometry": {"type": "Point", "coordinates": [17.9209795, 46.7205087]}}, {"type": "Feature", "properties": {"type": "node", "id": 4955574766, "tags": {"name": "R\u00e9vf\u00fcl\u00f6p", "public_transport": "stop_position", "railway": "stop", "train": "yes"}}, "geometry": {"type": "Point", "coordinates": [17.6324456, 46.8291068]}}, {"type": "Feature", "properties": {"type": "node", "id": 5333649459, "tags": {"name": "R\u00e9vf\u00fcl\u00f6p", "operator": "M\u00c1V", "railway": "station", "railway:ref": "V", "train": "yes"}}, "geometry": {"type": "Point", "coordinates": [17.6329096, 46.8292512]}}, {"type": "Feature", "properties": {"type": "node", "id": 33123428, "tags": {"name": "Balatonlelle", "public_transport": "stop_position", "railway": "stop", "ref:mav": "3606", "train": "yes"}}, "geometry": {"type": "Point", "coordinates": [17.694259, 46.7874032]}}, {"type": "Feature", "properties": {"type": "node", "id": 33123450, "tags": {"name": "Balatonlelle fels\u0151", "public_transport": "stop_position", "railway": "stop", "ref:mav": "3605", "train": "yes"}}, "geometry": {"type": "Point", "coordinates": [17.7205812, 46.7948759]}}, {"type": "Feature", "properties": {"type": "node", "id": 80221121, "tags": {"name": "Z\u00e1nka-K\u00f6vesk\u00e1l", "public_transport": "stop_position", "train": "yes"}}, "geometry": {"type": "Point", "coordinates": [17.6876406, 46.8728707]}}, {"type": "Feature", "properties": {"type": "node", "id": 5333649460, "tags": {"name": "Z\u00e1nka-K\u00f6vesk\u00e1l", "operator": "M\u00c1V", "railway": "station", "train": "yes"}}, "geometry": {"type": "Point", "coordinates": [17.687821, 46.8729162]}}, {"type": "Feature", "properties": {"type": "node", "id": 8359012135, "tags": {"name": "Balatonlelle fels\u0151", "public_transport": "stop_position", "railway": "stop", "ref:mav": "3605", "train": "yes"}}, "geometry": {"type": "Point", "coordinates": [17.7238861, 46.7957593]}}, {"type": "Feature", "properties": {"type": "node", "id": 8458047285, "tags": {"name": "Balatonlelle fels\u0151", "operator": "M\u00c1V", "public_transport": "station", "railway": "station", "railway:ref": "LF", "ref:mav": "3605", "train": "yes", "uic_ref": "5503442", "wheelchair": "limited"}}, "geometry": {"type": "Point", "coordinates": [17.7223659, 46.795354]}}, {"type": "Feature", "properties": {"type": "node", "id": 33123460, "tags": {"local_ref": "2", "name": "Balatonszemes", "public_transport": "stop_position", "ref:mav": "3604", "train": "yes"}}, "geometry": {"type": "Point", "coordinates": [17.7770725, 46.8121857]}}, {"type": "Feature", "properties": {"type": "node", "id": 3554648598, "tags": {"local_ref": "3", "name": "Balatonszemes", "public_transport": "stop_position", "ref:mav": "3604", "train": "yes"}}, "geometry": {"type": "Point", "coordinates": [17.7751652, 46.8116021]}}, {"type": "Feature", "properties": {"type": "node", "id": 7041674499, "tags": {"name": "Balatonszemes", "operator": "M\u00c1V", "railway": "station", "ref:mav": "3604", "train": "yes"}}, "geometry": {"type": "Point", "coordinates": [17.7775948, 46.8124415]}}, {"type": "Feature", "properties": {"type": "node", "id": 80221134, "tags": {"name": "Balatonakali-D\u00f6rgicse", "old_name": "D\u00f6rgicse-Akali", "railway": "station", "ref:mav": "1685", "wheelchair": "yes"}}, "geometry": {"type": "Point", "coordinates": [17.7478992, 46.8796704]}}, {"type": "Feature", "properties": {"type": "node", "id": 33123468, "tags": {"local_ref": "2", "name": "Balatonsz\u00e1rsz\u00f3", "public_transport": "stop_position", "ref:mav": "3394", "train": "yes"}}, "geometry": {"type": "Point", "coordinates": [17.8304252, 46.8321448]}}, {"type": "Feature", "properties": {"type": "node", "id": 7041664257, "tags": {"local_ref": "2", "name": "Balatonsz\u00e1rsz\u00f3", "public_transport": "stop_position", "ref:mav": "3394", "train": "yes"}}, "geometry": {"type": "Point", "coordinates": [17.8341998, 46.8335023]}}, {"type": "Feature", "properties": {"type": "node", "id": 7041664258, "tags": {"name": "Balatonsz\u00e1rsz\u00f3", "operator": "M\u00c1V", "railway": "station", "railway:ref": "SO"}}, "geometry": {"type": "Point", "coordinates": [17.8338084, 46.83338]}}, {"type": "Feature", "properties": {"type": "node", "id": 33123473, "tags": {"name": "Balatonf\u00f6ldv\u00e1r", "public_transport": "stop_position", "railway": "stop", "ref:mav": "3393", "train": "yes", "wheelchair": "no"}}, "geometry": {"type": "Point", "coordinates": [17.8799757, 46.8534022]}}, {"type": "Feature", "properties": {"type": "node", "id": 1065130327, "tags": {"name": "Sz\u00e1nt\u00f3d", "old_name:-2020-12-12": "Sz\u00e1nt\u00f3d-K\u0151r\u00f6shegy", "operator": "M\u00c1V-Start", "public_transport": "stop_position", "railway": "stop", "train": "yes"}}, "geometry": {"type": "Point", "coordinates": [17.8997107, 46.8624015]}}, {"type": "Feature", "properties": {"type": "node", "id": 3543646159, "tags": {"name": "Sz\u00e1nt\u00f3d", "old_name:-2020-12-12": "Sz\u00e1nt\u00f3d-K\u0151r\u00f6shegy", "operator": "M\u00c1V-Start", "public_transport": "stop_position", "railway": "stop", "train": "yes"}}, "geometry": {"type": "Point", "coordinates": [17.8991972, 46.8622807]}}, {"type": "Feature", "properties": {"type": "node", "id": 6365328784, "tags": {"name": "Sz\u00e1nt\u00f3d", "old_name:-2020-12-12": "Sz\u00e1nt\u00f3d-K\u0151r\u00f6shegy", "operator": "M\u00c1V", "railway": "station", "railway:ref": "SZ", "uic_ref": "5503400"}}, "geometry": {"type": "Point", "coordinates": [17.8995729, 46.8623903]}}, {"type": "Feature", "properties": {"type": "node", "id": 33123786, "tags": {"name": "Zam\u00e1rdi fels\u0151", "operator": "M\u00c1V-Start", "public_transport": "stop_position", "railway": "stop", "ref:mav": "1627", "train": "yes"}}, "geometry": {"type": "Point", "coordinates": [17.9712392, 46.886404]}}, {"type": "Feature", "properties": {"type": "node", "id": 6365349743, "tags": {"name": "Zam\u00e1rdi fels\u0151", "operator": "M\u00c1V-Start", "public_transport": "stop_position", "railway": "stop", "ref:mav": "1627", "train": "yes"}}, "geometry": {"type": "Point", "coordinates": [17.9754377, 46.887389]}}, {"type": "Feature", "properties": {"type": "node", "id": 6365349744, "tags": {"name": "Zam\u00e1rdi fels\u0151", "operator": "M\u00c1V", "railway": "station", "ref:mav": "1627"}}, "geometry": {"type": "Point", "coordinates": [17.9734598, 46.8869278]}}, {"type": "Feature", "properties": {"type": "node", "id": 77882377, "tags": {"name": "Asz\u00f3f\u0151,1. v\u00e1g\u00e1ny", "name:de": "Asz\u00f3f\u0151, Gleis 1", "public_transport": "stop_position", "train": "yes", "wheelchair": "no"}}, "geometry": {"type": "Point", "coordinates": [17.8331286, 46.925557]}}, {"type": "Feature", "properties": {"type": "node", "id": 80221159, "tags": {"name": "Asz\u00f3f\u0151", "operator": "M\u00c1V", "railway": "station", "railway:ref": "AF", "ref:mav": "1681"}}, "geometry": {"type": "Point", "coordinates": [17.83254, 46.9252496]}}, {"type": "Feature", "properties": {"type": "node", "id": 3015527853, "tags": {"name": "Asz\u00f3f\u0151,2. v\u00e1g\u00e1ny", "name:de": "Asz\u00f3f\u0151, Gleis 2", "public_transport": "stop_position", "train": "yes", "wheelchair": "no"}}, "geometry": {"type": "Point", "coordinates": [17.8331493, 46.9255207]}}, {"type": "Feature", "properties": {"type": "node", "id": 3015527854, "tags": {"name": "Asz\u00f3f\u0151,3. v\u00e1g\u00e1ny", "name:de": "Asz\u00f3f\u0151, Gleis 3", "public_transport": "stop_position", "train": "yes", "wheelchair": "no"}}, "geometry": {"type": "Point", "coordinates": [17.8332074, 46.9254347]}}, {"type": "Feature", "properties": {"type": "node", "id": 80221174, "tags": {"name": "Balatonf\u00fcred", "name:de": "Bad Plattensee", "name:fa": "\u0628\u0627\u0644\u0627\u062a\u0646\u0641\u0648\u0631\u062f", "name:hr": "Balatonfured", "name:lt": "Balatonfiuredas", "name:ru": "\u0411\u0430\u043b\u0430\u0442\u043e\u043d\u0444\u044e\u0440\u0435\u0434", "name:sr": "\u0411\u0430\u043b\u0430\u0442\u043e\u043d\u0444\u0438\u0440\u0435\u0434", "name:zh": "\u5df4\u62c9\u9813\u83f2\u8cf4\u5fb7", "platforms": "5", "railway": "station", "ref:mav": "1680", "wheelchair": "yes"}}, "geometry": {"type": "Point", "coordinates": [17.8832266, 46.9563417]}}, {"type": "Feature", "properties": {"type": "node", "id": 1065129553, "tags": {"name": "Balatonsz\u00e9plak als\u00f3", "operator": "M\u00c1V-Start", "public_transport": "stop_position", "railway": "stop", "ref:mav": "1626", "train": "yes"}}, "geometry": {"type": "Point", "coordinates": [17.9911178, 46.8912986]}}, {"type": "Feature", "properties": {"type": "node", "id": 6354445898, "tags": {"name": "Balatonsz\u00e9plak als\u00f3", "operator": "M\u00c1V-Start", "public_transport": "stop_position", "railway": "stop", "ref:mav": "1626", "train": "yes"}}, "geometry": {"type": "Point", "coordinates": [17.9932142, 46.8917691]}}, {"type": "Feature", "properties": {"type": "node", "id": 33123799, "tags": {"name": "Balatonsz\u00e9plak fels\u0151", "operator": "M\u00c1V-Start", "public_transport": "stop_position", "railway": "stop", "ref:mav": "1625", "train": "yes"}}, "geometry": {"type": "Point", "coordinates": [18.0156028, 46.8973096]}}, {"type": "Feature", "properties": {"type": "node", "id": 6354450615, "tags": {"name": "Balatonsz\u00e9plak fels\u0151", "operator": "M\u00c1V-Start", "public_transport": "stop_position", "railway": "stop", "ref:mav": "1625", "train": "yes"}}, "geometry": {"type": "Point", "coordinates": [18.0181608, 46.8979082]}}, {"type": "Feature", "properties": {"type": "node", "id": 80221191, "tags": {"name": "Als\u00f3\u00f6rs", "railway": "station", "ref:mav": "1677", "wheelchair": "no"}}, "geometry": {"type": "Point", "coordinates": [17.9749699, 46.9849945]}}, {"type": "Feature", "properties": {"type": "node", "id": 33127897, "tags": {"addr:city": "Tab", "addr:housenumber": "1", "addr:postcode": "8660", "addr:street": "Kossuth Lajos utca", "name": "Tab", "railway": "station", "ref:mav": "6069"}}, "geometry": {"type": "Point", "coordinates": [18.0414685, 46.7340954]}}, {"type": "Feature", "properties": {"type": "node", "id": 2404119307, "tags": {"name": "B\u00e1bonymegyer", "railway": "station", "ref:mav": "6070"}}, "geometry": {"type": "Point", "coordinates": [18.1100718, 46.7461631]}}, {"type": "Feature", "properties": {"type": "node", "id": 2404118404, "tags": {"name": "Dar\u00e1nypuszta", "railway": "station", "ref:mav": "6071"}}, "geometry": {"type": "Point", "coordinates": [18.1468714, 46.7666543]}}, {"type": "Feature", "properties": {"type": "node", "id": 551213795, "tags": {"name": "Tam\u00e1si", "name:de": "Tammasching", "railway": "station", "station": "disused"}}, "geometry": {"type": "Point", "coordinates": [18.2913872, 46.6289381]}}, {"type": "Feature", "properties": {"type": "node", "id": 619127264, "tags": {"name": "Sz\u00e1razd", "public_transport": "stop_position", "railway": "halt", "ref:mav": "1752", "train": "yes"}}, "geometry": {"type": "Point", "coordinates": [18.4202097, 46.5752949]}}, {"type": "Feature", "properties": {"type": "node", "id": 551213844, "tags": {"name": "Kesz\u0151hidegk\u00fat-Gy\u00f6nk", "public_transport": "stop_position", "railway": "station", "ref:mav": "1751", "train": "yes"}}, "geometry": {"type": "Point", "coordinates": [18.4263014, 46.5973877]}}, {"type": "Feature", "properties": {"type": "node", "id": 619127266, "tags": {"name": "Belecska", "public_transport": "stop_position", "railway": "halt", "ref:mav": "1189", "train": "yes"}}, "geometry": {"type": "Point", "coordinates": [18.4114203, 46.6395048]}}, {"type": "Feature", "properties": {"type": "node", "id": 411322676, "tags": {"name": "Pincehely", "name:ru": "\u041f\u0438\u043d\u0446\u0435\u0445\u0435\u0439", "public_transport": "stop_position", "railway": "station", "ref:mav": "1750", "train": "yes"}}, "geometry": {"type": "Point", "coordinates": [18.4300492, 46.6812687]}}, {"type": "Feature", "properties": {"type": "node", "id": 2404118057, "tags": {"name": "Som-Nagyber\u00e9ny", "railway": "station", "ref:mav": "6072"}}, "geometry": {"type": "Point", "coordinates": [18.1493125, 46.8029547]}}, {"type": "Feature", "properties": {"type": "node", "id": 95043905, "tags": {"name": "\u00c1d\u00e1nd", "railway": "station", "ref:mav": "6073"}}, "geometry": {"type": "Point", "coordinates": [18.141328, 46.8541532]}}, {"type": "Feature", "properties": {"type": "node", "id": 33123807, "tags": {"local_ref": "3", "name": "Si\u00f3fok", "public_transport": "stop_position", "railway": "stop", "train": "yes", "wheelchair": "no"}}, "geometry": {"type": "Point", "coordinates": [18.0533904, 46.9078435]}}, {"type": "Feature", "properties": {"type": "node", "id": 1770420737, "tags": {"name": "Si\u00f3fok", "public_transport": "stop_position", "railway": "stop", "train": "yes", "wheelchair": "no"}}, "geometry": {"type": "Point", "coordinates": [18.054657, 46.9081209]}}, {"type": "Feature", "properties": {"type": "node", "id": 8410326621, "tags": {"name": "Si\u00f3fok", "operator": "M\u00c1V", "platforms": "3", "public_transport": "station", "railway": "station", "railway:ref": "SI", "ref:mav": "1624", "train": "yes", "wheelchair": "no"}}, "geometry": {"type": "Point", "coordinates": [18.054378, 46.9078971]}}, {"type": "Feature", "properties": {"type": "node", "id": 95043903, "tags": {"name": "Si\u00f3v\u00f6lgy", "railway": "station", "ref:mav": "1051"}}, "geometry": {"type": "Point", "coordinates": [18.0769527, 46.9112319]}}, {"type": "Feature", "properties": {"type": "node", "id": 371157928, "tags": {"name": "Szabadif\u00fcrd\u0151", "old_name": "Balatonszabadi", "public_transport": "stop_position", "railway": "stop", "ref:mav": "844", "train": "yes"}}, "geometry": {"type": "Point", "coordinates": [18.1002769, 46.9244434]}}, {"type": "Feature", "properties": {"type": "node", "id": 6365361929, "tags": {"name": "Szabadis\u00f3st\u00f3", "operator": "M\u00c1V", "railway": "station", "ref:mav": "1623"}}, "geometry": {"type": "Point", "coordinates": [18.1202128, 46.9348973]}}, {"type": "Feature", "properties": {"type": "node", "id": 6365361930, "tags": {"name": "Szabadis\u00f3st\u00f3", "operator": "M\u00c1V-Start", "public_transport": "stop_position", "railway": "stop", "ref:mav": "1623", "train": "yes"}}, "geometry": {"type": "Point", "coordinates": [18.1184286, 46.9339612]}}, {"type": "Feature", "properties": {"type": "node", "id": 92311498, "tags": {"name": "Szabadis\u00f3st\u00f3", "operator": "M\u00c1V-Start", "public_transport": "stop_position", "railway": "stop", "ref:mav": "1623", "train": "yes"}}, "geometry": {"type": "Point", "coordinates": [18.1221232, 46.9359064]}}, {"type": "Feature", "properties": {"type": "node", "id": 678436922, "tags": {"name": "Balatonvil\u00e1gos", "public_transport": "stop_position", "railway": "stop", "ref:mav": "843", "train": "yes", "wheelchair": "yes"}}, "geometry": {"type": "Point", "coordinates": [18.1577071, 46.9639554]}}, {"type": "Feature", "properties": {"type": "node", "id": 92311451, "tags": {"local_ref": "2", "name": "Balatonaliga", "operator": "M\u00c1V", "public_transport": "stop_position", "railway": "stop", "ref:mav": "842", "train": "yes"}}, "geometry": {"type": "Point", "coordinates": [18.1708754, 46.9844158]}}, {"type": "Feature", "properties": {"type": "node", "id": 8371157148, "tags": {"name": "Balatonaliga", "operator": "M\u00c1V", "public_transport": "station", "railway": "station", "train": "yes"}}, "geometry": {"type": "Point", "coordinates": [18.1706918, 46.9843079]}}, {"type": "Feature", "properties": {"type": "node", "id": 92311503, "tags": {"name": "Leps\u00e9ny", "public_transport": "stop_position", "railway": "stop", "ref:mav": "841", "train": "yes"}}, "geometry": {"type": "Point", "coordinates": [18.2462804, 46.9861756]}}, {"type": "Feature", "properties": {"type": "node", "id": 71526160, "tags": {"name": "V\u00e1rosl\u0151d-Kisl\u0151d", "operator": "M\u00c1V", "public_transport": "station", "railway": "station", "railway:name:M\u00c1V": "V\u00e1rosl\u0151d-Kisl\u0151d", "ref:mav": "1642", "uic_ref": "5503988"}}, "geometry": {"type": "Point", "coordinates": [17.6318064, 47.1343841]}}, {"type": "Feature", "properties": {"type": "node", "id": 1065129364, "tags": {"name": "Szentg\u00e1l", "operator": "M\u00c1V", "public_transport": "station", "railway": "station", "railway:name:M\u00c1V": "Szentg\u00e1l", "ref:mav": "1640", "train": "yes", "uic_ref": "5503962"}}, "geometry": {"type": "Point", "coordinates": [17.707357, 47.1363631]}}, {"type": "Feature", "properties": {"type": "node", "id": 1065129534, "tags": {"name": "Herend", "operator": "M\u00c1V", "railway": "station", "railway:name:M\u00c1V": "Herend", "ref:mav": "1639", "uic_ref": "5503954"}}, "geometry": {"type": "Point", "coordinates": [17.7604405, 47.1367731]}}, {"type": "Feature", "properties": {"type": "node", "id": 80221200, "tags": {"name": "Balatonalm\u00e1di", "public_transport": "stop_position", "railway": "station", "ref": "2", "ref:mav": "1675", "train": "yes"}}, "geometry": {"type": "Point", "coordinates": [18.0150774, 47.0282866]}}, {"type": "Feature", "properties": {"type": "node", "id": 3277701214, "tags": {"public_transport": "stop_position", "ref": "3", "train": "yes"}}, "geometry": {"type": "Point", "coordinates": [18.0157713, 47.0283255]}}, {"type": "Feature", "properties": {"type": "node", "id": 71481373, "tags": {"name": "Veszpr\u00e9m", "name:de": "Wesprim", "name:ru": "\u0412\u0435\u0441\u043f\u0440\u0435\u043c", "name:sr": "\u0412\u0435\u0441\u043f\u0440\u0435\u043c", "old_name:de": "Wei\u00dfbrunn", "operator": "M\u00c1V", "public_transport": "station", "railway": "station", "railway:name:M\u00c1V": "Veszpr\u00e9m", "railway:ref": "J", "ref:mav": "1638", "train": "yes", "uic_ref": "5503947"}}, "geometry": {"type": "Point", "coordinates": [17.9110155, 47.1188724]}}, {"type": "Feature", "properties": {"type": "node", "id": 1779756702, "tags": {"operator": "M\u00c1V", "public_transport": "stop_position", "railway": "stop", "train": "yes"}}, "geometry": {"type": "Point", "coordinates": [17.9118164, 47.1193376]}}, {"type": "Feature", "properties": {"type": "node", "id": 321850118, "tags": {"name": "Epl\u00e9ny", "operator": "M\u00c1V", "public_transport": "station", "railway": "station", "railway:name:M\u00c1V": "Epl\u00e9ny", "ref:mav": "818", "train": "yes", "uic_ref": "5503038"}}, "geometry": {"type": "Point", "coordinates": [17.9215915, 47.1927353]}}, {"type": "Feature", "properties": {"type": "node", "id": 80231932, "tags": {"name": "Hajm\u00e1sk\u00e9r", "operator": "M\u00c1V", "railway": "station", "railway:name:M\u00c1V": "Hajm\u00e1sk\u00e9r", "ref:mav": "1637", "uic_ref": "5503939"}}, "geometry": {"type": "Point", "coordinates": [18.0090856, 47.1409977]}}, {"type": "Feature", "properties": {"type": "node", "id": 321886673, "tags": {"name": "Bakonyszentl\u00e1szl\u00f3", "operator": "M\u00c1V", "public_transport": "station", "railway": "station", "railway:name:M\u00c1V": "Bakonyszentl\u00e1szl\u00f3", "ref:mav": "815", "train": "yes", "uic_ref": "5502972"}}, "geometry": {"type": "Point", "coordinates": [17.8177933, 47.3959898]}}, {"type": "Feature", "properties": {"type": "node", "id": 445818143, "tags": {"name": "Zirc", "operator": "M\u00c1V", "public_transport": "station", "railway": "station", "railway:name:M\u00c1V": "Zirc", "ref:mav": "817", "train": "yes", "uic_ref": "5502998"}}, "geometry": {"type": "Point", "coordinates": [17.8780849, 47.2667256]}}, {"type": "Feature", "properties": {"type": "node", "id": 3350644827, "tags": {"name": "Porva-Csesznek", "operator": "M\u00c1V", "public_transport": "station", "railway": "station", "railway:name:M\u00c1V": "Porva-Csesznek", "ref:mav": "816", "train": "yes", "uic_ref": "5502980"}}, "geometry": {"type": "Point", "coordinates": [17.8414031, 47.3269663]}}, {"type": "Feature", "properties": {"type": "node", "id": 80221206, "tags": {"name": "Balatonkenese", "public_transport": "station", "railway": "station", "ref:mav": "1673", "toilets:wheelchair": "yes", "train": "yes", "wheelchair": "limited"}}, "geometry": {"type": "Point", "coordinates": [18.1060228, 47.0323802]}}, {"type": "Feature", "properties": {"type": "node", "id": 6458635225, "tags": {"name": "Balatonf\u0171zf\u0151", "operator": "M\u00c1V", "railway": "station", "ref:mav": "1674", "wheelchair": "no"}}, "geometry": {"type": "Point", "coordinates": [18.0426031, 47.0597328]}}, {"type": "Feature", "properties": {"type": "node", "id": 61086286, "tags": {"name": "Csaj\u00e1g", "railway": "station", "ref:mav": "1670"}}, "geometry": {"type": "Point", "coordinates": [18.1861279, 47.0336494]}}, {"type": "Feature", "properties": {"type": "node", "id": 80231925, "tags": {"name": "P\u00e9tf\u00fcrd\u0151", "operator": "M\u00c1V", "public_transport": "station", "railway": "station", "railway:name:M\u00c1V": "P\u00e9tf\u00fcrd\u0151", "ref:mav": "1636", "train": "yes", "uic_ref": "5503921"}}, "geometry": {"type": "Point", "coordinates": [18.1222266, 47.1671614]}}, {"type": "Feature", "properties": {"type": "node", "id": 71481036, "tags": {"name": "V\u00e1rpalota", "name:de": "Burgschlo\u00df", "operator": "M\u00c1V", "public_transport": "station", "railway": "station", "railway:name:M\u00c1V": "V\u00e1rpalota", "ref:mav": "1635", "train": "yes", "uic_ref": "5503871"}}, "geometry": {"type": "Point", "coordinates": [18.1488689, 47.1946346]}}, {"type": "Feature", "properties": {"type": "node", "id": 2696303372, "tags": {"name": "Cs\u00f3r-N\u00e1dasdlad\u00e1ny", "note": "Nem haszn\u00e1lt meg\u00e1ll\u00f3hely", "public_transport": "stop_position", "railway": "stop", "train": "yes"}}, "geometry": {"type": "Point", "coordinates": [18.2204922, 47.1739736]}}, {"type": "Feature", "properties": {"type": "node", "id": 8446032161, "tags": {"disused:railway": "station", "name": "Cs\u00f3r-N\u00e1dasdlad\u00e1ny", "operator": "M\u00c1V", "public_transport": "station", "railway": "station", "railway:name:M\u00c1V": "Cs\u00f3r-N\u00e1dasdlad\u00e1ny", "train": "yes", "uic_ref": "5503855"}}, "geometry": {"type": "Point", "coordinates": [18.2204145, 47.1740082]}}, {"type": "Feature", "properties": {"type": "node", "id": 1065130550, "tags": {"name": "Polg\u00e1rdi-Tekerespuszta", "public_transport": "stop_position", "railway": "stop", "ref:mav": "2737", "train": "yes"}}, "geometry": {"type": "Point", "coordinates": [18.3008499, 47.0190483]}}, {"type": "Feature", "properties": {"type": "node", "id": 61086242, "tags": {"name": "Polg\u00e1rdi", "railway": "station", "ref:mav": "1667"}}, "geometry": {"type": "Point", "coordinates": [18.2843025, 47.0699508]}}, {"type": "Feature", "properties": {"type": "node", "id": 61086232, "tags": {"name": "Polg\u00e1rdi-Ipartelepek", "railway": "station", "ref:mav": "1666"}}, "geometry": {"type": "Point", "coordinates": [18.3150251, 47.0791646]}}, {"type": "Feature", "properties": {"type": "node", "id": 1065129667, "tags": {"name": "Kiscs\u00e9ripuszta", "public_transport": "stop_position", "railway": "stop", "ref:mav": "840", "train": "yes"}}, "geometry": {"type": "Point", "coordinates": [18.3549811, 47.0480412]}}, {"type": "Feature", "properties": {"type": "node", "id": 61086193, "tags": {"name": "Szabadbatty\u00e1n", "railway": "station", "ref:mav": "839"}}, "geometry": {"type": "Point", "coordinates": [18.3883521, 47.1054078]}}, {"type": "Feature", "properties": {"type": "node", "id": 2753681384, "tags": {"name": "Szabadbatty\u00e1n", "railway": "station", "ref:mav": "839"}}, "geometry": {"type": "Point", "coordinates": [18.3881806, 47.1054218]}}, {"type": "Feature", "properties": {"type": "node", "id": 61086169, "tags": {"name": "Sz\u00e9kesfeh\u00e9rv\u00e1r-Rep\u00fcl\u0151t\u00e9r", "public_transport": "stop_position", "railway": "stop", "ref:mav": "1001", "train": "yes"}}, "geometry": {"type": "Point", "coordinates": [18.4064033, 47.1589451]}}, {"type": "Feature", "properties": {"type": "node", "id": 4694446176, "tags": {"name": "Sz\u00e9kesfeh\u00e9rv\u00e1r-Rep\u00fcl\u0151t\u00e9r", "public_transport": "stop_position", "railway": "stop", "ref:mav": "1001", "train": "yes"}}, "geometry": {"type": "Point", "coordinates": [18.4065978, 47.1589528]}}, {"type": "Feature", "properties": {"type": "node", "id": 4220298839, "tags": {"local_ref": "1", "name": "Sz\u00e9kesfeh\u00e9rv\u00e1r", "name:cs": "Stoli\u010dn\u00fd B\u011blehrad", "name:de": "Stuhlwei\u00dfenburg", "name:la": "Alba Regia Regina", "name:ru": "\u0421\u0435\u043a\u0435\u0448\u0444\u0435\u0445\u0435\u0440\u0432\u0430\u0440", "name:sk": "Stoli\u010dn\u00fd Belehrad", "name:sr": "\u0421\u0442\u043e\u043b\u043d\u0438 \u0411\u0435\u043e\u0433\u0440\u0430\u0434", "name:uk": "\u0421\u0435\u043a\u0435\u0448\u0444\u0435\u0433\u0435\u0440\u0432\u0430\u0440", "public_transport": "stop_position", "railway": "stop", "ref:mav": "838", "train": "yes", "wheelchair": "yes"}}, "geometry": {"type": "Point", "coordinates": [18.4248473, 47.1832342]}}, {"type": "Feature", "properties": {"type": "node", "id": 4220298840, "tags": {"local_ref": "2", "name": "Sz\u00e9kesfeh\u00e9rv\u00e1r", "name:cs": "Stoli\u010dn\u00fd B\u011blehrad", "name:de": "Stuhlwei\u00dfenburg", "name:la": "Alba Regia Regina", "name:ru": "\u0421\u0435\u043a\u0435\u0448\u0444\u0435\u0445\u0435\u0440\u0432\u0430\u0440", "name:sk": "Stoli\u010dn\u00fd Belehrad", "name:sr": "\u0421\u0442\u043e\u043b\u043d\u0438 \u0411\u0435\u043e\u0433\u0440\u0430\u0434", "name:uk": "\u0421\u0435\u043a\u0435\u0448\u0444\u0435\u0433\u0435\u0440\u0432\u0430\u0440", "public_transport": "stop_position", "railway": "stop", "ref:mav": "838", "train": "yes", "wheelchair": "yes"}}, "geometry": {"type": "Point", "coordinates": [18.4248669, 47.1831969]}}, {"type": "Feature", "properties": {"type": "node", "id": 4244712588, "tags": {"local_ref": "3", "name": "Sz\u00e9kesfeh\u00e9rv\u00e1r", "name:cs": "Stoli\u010dn\u00fd B\u011blehrad", "name:de": "Stuhlwei\u00dfenburg", "name:la": "Alba Regia Regina", "name:ru": "\u0421\u0435\u043a\u0435\u0448\u0444\u0435\u0445\u0435\u0440\u0432\u0430\u0440", "name:sk": "Stoli\u010dn\u00fd Belehrad", "name:sr": "\u0421\u0442\u043e\u043b\u043d\u0438 \u0411\u0435\u043e\u0433\u0440\u0430\u0434", "name:uk": "\u0421\u0435\u043a\u0435\u0448\u0444\u0435\u0433\u0435\u0440\u0432\u0430\u0440", "public_transport": "stop_position", "railway": "stop", "ref:mav": "838", "train": "yes", "wheelchair": "yes"}}, "geometry": {"type": "Point", "coordinates": [18.4249483, 47.1830888]}}, {"type": "Feature", "properties": {"type": "node", "id": 4244712690, "tags": {"local_ref": "5", "name": "Sz\u00e9kesfeh\u00e9rv\u00e1r", "name:cs": "Stoli\u010dn\u00fd B\u011blehrad", "name:de": "Stuhlwei\u00dfenburg", "name:la": "Alba Regia Regina", "name:ru": "\u0421\u0435\u043a\u0435\u0448\u0444\u0435\u0445\u0435\u0440\u0432\u0430\u0440", "name:sk": "Stoli\u010dn\u00fd Belehrad", "name:sr": "\u0421\u0442\u043e\u043b\u043d\u0438 \u0411\u0435\u043e\u0433\u0440\u0430\u0434", "name:uk": "\u0421\u0435\u043a\u0435\u0448\u0444\u0435\u0433\u0435\u0440\u0432\u0430\u0440", "public_transport": "stop_position", "railway": "stop", "ref:mav": "838", "train": "yes", "wheelchair": "yes"}}, "geometry": {"type": "Point", "coordinates": [18.4250501, 47.1829395]}}, {"type": "Feature", "properties": {"type": "node", "id": 4244712691, "tags": {"local_ref": "6", "name": "Sz\u00e9kesfeh\u00e9rv\u00e1r", "name:cs": "Stoli\u010dn\u00fd B\u011blehrad", "name:de": "Stuhlwei\u00dfenburg", "name:la": "Alba Regia Regina", "name:ru": "\u0421\u0435\u043a\u0435\u0448\u0444\u0435\u0445\u0435\u0440\u0432\u0430\u0440", "name:sk": "Stoli\u010dn\u00fd Belehrad", "name:sr": "\u0421\u0442\u043e\u043b\u043d\u0438 \u0411\u0435\u043e\u0433\u0440\u0430\u0434", "name:uk": "\u0421\u0435\u043a\u0435\u0448\u0444\u0435\u0433\u0435\u0440\u0432\u0430\u0440", "public_transport": "stop_position", "railway": "stop", "ref:mav": "838", "train": "yes", "wheelchair": "yes"}}, "geometry": {"type": "Point", "coordinates": [18.4250703, 47.1829056]}}, {"type": "Feature", "properties": {"type": "node", "id": 6543738104, "tags": {"local_ref": "3", "name": "Sz\u00e9kesfeh\u00e9rv\u00e1r", "name:cs": "Stoli\u010dn\u00fd B\u011blehrad", "name:de": "Stuhlwei\u00dfenburg", "name:la": "Alba Regia Regina", "name:ru": "\u0421\u0435\u043a\u0435\u0448\u0444\u0435\u0445\u0435\u0440\u0432\u0430\u0440", "name:sk": "Stoli\u010dn\u00fd Belehrad", "name:sr": "\u0421\u0442\u043e\u043b\u043d\u0438 \u0411\u0435\u043e\u0433\u0440\u0430\u0434", "name:uk": "\u0421\u0435\u043a\u0435\u0448\u0444\u0435\u0433\u0435\u0440\u0432\u0430\u0440", "public_transport": "stop_position", "railway": "stop", "ref:mav": "838", "train": "yes", "wheelchair": "yes"}}, "geometry": {"type": "Point", "coordinates": [18.4249675, 47.1830479]}}, {"type": "Feature", "properties": {"type": "node", "id": 7575662350, "tags": {"name": "Sz\u00e9kesfeh\u00e9rv\u00e1r", "name:cs": "Stoli\u010dn\u00fd B\u011blehrad", "name:de": "Stuhlwei\u00dfenburg", "name:la": "Alba Regia Regina", "name:ru": "\u0421\u0435\u043a\u0435\u0448\u0444\u0435\u0445\u0435\u0440\u0432\u0430\u0440", "name:sk": "Stoli\u010dn\u00fd Belehrad", "name:sr": "\u0421\u0442\u043e\u043b\u043d\u0438 \u0411\u0435\u043e\u0433\u0440\u0430\u0434", "name:uk": "\u0421\u0435\u043a\u0435\u0448\u0444\u0435\u0433\u0435\u0440\u0432\u0430\u0440", "operator": "M\u00c1V", "public_transport": "station", "railway": "station", "railway:name:M\u00c1V": "Sz\u00e9kesfeh\u00e9rv\u00e1r", "railway:ref": "SV", "ref:mav": "838", "train": "yes", "uic_ref": "5503269", "wheelchair": "yes"}}, "geometry": {"type": "Point", "coordinates": [18.4250081, 47.1829992]}}, {"type": "Feature", "properties": {"type": "node", "id": 508042035, "tags": {"name": "Inota-Gy\u00e1rtelep", "railway": "station", "source": "guess"}}, "geometry": {"type": "Point", "coordinates": [18.2213503, 47.2050001]}}, {"type": "Feature", "properties": {"type": "node", "id": 500910641, "tags": {"name": "Balinka", "railway": "station", "source": "guess"}}, "geometry": {"type": "Point", "coordinates": [18.1489072, 47.3187597]}}, {"type": "Feature", "properties": {"type": "node", "id": 1065130834, "tags": {"name": "Cs\u00f3kak\u0151", "public_transport": "stop_position", "railway": "stop", "ref:mav": "3631", "train": "yes"}}, "geometry": {"type": "Point", "coordinates": [18.2377174, 47.3298028]}}, {"type": "Feature", "properties": {"type": "node", "id": 7878193101, "tags": {"internet_access": "no", "name": "M\u00f3r", "name:de": "Moor", "operator": "M\u00c1V", "public_transport": "stop_position", "railway": "stop", "ref:mav": "3632", "train": "yes"}}, "geometry": {"type": "Point", "coordinates": [18.1886778, 47.3694409]}}, {"type": "Feature", "properties": {"type": "node", "id": 8437526250, "tags": {"name": "M\u00f3r", "operator": "M\u00c1V", "public_transport": "station", "railway": "station", "railway:name:M\u00c1V": "M\u00f3r", "train": "yes", "uic_ref": "5503731"}}, "geometry": {"type": "Point", "coordinates": [18.1888111, 47.3695041]}}, {"type": "Feature", "properties": {"type": "node", "id": 619723827, "tags": {"name": "Moha", "operator": "M\u00c1V", "railway": "station", "railway:name:M\u00c1V": "Moha", "train": "yes", "uic_ref": "5503673"}}, "geometry": {"type": "Point", "coordinates": [18.339622, 47.2470985]}}, {"type": "Feature", "properties": {"type": "node", "id": 619723825, "tags": {"name": "Moha-Rakod\u00f3", "operator": "M\u00c1V", "public_transport": "station", "railway": "station", "railway:name:M\u00c1V": "Moha-Rakod\u00f3", "train": "yes", "uic_ref": "5503681"}}, "geometry": {"type": "Point", "coordinates": [18.3063285, 47.2741113]}}, {"type": "Feature", "properties": {"type": "node", "id": 500910646, "tags": {"name": "Bodajk", "public_transport": "stop_position", "railway": "stop", "ref:mav": "3630", "train": "yes"}}, "geometry": {"type": "Point", "coordinates": [18.2520422, 47.3181226]}}, {"type": "Feature", "properties": {"type": "node", "id": 8437526248, "tags": {"name": "Bodajk", "operator": "M\u00c1V", "public_transport": "station", "railway": "station", "railway:name:M\u00c1V": "Bodajk", "train": "yes", "uic_ref": "5503707"}}, "geometry": {"type": "Point", "coordinates": [18.2520467, 47.3180555]}}, {"type": "Feature", "properties": {"type": "node", "id": 50825206, "tags": {"name": "L\u00f6v\u0151", "railway": "station", "ref:mav": "2530"}}, "geometry": {"type": "Point", "coordinates": [16.7773534, 47.5096145]}}, {"type": "Feature", "properties": {"type": "node", "id": 1212434077, "tags": {"name": "Fert\u0151sz\u00e9plak-Fert\u0151d", "operator": "GYSEV", "public_transport": "stop_position", "railway": "halt", "ref:mav": "806", "train": "yes", "uic_ref": "5502857", "website": "https://www2.gysev.hu/gysev-szolgaltatasok/allomasok-penztarak/fertoszeplak-fertod-megallo", "wikidata": "Q21890523", "wikipedia": "hu:Fert\u0151sz\u00e9plak-Fert\u0151d meg\u00e1ll\u00f3hely"}}, "geometry": {"type": "Point", "coordinates": [16.8507664, 47.6179016]}}, {"type": "Feature", "properties": {"type": "node", "id": 344302131, "tags": {"addr:city": "Fert\u0151szentmikl\u00f3s", "addr:housenumber": "11", "addr:postcode": "9444", "addr:street": "Gesztenye sor", "internet_access": "wlan", "name": "Fert\u0151szentmikl\u00f3s", "name:de": "Sankt Niklaus am Neusiedlersee", "name:hr": "Miklo\u0161", "name:hu": "Fert\u0151szentmikl\u00f3s", "operator": "GySEV", "public_transport": "station", "railway": "station", "railway:ref": "EM", "ref:mav": "800", "uic_ref": "5502667", "website": "https://www2.gysev.hu/gysev-szolgaltatasok/allomasok-penztarak/fertoszentmiklos-vasutallomas", "wikidata": "Q21876825", "wikipedia": "hu:Fert\u0151szentmikl\u00f3s vas\u00fat\u00e1llom\u00e1s"}}, "geometry": {"type": "Point", "coordinates": [16.8600169, 47.5998095]}}, {"type": "Feature", "properties": {"type": "node", "id": 1212434034, "tags": {"name": "Pet\u0151h\u00e1za", "name:de": "P\u00f6ttelshausen", "name:hu": "Pet\u0151h\u00e1za", "railway": "station", "ref:mav": "799"}}, "geometry": {"type": "Point", "coordinates": [16.8893818, 47.5956486]}}, {"type": "Feature", "properties": {"type": "node", "id": 93800938, "tags": {"name": "R\u00e9pcelak", "railway": "station", "ref:mav": "65396"}}, "geometry": {"type": "Point", "coordinates": [17.0090068, 47.4190452]}}, {"type": "Feature", "properties": {"type": "node", "id": 93800933, "tags": {"name": "Beled", "railway": "station", "ref:mav": "65423"}}, "geometry": {"type": "Point", "coordinates": [17.0846233, 47.4666596]}}, {"type": "Feature", "properties": {"type": "node", "id": 1065129663, "tags": {"name": "Kapuv\u00e1r", "name:de": "Kobrunn", "name:hr": "Kapuja", "operator": "GYSEV", "railway": "station", "ref:mav": "797"}}, "geometry": {"type": "Point", "coordinates": [17.0478068, 47.5819147]}}, {"type": "Feature", "properties": {"type": "node", "id": 1212434825, "tags": {"name": "R\u00e1batam\u00e1si", "railway": "station", "ref:mav": "794"}}, "geometry": {"type": "Point", "coordinates": [17.1613319, 47.5928487]}}, {"type": "Feature", "properties": {"type": "node", "id": 93800919, "tags": {"name": "J\u00e1nossomorja", "railway": "station", "ref:mav": "65417"}}, "geometry": {"type": "Point", "coordinates": [17.1376402, 47.7891069]}}, {"type": "Feature", "properties": {"type": "node", "id": 1065130111, "tags": {"name": "Szany-R\u00e1baszentandr\u00e1s", "operator": "M\u00c1V", "public_transport": "station", "railway": "station", "railway:ref": "SN", "ref:mav": "820", "uic_ref": "5503079", "website": "https://www.mavcsoport.hu/mav-start/belfoldi-utazas/vasutallomas/szany-rabaszentandras", "wikidata": "Q22093548", "wikipedia": "hu:Szany-R\u00e1baszentandr\u00e1s vas\u00fat\u00e1llom\u00e1s"}}, "geometry": {"type": "Point", "coordinates": [17.3152476, 47.4606405]}}, {"type": "Feature", "properties": {"type": "node", "id": 93548551, "tags": {"name": "Szil-Sopronn\u00e9meti", "operator": "GySEV", "public_transport": "station", "railway": "station", "railway:ref": "IL", "ref:mav": "65420"}}, "geometry": {"type": "Point", "coordinates": [17.2096613, 47.5333512]}}, {"type": "Feature", "properties": {"type": "node", "id": 93800925, "tags": {"name": "Csorna", "public_transport": "station", "railway": "stop", "train": "yes"}}, "geometry": {"type": "Point", "coordinates": [17.2489622, 47.601887]}}, {"type": "Feature", "properties": {"type": "node", "id": 4327586850, "tags": {"name": "Csorna", "public_transport": "station", "railway": "stop", "train": "yes"}}, "geometry": {"type": "Point", "coordinates": [17.2490059, 47.6018061]}}, {"type": "Feature", "properties": {"type": "node", "id": 8431961831, "tags": {"addr:city": "Csorna", "addr:housenumber": "1", "addr:postcode": "9300", "addr:street": "Aradi utca", "internet_access": "wlan", "name": "Csorna", "name:de": "Gschirnau", "operator": "GySEV", "public_transport": "station", "railway": "station", "railway:ref": "CS", "ref:mav": "1905", "train": "yes", "uic_ref": "5502576", "website": "https://www2.gysev.hu/gysev-szolgaltatasok/allomasok-penztarak/csorna-vasutallomas", "wheelchair": "limited", "wikidata": "Q21876823", "wikipedia": "hu:Csorna vas\u00fat\u00e1llom\u00e1s"}}, "geometry": {"type": "Point", "coordinates": [17.248911, 47.6019587]}}, {"type": "Feature", "properties": {"type": "node", "id": 500911441, "tags": {"name": "Egyed-R\u00e1bacsanak", "operator": "M\u00c1V", "public_transport": "station", "railway": "station", "railway:ref": "EC", "ref:mav": "821", "uic_ref": "5503087", "website": "https://www.mavcsoport.hu/mav-start/belfoldi-utazas/vasutallomas/egyed-rabacsanak", "wikidata": "Q22093547", "wikipedia": "hu:Egyed-R\u00e1bacsanak vas\u00fat\u00e1llom\u00e1s"}}, "geometry": {"type": "Point", "coordinates": [17.3163893, 47.5218133]}}, {"type": "Feature", "properties": {"type": "node", "id": 5262529317, "tags": {"name": "Gecse-Gyarmat", "operator": "M\u00c1V", "railway": "station", "ref:mav": "2876"}}, "geometry": {"type": "Point", "coordinates": [17.5149845, 47.4562019]}}, {"type": "Feature", "properties": {"type": "node", "id": 1065129572, "tags": {"name": "Gy\u00f6m\u00f6re", "operator": "M\u00c1V", "public_transport": "station", "railway": "station", "railway:ref": "GY", "ref:mav": "2874", "train": "yes", "uic_ref": "5502089"}},