{"version": 0.6, "generator": "Overpass API 0.7.56.7 b85c4387", "osm3s": {"timestamp_osm_base": "2021-03-01T19:06:42Z", "timestamp_areas_base": "2021-03-01T18:09:42Z", "copyright": "The data included in this document is from www.openstreetmap.org. The data is made available under ODbL."}, "elements": [{"type": "node", "id": 282376812, "lat": 48.2190418, "lon": 16.976429, "tags": {"name": "Dev\u00ednska Nov\u00e1 Ves", "name:de": "Theben Neudorf", "network": "\u017dSR", "operator": "\u017dSR", "public_transport": "stop_position", "railway": "stop", "train": "yes", "uic_name": "Devinska Nova Ves", "uic_ref": "5600193"}}, {"type": "node", "id": 3350963366, "lat": 48.2190959, "lon": 16.9763098, "tags": {"name": "Dev\u00ednska Nov\u00e1 Ves", "name:de": "Theben Neudorf", "network": "\u017dSR", "operator": "\u017dSR", "public_transport": "stop_position", "railway": "stop", "train": "yes", "uic_name": "Devinska Nova Ves", "uic_ref": "5600193"}}, {"type": "node", "id": 3350963367, "lat": 48.2190576, "lon": 16.9763686, "tags": {"name": "Dev\u00ednska Nov\u00e1 Ves", "name:de": "Theben Neudorf", "network": "\u017dSR", "operator": "\u017dSR", "platforms": "4", "public_transport": "station", "railway": "station", "railway:ref:\u00d6BB": "Dnv", "train": "yes", "uic_name": "Devinska Nova Ves", "uic_ref": "5600193", "wikidata": "Q12781947"}}, {"type": "node", "id": 1403114788, "lat": 48.0466367, "lon": 17.1509727, "tags": {"name": "Rusovce", "public_transport": "stop_position", "railway": "stop", "train": "yes"}}, {"type": "node", "id": 5279185356, "lat": 48.0465716, "lon": 17.1508592, "tags": {"name": "Rusovce", "name:de": "Karlburg", "name:hr": "Rosvar", "name:hu": "Oroszv\u00e1r", "operator": "\u017dSR", "public_transport": "station", "railway": "station", "train": "yes", "wikidata": "Q9324128"}}, {"type": "node", "id": 30073060, "lat": 48.1213238, "lon": 17.0995473, "tags": {"addr:city": "Bratislava", "addr:country": "SK", "addr:street": "Kop\u010dianska", "addr:suburb": "Petr\u017ealka", "comment": "schema a elektrifikacia vid. http://rail.sk/arp/slovakia/zst/145763.htm", "name": "Bratislava-Petr\u017ealka", "name:de": "Bratislava-Engerau", "operator": "\u017dSR", "phone": "+421 24 48 58 188", "public_transport": "station", "railway": "station", "railway:position": "17.9", "railway:position:exact": "17.898", "railway:ref:\u00d6BB": "Pta", "train": "yes", "uic_name": "Bratislava-Petrzalka", "uic_ref": "5600582", "website": "http://www.slovakrail.sk/", "wheelchair": "yes", "wikidata": "Q800563"}}, {"type": "node", "id": 3360962315, "lat": 48.1212113, "lon": 17.0987535, "tags": {"name": "Bratislava-Petr\u017ealka", "name:de": "Bratislava-Engerau", "public_transport": "stop_position", "railway": "stop", "train": "yes"}}, {"type": "node", "id": 5279185357, "lat": 48.1213504, "lon": 17.099464, "tags": {"name": "Bratislava-Petr\u017ealka", "name:de": "Bratislava-Engerau", "public_transport": "stop_position", "railway": "stop", "railway:ref": "BP", "train": "yes"}}, {"type": "node", "id": 2285899922, "lat": 48.1415966, "lon": 17.1726597, "tags": {"alt_name": "\u017delezni\u010dn\u00e1 stanica \u00daNS", "name": "Bratislava - \u00dastredn\u00e1 n\u00e1kladn\u00e1 stanica", "public_transport": "station", "railway": "station", "train": "yes", "wikidata": "Q12781950", "wikipedia": "sk:\u017delezni\u010dn\u00e1 stanica Bratislava \u00daNS"}}, {"type": "node", "id": 472564466, "lat": 48.1849603, "lon": 17.0505324, "tags": {"name": "Bratislava-Lama\u010d", "name:de": "Pressburg - Blumenau", "network": "\u017dSR", "operator": "\u017dSR", "public_transport": "stop_position", "railway": "stop", "train": "yes", "wheelchair": "no"}}, {"type": "node", "id": 2865289027, "lat": 48.1849926, "lon": 17.0505812, "tags": {"name": "Bratislava-Lama\u010d", "name:de": "Pressburg - Blumenau", "network": "\u017dSR", "operator": "\u017dSR", "public_transport": "stop_position", "railway": "stop", "train": "yes"}}, {"type": "node", "id": 2865289058, "lat": 48.1849306, "lon": 17.0504711, "tags": {"name": "Bratislava-Lama\u010d", "name:de": "Pressburg - Blumenau", "network": "\u017dSR", "operator": "\u017dSR", "public_transport": "stop_position", "railway": "stop", "train": "yes"}}, {"type": "node", "id": 8223326625, "lat": 48.1849975, "lon": 17.0504339, "tags": {"name": "Bratislava-Lama\u010d", "name:de": "Pressburg - Blumenau", "network": "\u017dSR", "operator": "\u017dSR", "public_transport": "station", "railway": "station", "train": "yes", "uic_name": "Bratislava-Lamac", "uic_ref": "5600581", "wikidata": "Q4180549", "wikipedia": "sk:\u017delezni\u010dn\u00e1 stanica Bratislava-Lama\u010d"}}, {"type": "node", "id": 55451234, "lat": 48.1746117, "lon": 17.0727785, "tags": {"name": "Bratislava-\u017delezn\u00e1 studienka", "name:de": "Pressburg-Eisenbr\u00fcnnl", "network": "\u017dSR", "operator": "\u017dSR", "public_transport": "stop_position", "railway": "stop", "train": "yes"}}, {"type": "node", "id": 2865289032, "lat": 48.1745834, "lon": 17.0727494, "tags": {"name": "Bratislava-\u017delezn\u00e1 studienka", "name:de": "Pressburg-Eisenbr\u00fcnnl", "network": "\u017dSR", "operator": "\u017dSR", "public_transport": "stop_position", "railway": "stop", "train": "yes"}}, {"type": "node", "id": 3350963364, "lat": 48.1745972, "lon": 17.0727633, "tags": {"name": "Bratislava-\u017delezn\u00e1 studienka", "network": "\u017dSR", "operator": "\u017dSR", "public_transport": "station", "railway": "station", "train": "yes", "wikidata": "Q4178862"}}, {"type": "node", "id": 2470526487, "lat": 48.158865, "lon": 17.1062985, "tags": {"name": "Bratislava hl.st.", "network": "\u017dSR", "operator": "\u017dSR", "public_transport": "stop_position", "railway": "stop", "ref": "1", "train": "yes"}}, {"type": "node", "id": 3350963358, "lat": 48.1589009, "lon": 17.1063591, "tags": {"name": "Bratislava hl.st.", "network": "\u017dSR", "operator": "\u017dSR", "public_transport": "stop_position", "railway": "stop", "railway:ref": "Ba", "ref": "2", "train": "yes"}}, {"type": "node", "id": 3350963359, "lat": 48.158933, "lon": 17.1066995, "tags": {"addr:city": "Bratislava", "addr:street": "N\u00e1mestie Franza Liszta", "internet_access": "wlan", "name": "Bratislava hlavn\u00e1 stanica", "name:de": "Bratislava Hauptbahnhof", "name:en": "Bratislava main station", "name:hu": "Pozsony f\u0151p\u00e1lyaudvar", "name:ru": "\u0411\u0440\u0430\u0442\u0438\u0441\u043b\u0430\u0432\u0430-\u0413\u043b\u0430\u0432\u043d\u0430\u044f", "public_transport": "station", "railway": "station", "train": "yes", "uic_name": "Bratislava hl.st.", "uic_ref": "5600207", "wheelchair": "yes", "wikidata": "Q899662", "wikipedia": "sk:Bratislava hlavn\u00e1 stanica"}}, {"type": "node", "id": 3350963360, "lat": 48.1589702, "lon": 17.1064087, "tags": {"name": "Bratislava hl.st.", "network": "\u017dSR", "operator": "\u017dSR", "public_transport": "stop_position", "railway": "stop", "ref": "4", "train": "yes"}}, {"type": "node", "id": 3350963361, "lat": 48.1590802, "lon": 17.1065192, "tags": {"name": "Bratislava hl.st.", "network": "\u017dSR", "operator": "\u017dSR", "public_transport": "stop_position", "railway": "stop", "ref": "10", "train": "yes"}}, {"type": "node", "id": 1375035164, "lat": 48.1591519, "lon": 17.1065857, "tags": {"name": "Bratislava hl.st.", "network": "\u017dSR", "operator": "\u017dSR", "public_transport": "stop_position", "railway": "stop", "ref": "14", "train": "yes"}}, {"type": "node", "id": 1375035179, "lat": 48.1591903, "lon": 17.1066296, "tags": {"name": "Bratislava hl.st.", "network": "\u017dSR", "operator": "\u017dSR", "public_transport": "stop_position", "railway": "stop", "ref": "16", "train": "yes"}}, {"type": "node", "id": 1375035208, "lat": 48.1592803, "lon": 17.106646, "tags": {"name": "Bratislava hl.st.", "network": "\u017dSR", "operator": "\u017dSR", "public_transport": "stop_position", "railway": "stop", "ref": "18", "train": "yes"}}, {"type": "node", "id": 1375035221, "lat": 48.159301, "lon": 17.1067215, "tags": {"name": "Bratislava hl.st.", "network": "\u017dSR", "operator": "\u017dSR", "public_transport": "stop_position", "railway": "stop", "ref": "20", "train": "yes"}}, {"type": "node", "id": 3350963362, "lat": 48.1593756, "lon": 17.1067968, "tags": {"name": "Bratislava hl.st.", "network": "\u017dSR", "operator": "\u017dSR", "public_transport": "stop_position", "railway": "stop", "ref": "22", "train": "yes"}}, {"type": "node", "id": 668119151, "lat": 48.1844545, "lon": 17.1345388, "tags": {"name": "Bratislava predmestie", "public_transport": "station", "railway": "station", "train": "yes", "wikidata": "Q9179063", "wikipedia": "sk:\u017delezni\u010dn\u00e1 stanica Bratislava predmestie"}}, {"type": "node", "id": 1881157374, "lat": 48.1841925, "lon": 17.1342658, "tags": {"name": "Bratislava predmestie", "network": "\u017dSR", "operator": "\u017dSR", "public_transport": "stop_position", "railway": "stop", "train": "yes"}}, {"type": "node", "id": 5726026252, "lat": 48.1841516, "lon": 17.134418, "tags": {"name": "Bratislava predmestie", "network": "\u017dSR", "operator": "\u017dSR", "public_transport": "stop_position", "railway": "stop", "train": "yes"}}, {"type": "node", "id": 2001930740, "lat": 48.1867327, "lon": 17.1332642, "tags": {"name": "Bratislava-Vinohrady", "network": "\u017dSR;IDS BK", "operator": "\u017dSR", "public_transport": "station", "railway": "station", "train": "yes", "wheelchair": "yes"}}, {"type": "node", "id": 2384273572, "lat": 48.1865108, "lon": 17.1327208, "tags": {"name": "Bratislava-Vinohrady", "network": "\u017dSR;IDS BK", "operator": "\u017dSR", "public_transport": "stop_position", "railway": "stop", "train": "yes"}}, {"type": "node", "id": 2384273580, "lat": 48.1868726, "lon": 17.1331581, "tags": {"name": "Bratislava-Vinohrady", "network": "\u017dSR;IDS BK", "operator": "\u017dSR", "public_transport": "stop_position", "railway": "stop", "train": "yes"}}, {"type": "node", "id": 2384290011, "lat": 48.1866463, "lon": 17.1336595, "tags": {"name": "Bratislava-Vinohrady", "network": "\u017dSR;IDS BK", "operator": "\u017dSR", "public_transport": "stop_position", "railway": "stop", "train": "yes"}}, {"type": "node", "id": 3355889030, "lat": 48.1868375, "lon": 17.133183, "tags": {"name": "Bratislava-Vinohrady", "network": "\u017dSR;IDS BK", "operator": "\u017dSR", "public_transport": "stop_position", "railway": "stop", "train": "yes"}}, {"type": "node", "id": 3355889020, "lat": 48.1717587, "lon": 17.146557, "tags": {"name": "Bratislava - Nov\u00e9 Mesto", "network": "\u017dSR;IDS BK", "operator": "\u017dSR", "public_transport": "stop_position", "train": "yes"}}, {"type": "node", "id": 3355889021, "lat": 48.1718293, "lon": 17.1466328, "tags": {"name": "Bratislava - Nov\u00e9 Mesto", "network": "\u017dSR;IDS BK", "operator": "\u017dSR", "public_transport": "stop_position", "train": "yes"}}, {"type": "node", "id": 3355889022, "lat": 48.1718998, "lon": 17.1466855, "tags": {"name": "Bratislava - Nov\u00e9 Mesto", "network": "\u017dSR;IDS BK", "operator": "\u017dSR", "public_transport": "stop_position", "railway:ref": "BN", "train": "yes"}}, {"type": "node", "id": 3355889023, "lat": 48.1719607, "lon": 17.1466543, "tags": {"name": "Bratislava - Nov\u00e9 Mesto", "network": "\u017dSR;IDS BK", "operator": "\u017dSR", "public_transport": "station", "railway": "station", "wheelchair": "yes"}}, {"type": "node", "id": 3355889024, "lat": 48.1719716, "lon": 17.1467777, "tags": {"name": "Bratislava - Nov\u00e9 Mesto", "network": "\u017dSR;IDS BK", "operator": "\u017dSR", "public_transport": "stop_position", "train": "yes"}}, {"type": "node", "id": 3355889025, "lat": 48.1720309, "lon": 17.1468533, "tags": {"name": "Bratislava - Nov\u00e9 Mesto", "network": "\u017dSR;IDS BK", "operator": "\u017dSR", "public_transport": "stop_position", "train": "yes"}}, {"type": "node", "id": 2317692471, "lat": 48.1958668, "lon": 17.1731634, "tags": {"name": "Bratislava v\u00fdchod", "railway": "station", "source": "mike3", "wikidata": "Q12781945"}}, {"type": "node", "id": 26202728, "lat": 48.2089564, "lon": 17.1608573, "tags": {"name": "Bratislava-Ra\u010da", "name:de": "Bratislava-Ratzersdorf", "network": "\u017dSR;IDS BK", "operator": "\u017dSR", "public_transport": "station", "railway": "station", "train": "yes"}}, {"type": "node", "id": 3355889026, "lat": 48.2089164, "lon": 17.1609344, "tags": {"name": "Bratislava-Ra\u010da", "name:de": "Bratislava-Ratzersdorf", "network": "\u017dSR;IDS BK", "operator": "\u017dSR", "public_transport": "stop_position", "railway": "stop", "train": "yes"}}, {"type": "node", "id": 3355889027, "lat": 48.2089853, "lon": 17.160769, "tags": {"name": "Bratislava-Ra\u010da", "name:de": "Bratislava-Ratzersdorf", "network": "\u017dSR;IDS BK", "operator": "\u017dSR", "public_transport": "stop_position", "railway": "stop", "train": "yes"}}, {"type": "node", "id": 676246350, "lat": 48.0317522, "lon": 17.4522799, "tags": {"name": "Lehnice", "name:de": "Legendorf", "railway": "station"}}, {"type": "node", "id": 676637642, "lat": 48.014486, "lon": 17.5296135, "tags": {"name": "Orechov\u00e1 Pot\u00f4\u0148", "railway": "station"}}, {"type": "node", "id": 676637641, "lat": 47.9933451, "lon": 17.6079412, "tags": {"name": "Dunajsk\u00e1 Streda", "name:de": "Niedermarkt", "name:hu": "Dunaszerdahely", "railway": "station"}}, {"type": "node", "id": 27349431, "lat": 48.1312421, "lon": 17.2208934, "tags": {"name": "Podunajsk\u00e9 Biskupice", "public_transport": "stop_position", "train": "yes"}}, {"type": "node", "id": 8150247696, "lat": 48.1312649, "lon": 17.2206858, "tags": {"name": "Podunajsk\u00e9 Biskupice", "operator": "\u017dSR", "public_transport": "station", "railway": "station", "train": "yes", "wikidata": "Q13365739", "wikipedia": "sk:\u017delezni\u010dn\u00e1 stanica Podunajsk\u00e9 Biskupice"}}, {"type": "node", "id": 920763152, "lat": 48.1080658, "lon": 17.2551018, "tags": {"name": "Rovinka", "public_transport": "stop_position", "railway": "stop", "train": "yes"}}, {"type": "node", "id": 919435646, "lat": 48.0999463, "lon": 17.276739, "tags": {"name": "Nov\u00e9 Ko\u0161arisk\u00e1", "public_transport": "stop_position", "railway": "stop", "train": "yes"}}, {"type": "node", "id": 279263509, "lat": 48.060156, "lon": 17.3413018, "tags": {"name": "Kvetoslavov zast\u00e1vka", "public_transport": "stop_position", "railway": "stop", "train": "yes"}}, {"type": "node", "id": 918221720, "lat": 48.0855216, "lon": 17.3016709, "tags": {"name": "Miloslavov", "public_transport": "stop_position", "railway": "stop", "train": "yes"}}, {"type": "node", "id": 279263336, "lat": 48.055636, "lon": 17.3594539, "tags": {"name": "Kvetoslavov", "public_transport": "stop_position", "railway": "stop", "train": "yes"}}, {"type": "node", "id": 6384121353, "lat": 48.0556567, "lon": 17.3594794, "tags": {"name": "Kvetoslavov", "railway": "station"}}, {"type": "node", "id": 4443345254, "lat": 48.1486337, "lon": 17.2101004, "tags": {"name": "Bratislava \u2013 Vraku\u0148a", "network": "\u017dSR", "operator": "\u017dSR", "public_transport": "stop_position", "railway": "stop", "train": "yes"}}, {"type": "node", "id": 25497610, "lat": 48.1947929, "lon": 17.206735, "tags": {"name": "Bratislava-Vajnory", "name:de": "Bratislava-Weinern", "network": "\u017dSR;IDS BK", "operator": "\u017dSR", "public_transport": "stop_position", "railway": "stop", "train": "yes"}}, {"type": "node", "id": 3355889028, "lat": 48.1947006, "lon": 17.2067588, "tags": {"name": "Bratislava-Vajnory", "name:de": "Bratislava-Weinern", "network": "\u017dSR;IDS BK", "operator": "\u017dSR", "public_transport": "stop_position", "railway": "stop", "train": "yes"}}, {"type": "node", "id": 3355889029, "lat": 48.1948891, "lon": 17.2066981, "tags": {"name": "Bratislava-Vajnory", "name:de": "Bratislava-Weinern", "network": "\u017dSR;IDS BK", "operator": "\u017dSR", "public_transport": "station", "railway": "station", "train": "yes", "wikidata": "Q9179062"}}, {"type": "node", "id": 25391942, "lat": 48.1947834, "lon": 17.2595966, "tags": {"name": "Ivanka pri Dunaji", "name:de": "Iwanka an der Donau", "name:hu": "Pozsonyiv\u00e1nka", "network": "\u017dSR;IDS BK", "operator": "\u017dSR", "public_transport": "stop_position", "train": "yes"}}, {"type": "node", "id": 3844565534, "lat": 48.194741, "lon": 17.2596506, "tags": {"name": "Ivanka pri Dunaji", "name:de": "Iwanka an der Donau", "name:hu": "Pozsonyiv\u00e1nka", "network": "\u017dSR;IDS BK", "operator": "\u017dSR", "public_transport": "stop_position", "train": "yes"}}, {"type": "node", "id": 3846992440, "lat": 48.1947599, "lon": 17.2596307, "tags": {"name": "Ivanka pri Dunaji", "network": "\u017dSR;IDS BK", "operator": "\u017dSR", "public_transport": "station", "railway": "station"}}, {"type": "node", "id": 25904394, "lat": 48.2476277, "lon": 17.2177576, "tags": {"name": "Sv\u00e4t\u00fd Jur", "network": "\u017dSR;IDS BK", "operator": "\u017dSR", "public_transport": "stop_position", "train": "yes"}}, {"type": "node", "id": 3846992456, "lat": 48.2475939, "lon": 17.2178031, "tags": {"name": "Sv\u00e4t\u00fd Jur", "network": "\u017dSR;IDS BK", "operator": "\u017dSR", "public_transport": "stop_position", "train": "yes"}}, {"type": "node", "id": 3846993457, "lat": 48.2476147, "lon": 17.217787, "tags": {"name": "Sv\u00e4t\u00fd Jur", "network": "\u017dSR;IDS BK", "operator": "\u017dSR", "public_transport": "station", "railway": "station"}}, {"type": "node", "id": 2972494939, "lat": 48.1978899, "lon": 17.3060273, "tags": {"name": "Bernol\u00e1kovo", "name:de": "Lansch\u00fctz", "name:hu": "Csekl\u00e9sz", "name:sk": "Bernol\u00e1kovo", "network": "\u017dSR;IDS BK", "operator": "\u017dSR", "public_transport": "stop_position", "train": "yes"}}, {"type": "node", "id": 3844565680, "lat": 48.1978428, "lon": 17.3060454, "tags": {"name": "Bernol\u00e1kovo", "name:de": "Lansch\u00fctz", "name:hu": "Csekl\u00e9sz", "name:sk": "Bernol\u00e1kovo", "network": "\u017dSR;IDS BK", "operator": "\u017dSR", "public_transport": "stop_position", "train": "yes"}}, {"type": "node", "id": 3846992434, "lat": 48.1978803, "lon": 17.306139, "tags": {"name": "Bernol\u00e1kovo", "name:de": "Lansch\u00fctz", "name:hu": "Csekl\u00e9sz", "name:sk": "Bernol\u00e1kovo", "network": "\u017dSR;IDS BK", "operator": "\u017dSR", "public_transport": "station", "railway": "station"}}, {"type": "node", "id": 3370940052, "lat": 48.2060423, "lon": 17.3619489, "tags": {"name": "Ve\u013ek\u00fd Biel", "name:de": "Ungarisch-Biel", "name:hu": "Magyarb\u00e9l", "network": "\u017dSR;IDS BK", "operator": "\u017dSR", "public_transport": "stop_position", "train": "yes"}}, {"type": "node", "id": 3846993458, "lat": 48.2060926, "lon": 17.3620236, "tags": {"name": "Ve\u013ek\u00fd Biel", "name:de": "Ungarisch-Biel", "name:hu": "Magyarb\u00e9l", "network": "\u017dSR;IDS BK", "operator": "\u017dSR", "public_transport": "station", "railway": "station"}}, {"type": "node", "id": 4246023830, "lat": 48.2061005, "lon": 17.3626852, "tags": {"name": "Ve\u013ek\u00fd Biel", "name:de": "Ungarisch-Biel", "name:hu": "Magyarb\u00e9l", "network": "\u017dSR;IDS BK", "operator": "\u017dSR", "public_transport": "stop_position", "railway": "stop", "train": "yes"}}, {"type": "node", "id": 25426361, "lat": 48.2135899, "lon": 17.4142506, "tags": {"name": "Senec", "name:de": "Wartberg", "network": "\u017dSR", "operator": "\u017dSR", "public_transport": "station", "railway": "station"}}, {"type": "node", "id": 3370434913, "lat": 48.213597, "lon": 17.4141147, "tags": {"name": "Senec", "network": "\u017dSR", "operator": "\u017dSR", "public_transport": "stop_position", "railway": "stop", "train": "yes"}}, {"type": "node", "id": 3846992452, "lat": 48.2135566, "lon": 17.4141269, "tags": {"name": "Senec", "network": "\u017dSR", "operator": "\u017dSR", "public_transport": "stop_position", "railway": "stop", "train": "yes"}}, {"type": "node", "id": 2954298193, "lat": 48.2193141, "lon": 17.4553368, "tags": {"name": "Reca", "name:de": "Entenberg", "name:hu": "R\u00e9te", "network": "\u017dSR;IDS BK", "operator": "\u017dSR", "public_transport": "stop_position", "train": "yes"}}, {"type": "node", "id": 3846992441, "lat": 48.2193712, "lon": 17.4553602, "tags": {"name": "Reca", "name:de": "Entenberg", "name:hu": "R\u00e9te", "network": "\u017dSR;IDS BK", "operator": "\u017dSR", "public_transport": "station", "railway": "station"}}, {"type": "node", "id": 4246055206, "lat": 48.2192686, "lon": 17.4554132, "tags": {"name": "Reca", "name:de": "Entenberg", "name:hu": "R\u00e9te", "network": "\u017dSR;IDS BK", "operator": "\u017dSR", "public_transport": "stop_position", "train": "yes"}}, {"type": "node", "id": 2953752808, "lat": 48.2081407, "lon": 17.5434142, "tags": {"name": "Pust\u00e9 \u00da\u013eany", "network": "\u017dSR;IDS BK", "operator": "\u017dSR", "public_transport": "stop_position", "train": "yes"}}, {"type": "node", "id": 3846992451, "lat": 48.2081896, "lon": 17.5434677, "tags": {"name": "Pust\u00e9 \u00da\u013eany", "network": "\u017dSR;IDS BK", "operator": "\u017dSR", "public_transport": "station", "railway": "station"}}, {"type": "node", "id": 6382586843, "lat": 48.2081078, "lon": 17.5434035, "tags": {"name": "Pust\u00e9 \u00da\u013eany", "network": "\u017dSR;IDS BK", "operator": "\u017dSR", "public_transport": "stop_position", "train": "yes"}}, {"type": "node", "id": 30418842, "lat": 47.8080584, "lon": 17.8518516, "tags": {"name": "Zemianska Ol\u010da", "railway": "station"}}, {"type": "node", "id": 2384672419, "lat": 47.7750681, "lon": 17.9769304, "tags": {"name": "Zlatn\u00e1 na ostrove", "public_transport": "stop_position", "railway": "stop", "train": "yes"}}, {"type": "node", "id": 25582465, "lat": 47.7691699, "lon": 18.1255981, "tags": {"name": "Kom\u00e1rno", "public_transport": "stop_position", "railway": "stop", "train": "yes"}}, {"type": "node", "id": 6795614368, "lat": 47.7692443, "lon": 18.1255437, "tags": {"name": "Kom\u00e1rno", "note": "This is not a duplicate with node with railway=stop, both should exist/Toto nie je duplicita s bodom railway=stop, maju existovat oba.", "railway": "station", "wikidata": "Q75006568"}}, {"type": "node", "id": 7098468026, "lat": 47.8088431, "lon": 18.1900083, "tags": {"name": "Chot\u00edn", "railway": "station"}}, {"type": "node", "id": 7201220627, "lat": 47.8088714, "lon": 18.1899134, "tags": {"name": "Chot\u00edn", "public_transport": "stop_position", "railway": "stop", "train": "yes"}}, {"type": "node", "id": 3768748933, "lat": 47.8345275, "lon": 17.8208859, "tags": {"name": "Bodza, zast\u00e1vka", "name:hu": "Bogya", "operator": "RegioJet", "public_transport": "station", "railway": "station"}}, {"type": "node", "id": 1382047578, "lat": 47.8615115, "lon": 17.7817295, "tags": {"name": "Ve\u013ek\u00fd Meder", "railway": "station"}}, {"type": "node", "id": 3768748936, "lat": 47.8959661, "lon": 17.794836, "tags": {"name": "Oko\u010d", "operator": "RegioJet", "railway": "station"}}, {"type": "node", "id": 3768748934, "lat": 47.967303, "lon": 17.6937433, "tags": {"name": "Doln\u00fd Bar", "operator": "RegioJet", "public_transport": "station", "railway": "station"}}, {"type": "node", "id": 6771996817, "lat": 47.9513481, "lon": 17.7434365, "tags": {"name": "Doln\u00fd \u0160t\u00e1l", "name:hu": "Alist\u00e1l vas\u00fat\u00e1llom\u00e1s", "operator": "RegioJet", "public_transport": "station", "railway": "station", "train": "yes"}}, {"type": "node", "id": 3654996179, "lat": 48.1955661, "lon": 17.6296309, "tags": {"name": "Sl\u00e1dkovi\u010dovo", "network": "\u017dSR;IDS BK", "operator": "\u017dSR", "public_transport": "stop_position", "train": "yes"}}, {"type": "node", "id": 3654996181, "lat": 48.1956464, "lon": 17.6296524, "tags": {"name": "Sl\u00e1dkovi\u010dovo", "network": "\u017dSR;IDS BK", "operator": "\u017dSR", "public_transport": "stop_position", "train": "yes"}}, {"type": "node", "id": 3846992454, "lat": 48.1956027, "lon": 17.6296376, "tags": {"name": "Sl\u00e1dkovi\u010dovo", "network": "\u017dSR;IDS BK", "operator": "\u017dSR", "public_transport": "stop_position", "train": "yes"}}, {"type": "node", "id": 3846992455, "lat": 48.1956487, "lon": 17.6294897, "tags": {"name": "Sl\u00e1dkovi\u010dovo", "network": "\u017dSR;IDS BK", "operator": "\u017dSR", "public_transport": "station", "railway": "station"}}, {"type": "node", "id": 26499120, "lat": 48.1849788, "lon": 17.7233261, "tags": {"name": "Galanta", "network": "\u017dSR", "operator": "\u017dSR", "public_transport": "stop_position", "railway": "stop", "train": "yes"}}, {"type": "node", "id": 3846992439, "lat": 48.185044, "lon": 17.7233305, "tags": {"name": "Galanta", "network": "\u017dSR;IDS BK", "operator": "\u017dSR", "public_transport": "station", "railway": "station", "railway:ref:DB": "XYG"}}, {"type": "node", "id": 4246062244, "lat": 48.1849353, "lon": 17.7233188, "tags": {"name": "Galanta", "network": "\u017dSR", "operator": "\u017dSR", "public_transport": "stop_position", "railway": "stop", "train": "yes"}}, {"type": "node", "id": 6793945402, "lat": 48.185019, "lon": 17.7233309, "tags": {"name": "Galanta", "network": "\u017dSR", "operator": "\u017dSR", "public_transport": "stop_position", "train": "yes"}}, {"type": "node", "id": 1384119715, "lat": 48.23371, "lon": 17.7232801, "tags": {"name": "G\u00e1\u0148", "public_transport": "stop_position", "railway": "stop", "train": "yes"}}, {"type": "node", "id": 6793945401, "lat": 48.2336372, "lon": 17.7233007, "tags": {"name": "G\u00e1\u0148", "railway": "station"}}, {"type": "node", "id": 27346876, "lat": 48.1469669, "lon": 17.8623051, "tags": {"name": "\u0160a\u013ea", "name:de": "Schala", "public_transport": "station", "railway": "station"}}, {"type": "node", "id": 314964836, "lat": 48.1530066, "lon": 17.9267384, "tags": {"name": "Trnovec nad V\u00e1hom", "railway": "station"}}, {"type": "node", "id": 4752647137, "lat": 48.1529458, "lon": 17.9268396, "tags": {"name": "Trnovec nad V\u00e1hom", "railway": "station"}}, {"type": "node", "id": 25551787, "lat": 47.8766912, "lon": 18.2035567, "tags": {"name": "Hurbanovo", "railway": "station"}}, {"type": "node", "id": 1063783348, "lat": 47.9264084, "lon": 18.2115406, "tags": {"name": "Baj\u010d", "name:hu": "Bajcs", "railway": "station"}}, {"type": "node", "id": 27270617, "lat": 47.9946612, "lon": 18.1747829, "tags": {"name": "Nov\u00e9 Z\u00e1mky", "name:hu": "\u00c9rsek\u00fajv\u00e1r", "public_transport": "stop_position", "railway": "stop", "train": "yes"}}, {"type": "node", "id": 3658062010, "lat": 47.9951189, "lon": 18.1742229, "tags": {"name": "Nov\u00e9 Z\u00e1mky", "name:hu": "\u00c9rsek\u00fajv\u00e1r", "public_transport": "station", "railway": "station"}}, {"type": "node", "id": 5222951719, "lat": 47.9955414, "lon": 18.1734322, "tags": {"name": "Nov\u00e9 Z\u00e1mky", "public_transport": "stop_position", "railway": "stop", "train": "yes"}}, {"type": "node", "id": 1260636603, "lat": 47.9000659, "lon": 18.3993676, "tags": {"name": "\u017delezni\u010dn\u00e1 zast\u00e1vka Strekov", "railway": "station"}}, {"type": "node", "id": 26152964, "lat": 47.9678064, "lon": 18.2512717, "tags": {"name": "Dvory nad \u017ditavou", "railway": "station"}}, {"type": "node", "id": 198156640, "lat": 48.0601421, "lon": 18.0818571, "tags": {"name": "Pal\u00e1rikovo", "railway": "station"}}, {"type": "node", "id": 4752645706, "lat": 48.0601048, "lon": 18.0817899, "tags": {"name": "Pal\u00e1rikovo", "railway": "station"}}, {"type": "node", "id": 3325142554, "lat": 48.0455403, "lon": 18.1675109, "tags": {"name": "B\u00e1nov", "name:hu": "B\u00e1nkeszi", "public_transport": "stop_position", "railway": "station", "train": "yes"}}, {"type": "node", "id": 563299494, "lat": 48.0850742, "lon": 18.172776, "tags": {"name": "\u0160urany", "public_transport": "stop_position", "railway": "station", "train": "yes"}}, {"type": "node", "id": 3325103352, "lat": 48.0910091, "lon": 18.1962339, "tags": {"name": "\u0160urany zast\u00e1vka", "public_transport": "stop_position", "railway": "halt", "train": "yes"}}, {"type": "node", "id": 1002330321, "lat": 48.0978567, "lon": 18.2330234, "tags": {"name": "\u00da\u013eany nad \u017ditavou", "public_transport": "stop_position", "train": "yes"}}, {"type": "node", "id": 27279256, "lat": 48.1833731, "lon": 18.1507391, "tags": {"is_in": "Ve\u013ek\u00fd K\u00fdr,Nov\u00e9 Z\u00e1mky,Nitriansky kraj,Z\u00e1padn\u00e9 Slovensko,Slovensko", "name": "Ve\u013ek\u00fd K\u00fdr", "railway": "station"}}, {"type": "node", "id": 2222263884, "lat": 48.0983222, "lon": 18.265954, "tags": {"name": "Hul", "public_transport": "station", "railway": "station"}}, {"type": "node", "id": 3325030475, "lat": 48.1364596, "lon": 18.2581698, "tags": {"name": "Mal\u00e1 Ma\u0148a", "public_transport": "stop_position", "railway": "halt", "train": "yes"}}, {"type": "node", "id": 35234003, "lat": 48.1029081, "lon": 18.3448676, "tags": {"name": "Podh\u00e1jska", "railway": "station"}}, {"type": "node", "id": 27303826, "lat": 48.1154631, "lon": 18.3881295, "tags": {"name": "Pozba", "railway": "station"}}, {"type": "node", "id": 2094813181, "lat": 48.1384102, "lon": 18.4021581, "tags": {"name": "Be\u0161a", "railway": "station"}}, {"type": "node", "id": 3325010668, "lat": 48.1464605, "lon": 18.264149, "tags": {"name": "Ma\u0148a zast\u00e1vka", "public_transport": "stop_position", "train": "yes"}}, {"type": "node", "id": 3324968995, "lat": 48.1557992, "lon": 18.270635, "tags": {"name": "Ma\u0148a", "public_transport": "stop_position", "railway": "station", "train": "yes"}}, {"type": "node", "id": 3324968992, "lat": 48.168168, "lon": 18.2766037, "tags": {"name": "Kme\u0165ovo", "name:hu": "Gyarak", "public_transport": "stop_position", "railway": "halt", "train": "yes"}}, {"type": "node", "id": 3324968996, "lat": 48.1844415, "lon": 18.2818111, "tags": {"name": "Michal nad \u017ditavou", "name:hu": "Szentmih\u00e1ly\u00far", "public_transport": "stop_position", "railway": "halt", "train": "yes"}}, {"type": "node", "id": 3324968994, "lat": 48.1987352, "lon": 18.2799639, "tags": {"name": "Martinov\u00e1", "name:hu": "Zsitvam\u00e1rtonfalva", "public_transport": "stop_position", "railway": "halt", "train": "yes"}}, {"type": "node", "id": 3324968993, "lat": 48.2174058, "lon": 18.2833187, "tags": {"name": "L\u00fa\u010dnica nad \u017ditavou", "name:hu": "Vajkm\u00e1rtonfalva", "public_transport": "stop_position", "railway": "halt", "train": "yes"}}, {"type": "node", "id": 3324968991, "lat": 48.2347866, "lon": 18.287103, "tags": {"name": "Dy\u010dka", "name:hu": "Nemesdicske", "public_transport": "stop_position", "railway": "halt", "train": "yes"}}, {"type": "node", "id": 2094813192, "lat": 48.1596043, "lon": 18.4497784, "tags": {"name": "Horn\u00fd Pial", "railway": "station"}}, {"type": "node", "id": 4764382668, "lat": 47.8129609, "lon": 18.5954648, "tags": {"name": "Mu\u017ela", "railway": "station"}}, {"type": "node", "id": 5224951601, "lat": 47.8129023, "lon": 18.5958946, "tags": {"name": "Mu\u017ela", "railway": "station"}}, {"type": "node", "id": 1078549756, "lat": 47.8000777, "lon": 18.6798225, "tags": {"loc_name": "Parkan,Parkany,P\u00e1rk\u00e1ny,Shturovo,Sturovo", "name": "\u0160t\u00farovo", "name:de": "Gockern", "name:hu": "P\u00e1rk\u00e1ny", "name:ru": "\u0428\u0442\u0443\u0440\u043e\u0432\u043e", "name:sk": "\u0160t\u00farovo", "old_name": "Parkan", "platforms": "3", "public_transport": "stop_position", "railway": "station", "train": "yes"}}, {"type": "node", "id": 5066551511, "lat": 47.8001951, "lon": 18.6797332, "tags": {"loc_name": "Parkan,Parkany,P\u00e1rk\u00e1ny,Shturovo,Sturovo", "name": "\u0160t\u00farovo", "name:de": "Gockern", "name:hu": "P\u00e1rk\u00e1ny", "name:ru": "\u0428\u0442\u0443\u0440\u043e\u0432\u043e", "name:sk": "\u0160t\u00farovo", "old_name": "Parkan", "platforms": "3", "public_transport": "stop_position", "railway": "station", "train": "yes"}}, {"type": "node", "id": 6382044532, "lat": 47.8248287, "lon": 18.8283562, "tags": {"name": "Chl'aba z\u00e1stavka", "name:hu": "Helemba vas\u00fat\u00e1llom\u00e1s", "public_transport": "stop_position", "railway": "stop", "train": "yes"}}, {"type": "node", "id": 6382044533, "lat": 47.8247953, "lon": 18.8283603, "tags": {"name": "Chl'aba z\u00e1stavka", "name:hu": "Helemba vas\u00fat\u00e1llom\u00e1s", "public_transport": "stop_position", "railway": "stop", "train": "yes"}}, {"type": "node", "id": 1910876352, "lat": 47.9562049, "lon": 18.6486644, "tags": {"name": "\u010cata", "railway": "station", "railway:position:exact": "20.083", "uic_ref": "5616326"}}, {"type": "node", "id": 8286654536, "lat": 47.9753537, "lon": 18.6485109, "tags": {"name": "Pohronsk\u00fd Ruskov", "railway": "station", "railway:position:exact": "22.265", "uic_ref": "5616316"}}, {"type": "node", "id": 1910832922, "lat": 48.0237628, "lon": 18.8025238, "tags": {"name": "Ipe\u013esk\u00fd Sokolec", "railway": "station", "railway:position:exact": "17.063", "uic_ref": "5616396"}}, {"type": "node", "id": 749736264, "lat": 48.044224, "lon": 18.6457275, "tags": {"name": "\u017deliezovce", "name:de": "Zelis", "name:hu": "Zseliz", "railway": "station", "railway:position:exact": "30.009", "uic_ref": "5616296"}}, {"type": "node", "id": 815607771, "lat": 48.1003018, "lon": 18.563469, "tags": {"name": "Tekovsk\u00e9 Lu\u017eany", "railway": "station", "uic_ref": "5616286"}}, {"type": "node", "id": 3648631593, "lat": 48.185423, "lon": 18.4728667, "tags": {"name": "Lok", "railway": "station"}}, {"type": "node", "id": 31147613, "lat": 48.1588592, "lon": 18.5549302, "tags": {"name": "Tekovsk\u00fd Hr\u00e1dok", "railway": "station", "railway:position:exact": "45.408", "uic_ref": "5616266"}}, {"type": "node", "id": 27303888, "lat": 48.2039535, "lon": 18.5178364, "tags": {"name": "Kaln\u00e1 nad Hronom", "railway": "station", "wikidata": "Q98115940"}}, {"type": "node", "id": 27303911, "lat": 48.2110472, "lon": 18.5927371, "tags": {"name": "Levice", "name:de": "Lewenz", "name:hu": "L\u00e9va", "name:ru": "\u041b\u0435\u0432\u0438\u0446\u0435", "railway": "station", "wheelchair": "yes", "wikidata": "Q30531413"}}, {"type": "node", "id": 7683964612, "lat": 48.0592405, "lon": 18.9565112, "tags": {"name": "\u0160ahy", "name:hu": "Ipolys\u00e1g", "railway": "station", "railway:position:exact": "31.481", "uic_ref": "5615404"}}, {"type": "node", "id": 1910789060, "lat": 48.2083179, "lon": 18.9330329, "tags": {"name": "Hontianske Tes\u00e1re", "railway": "station", "railway:position:exact": "19.992", "uic_ref": "5614643"}}, {"type": "node", "id": 1913185904, "lat": 48.2065889, "lon": 19.398589, "tags": {"name": "Mal\u00e9 Straciny", "railway": "station", "railway:position:exact": "12.386", "uic_ref": "5615103"}}, {"type": "node", "id": 27173733, "lat": 48.2350642, "lon": 19.9323063, "tags": {"name": "Hajn\u00e1\u010dka", "railway": "station", "railway:position:exact": "81.905", "uic_ref": "5613753"}}, {"type": "node", "id": 3328567992, "lat": 48.2510312, "lon": 16.9609206, "tags": {"name": "Dev\u00ednske Jazero", "name:de": "Thebensee", "network": "\u017dSR", "operator": "\u017dSR", "public_transport": "stop_position", "railway": "stop", "train": "yes"}}, {"type": "node", "id": 3328568393, "lat": 48.2510392, "lon": 16.9609817, "tags": {"name": "Dev\u00ednske Jazero", "name:de": "Thebensee", "network": "\u017dSR", "operator": "\u017dSR", "public_transport": "stop_position", "railway": "stop", "train": "yes"}}, {"type": "node", "id": 1179318278, "lat": 48.3337233, "lon": 16.9138236, "tags": {"name": "Vysok\u00e1 pri Morave", "network": "\u017dSR", "operator": "\u017dSR", "public_transport": "stop_position", "railway": "stop", "train": "yes"}}, {"type": "node", "id": 5943394565, "lat": 48.3336964, "lon": 16.9138404, "tags": {"name": "Vysok\u00e1 pri Morave", "network": "\u017dSR", "operator": "\u017dSR", "public_transport": "station", "railway": "station"}}, {"type": "node", "id": 32321451, "lat": 48.3342019, "lon": 16.9472959, "tags": {"name": "L\u00e1bske jazero zast\u00e1vka", "network": "\u017dSR", "operator": "\u017dSR", "public_transport": "stop_position", "railway": "stop", "train": "yes"}}, {"type": "node", "id": 1179318108, "lat": 48.3774898, "lon": 16.8445816, "tags": {"name": "Z\u00e1horsk\u00e1 Ves", "name:de": "Ungeraiden", "network": "\u017dSR", "operator": "\u017dSR", "public_transport": "stop_position", "railway": "stop", "train": "yes"}}, {"type": "node", "id": 3329790894, "lat": 48.3775169, "lon": 16.8445664, "tags": {"name": "Z\u00e1horsk\u00e1 Ves", "name:de": "Ungeraiden", "network": "\u017dSR", "operator": "\u017dSR", "public_transport": "station", "railway": "station"}}, {"type": "node", "id": 1179318157, "lat": 48.3577889, "lon": 16.8850313, "tags": {"name": "Vysok\u00e1 pri Morave zast\u00e1vka", "network": "\u017dSR", "operator": "\u017dSR", "public_transport": "stop_position", "train": "yes"}}, {"type": "node", "id": 27275800, "lat": 48.3257344, "lon": 16.9913462, "tags": {"name": "Zohor", "name:de": "Sachern", "network": "\u017dSR", "operator": "\u017dSR", "public_transport": "stop_position", "railway": "stop", "train": "yes"}}, {"type": "node", "id": 1179318138, "lat": 48.3257366, "lon": 16.991204, "tags": {"name": "Zohor", "network": "\u017dSR", "operator": "\u017dSR", "public_transport": "stop_position", "railway": "stop", "train": "yes"}}, {"type": "node", "id": 1179318203, "lat": 48.3257724, "lon": 16.9911618, "tags": {"name": "Zohor", "name:de": "Sachern", "network": "IDS BK", "operator": "\u017dSR", "public_transport": "stop_position", "railway": "stop", "train": "yes"}}, {"type": "node", "id": 2952631154, "lat": 48.3257301, "lon": 16.9914187, "tags": {"name": "Zohor", "name:de": "Sachern", "network": "\u017dSR", "operator": "\u017dSR", "public_transport": "stop_position", "railway": "stop", "train": "yes"}}, {"type": "node", "id": 6627186902, "lat": 48.3257309, "lon": 16.9912764, "tags": {"name": "Zohor", "network": "\u017dSR", "operator": "\u017dSR", "public_transport": "stop_position", "railway": "stop", "train": "yes"}}, {"type": "node", "id": 6646508753, "lat": 48.3257702, "lon": 16.9912527, "tags": {"name": "Zohor", "network": "\u017dSR", "operator": "\u017dSR", "public_transport": "station", "railway": "station", "train": "yes"}}, {"type": "node", "id": 1918892380, "lat": 48.3372277, "lon": 17.0422534, "tags": {"name": "Lozorno", "network": "\u017dSR", "operator": "\u017dSR", "public_transport": "stop_position", "railway": "stop", "train": "yes"}}, {"type": "node", "id": 6649247705, "lat": 48.3371918, "lon": 17.0422804, "tags": {"name": "Lozorno", "network": "\u017dSR", "operator": "\u017dSR", "public_transport": "stop_position", "railway": "stop", "train": "yes"}}, {"type": "node", "id": 6649247706, "lat": 48.3372137, "lon": 17.0422747, "tags": {"name": "Lozorno", "network": "\u017dSR", "operator": "\u017dSR", "public_transport": "station", "railway": "station", "train": "yes"}}, {"type": "node", "id": 7400854416, "lat": 48.3533182, "lon": 17.0888166, "tags": {"addr:city": "Jablonov\u00e9", "addr:housenumber": "385", "addr:place": "Jablonov\u00e9", "addr:postcode": "90054", "name": "Jablonov\u00e9", "name:de": "Apfelsbach", "public_transport": "station", "railway": "station"}}, {"type": "node", "id": 282377194, "lat": 48.3729853, "lon": 17.007729, "tags": {"alt_name:de": "Blasenstein-Zankendorf", "area": "yes", "name": "Plaveck\u00fd \u0160tvrtok", "name:de": "Zankendorf", "name:hu": "Detrek\u0151cs\u00fct\u00f6rt\u00f6k", "network": "\u017dSR", "operator": "\u017dSR", "public_transport": "station", "railway": "station", "wheelchair": "yes"}}, {"type": "node", "id": 2952631145, "lat": 48.3729296, "lon": 17.0077399, "tags": {"alt_name:de": "Blasenstein-Zankendorf", "name": "Plaveck\u00fd \u0160tvrtok", "name:de": "Zankendorf", "name:hu": "Detrek\u0151cs\u00fct\u00f6rt\u00f6k", "network": "\u017dSR", "operator": "\u017dSR", "public_transport": "stop_position", "railway": "stop", "train": "yes"}}, {"type": "node", "id": 3334032452, "lat": 48.3729333, "lon": 17.0077066, "tags": {"alt_name:de": "Blasenstein-Zankendorf", "name": "Plaveck\u00fd \u0160tvrtok", "name:de": "Zankendorf", "name:hu": "Detrek\u0151cs\u00fct\u00f6rt\u00f6k", "network": "\u017dSR", "operator": "\u017dSR", "public_transport": "stop_position", "railway": "stop", "train": "yes"}}, {"type": "node", "id": 3329784544, "lat": 48.4329669, "lon": 17.0232539, "tags": {"name": "Malacky", "name:de": "Malatzka", "network": "\u017dSR", "operator": "\u017dSR", "public_transport": "stop_position", "railway": "stop", "train": "yes"}}, {"type": "node", "id": 3329784545, "lat": 48.4329615, "lon": 17.0231894, "tags": {"name": "Malacky", "name:de": "Malatzka", "network": "\u017dSR", "operator": "\u017dSR", "public_transport": "stop_position", "railway": "stop", "train": "yes"}}, {"type": "node", "id": 3329784546, "lat": 48.4330165, "lon": 17.0232184, "tags": {"name": "Malacky", "name:de": "Malatzka", "network": "\u017dSR", "operator": "\u017dSR", "public_transport": "station", "railway": "station", "train": "yes", "wheelchair": "limited"}}, {"type": "node", "id": 6627292829, "lat": 48.432964, "lon": 17.0231256, "tags": {"name": "Malacky", "network": "\u017dSR", "operator": "\u017dSR", "public_transport": "stop_position", "railway": "stop", "train": "yes"}}, {"type": "node", "id": 6627292830, "lat": 48.4329551, "lon": 17.0233101, "tags": {"name": "Malacky", "network": "\u017dSR", "operator": "\u017dSR", "public_transport": "stop_position", "railway": "stop", "train": "yes"}}, {"type": "node", "id": 243481283, "lat": 48.3797098, "lon": 17.12246, "tags": {"name": "Pernek pri Zohore", "network": "\u017dSR", "operator": "\u017dSR", "public_transport": "stop_position", "railway": "stop", "train": "yes"}}, {"type": "node", "id": 278114771, "lat": 48.4111423, "lon": 17.1370462, "tags": {"name": "Kuchy\u0148a", "network": "\u017dSR", "operator": "\u017dSR", "public_transport": "stop_position", "railway": "stop", "train": "yes"}}, {"type": "node", "id": 1918892382, "lat": 48.4523798, "lon": 17.1707768, "tags": {"name": "Roho\u017en\u00edk", "network": "\u017dSR", "operator": "\u017dSR", "public_transport": "stop_position", "railway": "stop", "train": "yes"}}, {"type": "node", "id": 3328568418, "lat": 48.5092302, "lon": 17.0186092, "tags": {"name": "Ve\u013ek\u00e9 Lev\u00e1re", "network": "\u017dSR", "operator": "\u017dSR", "public_transport": "stop_position", "railway": "stop", "train": "yes"}}, {"type": "node", "id": 3328568419, "lat": 48.5092572, "lon": 17.0186728, "tags": {"name": "Ve\u013ek\u00e9 Lev\u00e1re", "network": "\u017dSR", "operator": "\u017dSR", "public_transport": "stop_position", "railway": "stop", "train": "yes"}}, {"type": "node", "id": 3334032453, "lat": 48.5092841, "lon": 17.0186066, "tags": {"name": "Ve\u013ek\u00e9 Lev\u00e1re", "network": "\u017dSR", "operator": "\u017dSR", "public_transport": "station", "railway": "station", "train": "yes"}}, {"type": "node", "id": 6627429382, "lat": 48.5092209, "lon": 17.0185429, "tags": {"name": "Ve\u013ek\u00e9 Lev\u00e1re", "network": "\u017dSR", "operator": "\u017dSR", "public_transport": "stop_position", "railway": "stop", "train": "yes"}}, {"type": "node", "id": 6627437401, "lat": 48.5092077, "lon": 17.0184818, "tags": {"name": "Ve\u013ek\u00e9 Lev\u00e1re", "network": "\u017dSR", "operator": "\u017dSR", "public_transport": "stop_position", "railway": "stop", "train": "yes"}}, {"type": "node", "id": 282377197, "lat": 48.5390775, "lon": 17.0077458, "tags": {"name": "Z\u00e1vod", "network": "\u017dSR", "operator": "\u017dSR", "public_transport": "stop_position", "railway": "stop", "train": "yes"}}, {"type": "node", "id": 3328568420, "lat": 48.5390745, "lon": 17.007708, "tags": {"name": "Z\u00e1vod", "network": "\u017dSR", "operator": "\u017dSR", "public_transport": "stop_position", "railway": "stop", "train": "yes"}}, {"type": "node", "id": 3334032454, "lat": 48.5390284, "lon": 17.0076939, "tags": {"addr:city": "Z\u00e1vod", "addr:postcode": "90872", "addr:street": "Sokolsk\u00e1", "name": "Z\u00e1vod", "network": "\u017dSR", "operator": "\u017dSR", "public_transport": "station", "railway": "station", "train": "yes"}}, {"type": "node", "id": 27275778, "lat": 48.5862432, "lon": 17.0086308, "tags": {"name": "Moravsk\u00fd Sv\u00e4t\u00fd J\u00e1n", "network": "\u017dSR", "operator": "\u017dSR", "public_transport": "stop_position", "railway": "stop", "train": "yes"}}, {"type": "node", "id": 2893302325, "lat": 48.5873706, "lon": 17.0090637, "tags": {"name": "Moravsk\u00fd Sv\u00e4t\u00fd J\u00e1n", "name:de": "St. Johann an der March", "name:hu": "Morvaszentj\u00e1nos", "name:sk": "Moravsk\u00fd Sv\u00e4t\u00fd J\u00e1n", "network": "\u017dSR", "operator": "\u017dSR", "public_transport": "stop_position", "railway": "stop", "train": "yes"}}, {"type": "node", "id": 3350963374, "lat": 48.587406, "lon": 17.0089201, "tags": {"name": "Moravsk\u00fd Sv\u00e4t\u00fd J\u00e1n", "name:de": "St. Johann an der March", "name:hu": "Morvaszentj\u00e1nos", "name:sk": "Moravsk\u00fd Sv\u00e4t\u00fd J\u00e1n", "network": "\u017dSR", "operator": "\u017dSR", "public_transport": "station", "railway": "station", "train": "yes"}}, {"type": "node", "id": 282377198, "lat": 48.6077391, "lon": 17.0190459, "tags": {"name": "Sekule", "name:de": "Sekeln", "network": "\u017dSR", "operator": "\u017dSR", "public_transport": "station", "railway": "station", "train": "yes", "wikidata": "Q22807285"}}, {"type": "node", "id": 3350963375, "lat": 48.6076457, "lon": 17.0190292, "tags": {"name": "Sekule", "name:de": "Sekeln", "network": "\u017dSR", "operator": "\u017dSR", "public_transport": "stop_position", "railway": "stop", "train": "yes"}}, {"type": "node", "id": 3350963376, "lat": 48.6076641, "lon": 17.0189661, "tags": {"name": "Sekule", "name:de": "Sekeln", "network": "\u017dSR", "operator": "\u017dSR", "public_transport": "stop_position", "railway": "stop", "train": "yes"}}, {"type": "node", "id": 6630756294, "lat": 48.6076844, "lon": 17.0189192, "tags": {"name": "Sekule", "network": "\u017dSR", "operator": "\u017dSR", "public_transport": "stop_position", "railway": "stop", "train": "yes"}}, {"type": "node", "id": 281692870, "lat": 48.6619086, "lon": 17.0475006, "tags": {"name": "K\u00faty", "network": "\u017dSR", "operator": "\u017dSR", "public_transport": "stop_position", "railway": "stop", "train": "yes"}}, {"type": "node", "id": 2794370379, "lat": 48.6619301, "lon": 17.047445, "tags": {"name": "K\u00faty", "network": "\u017dSR", "operator": "\u017dSR", "public_transport": "stop_position", "railway": "stop", "train": "yes"}}, {"type": "node", "id": 3350963373, "lat": 48.6619577, "lon": 17.0474958, "tags": {"name": "K\u00faty", "network": "\u017dSR", "operator": "\u017dSR", "public_transport": "station", "railway": "station", "train": "yes", "wikidata": "Q4851"}}, {"type": "node", "id": 3641581641, "lat": 48.6619498, "lon": 17.0473865, "tags": {"name": "K\u00faty", "network": "\u017dSR", "operator": "\u017dSR", "public_transport": "stop_position", "railway": "stop", "train": "yes"}}, {"type": "node", "id": 3641774003, "lat": 48.6618948, "lon": 17.0475655, "tags": {"name": "K\u00faty", "network": "\u017dSR", "operator": "\u017dSR", "public_transport": "stop_position", "railway": "stop", "train": "yes"}}, {"type": "node", "id": 3641795939, "lat": 48.6618762, "lon": 17.0476129, "tags": {"name": "K\u00faty", "network": "\u017dSR", "operator": "\u017dSR", "public_transport": "stop_position", "railway": "stop", "train": "yes"}}, {"type": "node", "id": 387185143, "lat": 48.6493944, "lon": 17.0696592, "tags": {"name": "Kuklov", "public_transport": "stop_position", "railway": "halt", "train": "yes"}}, {"type": "node", "id": 27026143, "lat": 48.6340166, "lon": 17.1421684, "tags": {"name": "\u0160a\u0161t\u00edn-Str\u00e1\u017ee", "public_transport": "station", "railway": "station", "train": "yes"}}, {"type": "node", "id": 30615059, "lat": 48.6423709, "lon": 17.1917819, "tags": {"name": "Borsk\u00fd Mikul\u00e1\u0161", "public_transport": "stop_position", "railway": "halt", "train": "yes"}}, {"type": "node", "id": 25904396, "lat": 48.267058, "lon": 17.2460911, "tags": {"name": "Pezinok zast\u00e1vka", "network": "\u017dSR;IDS BK", "operator": "\u017dSR", "public_transport": "stop_position", "train": "yes"}}, {"type": "node", "id": 3846992449, "lat": 48.2670393, "lon": 17.2461236, "tags": {"name": "Pezinok zast\u00e1vka", "network": "\u017dSR;IDS BK", "operator": "\u017dSR", "public_transport": "stop_position", "train": "yes"}}, {"type": "node", "id": 3846992450, "lat": 48.2673985, "lon": 17.2466263, "tags": {"name": "Pezinok zast\u00e1vka", "network": "\u017dSR;IDS BK", "operator": "\u017dSR", "public_transport": "station", "railway": "station"}}, {"type": "node", "id": 26512206, "lat": 48.2825826, "lon": 17.2707244, "tags": {"fare_zone": "530", "name": "Pezinok", "name:de": "B\u00f6sing", "name:hu": "Bazin", "name:la": "Bazinium", "name:ru": "\u041f\u0435\u0437\u0438\u043d\u043e\u043a", "network": "\u017dSR;IDS BK", "operator": "\u017dSR", "public_transport": "stop_position", "train": "yes"}}, {"type": "node", "id": 3846992448, "lat": 48.2825299, "lon": 17.2705455, "tags": {"fare_zone": "530", "name": "Pezinok", "network": "\u017dSR;IDS BK", "operator": "\u017dSR", "public_transport": "station", "railway": "station"}}, {"type": "node", "id": 3852205979, "lat": 48.2825436, "lon": 17.270758, "tags": {"fare_zone": "530", "name": "Pezinok", "name:de": "B\u00f6sing", "name:hu": "Bazin", "name:la": "Bazinium", "name:ru": "\u041f\u0435\u0437\u0438\u043d\u043e\u043a", "network": "\u017dSR;IDS BK", "operator": "\u017dSR", "public_transport": "stop_position", "train": "yes"}}, {"type": "node", "id": 6348160255, "lat": 48.2826235, "lon": 17.2706929, "tags": {"fare_zone": "530", "name": "Pezinok", "name:de": "B\u00f6sing", "name:hu": "Bazin", "name:la": "Bazinium", "name:ru": "\u041f\u0435\u0437\u0438\u043d\u043e\u043a", "network": "\u017dSR;IDS BK", "operator": "\u017dSR", "public_transport": "stop_position", "train": "yes"}}, {"type": "node", "id": 26502204, "lat": 48.301865, "lon": 17.3458465, "tags": {"name": "\u0160enkvice", "name:de": "Schenkwitz", "name:hu": "Senk\u0151c", "network": "\u017dSR;IDS BK", "operator": "\u017dSR", "public_transport": "stop_position", "train": "yes"}}, {"type": "node", "id": 3846993474, "lat": 48.3018886, "lon": 17.3458624, "tags": {"name": "\u0160enkvice", "name:de": "Schenkwitz", "name:hu": "Senk\u0151c", "network": "\u017dSR;IDS BK", "operator": "\u017dSR", "public_transport": "station", "railway": "station"}}, {"type": "node", "id": 4937046458, "lat": 48.301993, "lon": 17.3457867, "tags": {"name": "\u0160enkvice", "name:de": "Schenkwitz", "name:hu": "Senk\u0151c", "network": "\u017dSR;IDS BK", "operator": "\u017dSR", "public_transport": "stop_position", "train": "yes"}}, {"type": "node", "id": 4937046459, "lat": 48.3018024, "lon": 17.3458458, "tags": {"name": "\u0160enkvice", "name:de": "Schenkwitz", "name:hu": "Senk\u0151c", "network": "\u017dSR;IDS BK", "operator": "\u017dSR", "public_transport": "stop_position", "train": "yes"}}, {"type": "node", "id": 26502191, "lat": 48.3054216, "lon": 17.450061, "tags": {"name": "B\u00e1ho\u0148", "network": "\u017dSR;IDS BK", "operator": "\u017dSR", "public_transport": "stop_position", "train": "yes"}}, {"type": "node", "id": 3846992435, "lat": 48.305491, "lon": 17.4500505, "tags": {"area": "yes", "name": "B\u00e1ho\u0148", "network": "\u017dSR;IDS BK", "operator": "\u017dSR", "public_transport": "station", "railway": "station"}}, {"type": "node", "id": 4177603405, "lat": 48.3052469, "lon": 17.4495729, "tags": {"name": "B\u00e1ho\u0148", "network": "\u017dSR;IDS BK", "operator": "\u017dSR", "public_transport": "stop_position", "train": "yes"}}, {"type": "node", "id": 3846992436, "lat": 48.3228939, "lon": 17.4865681, "tags": {"name": "C\u00edfer", "network": "\u017dSR;IDS BK", "operator": "\u017dSR", "public_transport": "stop_position", "train": "yes"}}, {"type": "node", "id": 3846992437, "lat": 48.3229688, "lon": 17.4865678, "tags": {"name": "C\u00edfer", "network": "\u017dSR;IDS BK", "operator": "\u017dSR", "public_transport": "station", "railway": "station", "wikidata": "Q50194208"}}, {"type": "node", "id": 3846992438, "lat": 48.3229712, "lon": 17.4864561, "tags": {"name": "C\u00edfer", "network": "\u017dSR;IDS BK", "operator": "\u017dSR", "public_transport": "stop_position", "train": "yes"}}, {"type": "node", "id": 432804211, "lat": 48.3698052, "lon": 17.5851641, "tags": {"name": "Trnava", "name:de": "Tyrnau", "name:hu": "Nagyszombat", "name:la": "Tyrnavia", "name:pl": "Trnawa", "name:ru": "\u0422\u0440\u043d\u0430\u0432\u0430", "name:sr": "\u0422\u0440\u043d\u0430\u0432\u0430", "railway": "station", "wheelchair": "limited", "wikidata": "Q15057869"}}, {"type": "node", "id": 1437607660, "lat": 48.3697771, "lon": 17.5845889, "tags": {"name": "Trnava", "name:de": "Tyrnau", "name:hu": "Nagyszombat", "name:la": "Tyrnavia", "name:pl": "Trnawa", "name:ru": "\u0422\u0440\u043d\u0430\u0432\u0430", "name:sr": "\u0422\u0440\u043d\u0430\u0432\u0430", "network": "\u017dSR", "operator": "\u017dSR", "public_transport": "stop_position", "railway": "stop", "train": "yes"}}, {"type": "node", "id": 2009623555, "lat": 48.3697096, "lon": 17.5851127, "tags": {"name": "Trnava", "name:de": "Tyrnau", "name:hu": "Nagyszombat", "name:la": "Tyrnavia", "name:pl": "Trnawa", "name:ru": "\u0422\u0440\u043d\u0430\u0432\u0430", "name:sr": "\u0422\u0440\u043d\u0430\u0432\u0430", "network": "\u017dSR", "operator": "\u017dSR", "public_transport": "stop_position", "railway": "stop", "train": "yes"}}, {"type": "node", "id": 3641774043, "lat": 48.3696276, "lon": 17.5851683, "tags": {"name": "Trnava", "name:de": "Tyrnau", "name:hu": "Nagyszombat", "name:la": "Tyrnavia", "name:pl": "Trnawa", "name:ru": "\u0422\u0440\u043d\u0430\u0432\u0430", "name:sr": "\u0422\u0440\u043d\u0430\u0432\u0430", "network": "\u017dSR", "operator": "\u017dSR", "public_transport": "stop_position", "railway": "stop", "train": "yes"}}, {"type": "node", "id": 3641774044, "lat": 48.36971, "lon": 17.5846828, "tags": {"name": "Trnava", "name:de": "Tyrnau", "name:hu": "Nagyszombat", "name:la": "Tyrnavia", "name:pl": "Trnawa", "name:ru": "\u0422\u0440\u043d\u0430\u0432\u0430", "name:sr": "\u0422\u0440\u043d\u0430\u0432\u0430", "network": "\u017dSR", "operator": "\u017dSR", "public_transport": "stop_position", "railway": "stop", "train": "yes"}}, {"type": "node", "id": 3641774046, "lat": 48.3697745, "lon": 17.5841595, "tags": {"name": "Trnava", "name:de": "Tyrnau", "name:hu": "Nagyszombat", "name:la": "Tyrnavia", "name:pl": "Trnawa", "name:ru": "\u0422\u0440\u043d\u0430\u0432\u0430", "name:sr": "\u0422\u0440\u043d\u0430\u0432\u0430", "network": "\u017dSR", "operator": "\u017dSR", "public_transport": "stop_position", "railway": "stop", "train": "yes"}}, {"type": "node", "id": 3641774047, "lat": 48.369818, "lon": 17.5841297, "tags": {"name": "Trnava", "name:de": "Tyrnau", "name:hu": "Nagyszombat", "name:la": "Tyrnavia", "name:pl": "Trnawa", "name:ru": "\u0422\u0440\u043d\u0430\u0432\u0430", "name:sr": "\u0422\u0440\u043d\u0430\u0432\u0430", "network": "\u017dSR", "operator": "\u017dSR", "public_transport": "stop_position", "railway": "stop", "train": "yes"}}, {"type": "node", "id": 26502177, "lat": 48.3891625, "lon": 17.566807, "tags": {"name": "Trnava predm.", "public_transport": "stop_position", "railway": "halt", "train": "yes"}}, {"type": "node", "id": 3015141129, "lat": 48.4280148, "lon": 17.5373413, "tags": {"name": "\u0160elpice", "public_transport": "stop_position", "railway": "station", "train": "yes"}}, {"type": "node", "id": 30618579, "lat": 48.4515759, "lon": 17.5120656, "tags": {"name": "Kl\u010dovany", "public_transport": "stop_position", "railway": "halt", "train": "yes"}}, {"type": "node", "id": 276599292, "lat": 48.4711625, "lon": 17.2263311, "tags": {"name": "Solo\u0161nica", "name:de": "Breitenbrunn", "name:hu": "Sz\u00e9lesk\u00fat", "network": "\u017dSR", "operator": "\u017dSR", "public_transport": "stop_position", "railway": "stop", "train": "yes"}}, {"type": "node", "id": 242434963, "lat": 48.4829086, "lon": 17.250828, "tags": {"name": "Plaveck\u00e9 Podhradie", "network": "\u017dSR", "operator": "\u017dSR", "public_transport": "stop_position", "railway": "stop", "train": "yes"}}, {"type": "node", "id": 1918892381, "lat": 48.5190908, "lon": 17.2829753, "tags": {"name": "Plaveck\u00fd Mikul\u00e1\u0161", "railway": "station"}}, {"type": "node", "id": 569185322, "lat": 48.6599328, "lon": 17.2625729, "tags": {"name": "\u0160ajd\u00edkove Humence", "public_transport": "stop_position", "railway": "station", "train": "yes"}}, {"type": "node", "id": 261126017, "lat": 48.596695, "lon": 17.4034907, "tags": {"name": "Cerov\u00e1 - Lieskov\u00e9", "public_transport": "stop_position", "railway": "halt", "train": "yes"}}, {"type": "node", "id": 567538909, "lat": 48.6659057, "lon": 17.334246, "tags": {"name": "Senica", "name:de": "Senitz", "name:hu": "Szenice", "old_name:hu": "Szenic", "railway": "station"}}, {"type": "node", "id": 3776215193, "lat": 48.6655882, "lon": 17.3347199, "tags": {"name": "Senica", "public_transport": "stop_position", "railway": "halt", "train": "yes"}}, {"type": "node", "id": 1040818111, "lat": 48.4702065, "lon": 17.498476, "tags": {"name": "Boler\u00e1z", "public_transport": "stop_position", "railway": "station", "train": "yes"}}, {"type": "node", "id": 1040815419, "lat": 48.5012789, "lon": 17.4726516, "tags": {"name": "B\u00ed\u0148ovce", "public_transport": "stop_position", "railway": "halt", "train": "yes"}}, {"type": "node", "id": 30618602, "lat": 48.5203053, "lon": 17.455451, "tags": {"name": "Smolenice", "railway": "station"}}, {"type": "node", "id": 3015310010, "lat": 48.5202008, "lon": 17.4555123, "tags": {"name": "Smolenice", "public_transport": "stop_position", "railway": "halt", "train": "yes"}}, {"type": "node", "id": 3015310011, "lat": 48.520208, "lon": 17.4555529, "tags": {"name": "Smolenice", "public_transport": "stop_position", "railway": "halt", "train": "yes"}}, {"type": "node", "id": 30618613, "lat": 48.5519376, "lon": 17.4509557, "tags": {"name": "Bukov\u00e1", "public_transport": "stop_position", "railway": "station", "train": "yes"}}, {"type": "node", "id": 30618653, "lat": 48.6063062, "lon": 17.4096435, "tags": {"name": "Jablonica", "public_transport": "stop_position", "railway": "station", "train": "yes"}}, {"type": "node", "id": 278622623, "lat": 48.6517903, "lon": 17.5299761, "tags": {"name": "Brezov\u00e1 pod Bradlom", "railway": "station"}}, {"type": "node", "id": 281692869, "lat": 48.6926623, "lon": 17.0230923, "tags": {"name": "Brodsk\u00e9", "name:de": "Brodsko", "name:hu": "G\u00e1zl\u00f3s", "network": "\u017dSR", "operator": "\u017dSR", "public_transport": "stop_position", "train": "yes"}}, {"type": "node", "id": 2794370439, "lat": 48.6926449, "lon": 17.0230483, "tags": {"name": "Brodsk\u00e9", "name:de": "Brodsko", "name:hu": "G\u00e1zl\u00f3s", "network": "\u017dSR", "operator": "\u017dSR", "public_transport": "stop_position", "train": "yes", "wikidata": "Q53256110"}}, {"type": "node", "id": 3350963365, "lat": 48.6926583, "lon": 17.0230683, "tags": {"area": "yes", "name": "Brodsk\u00e9", "network": "\u017dSR", "operator": "\u017dSR", "public_transport": "station", "railway": "station"}}, {"type": "node", "id": 2491929922, "lat": 48.7112492, "lon": 17.0828589, "tags": {"name": "Gbely zast\u00e1vka", "network": "\u017dSR", "operator": "\u017dSR", "public_transport": "stop_position", "railway": "stop", "train": "yes"}}, {"type": "node", "id": 27135730, "lat": 48.7235539, "lon": 17.0910988, "tags": {"name": "Gbely", "network": "\u017dSR", "operator": "\u017dSR", "public_transport": "stop_position", "railway": "stop", "train": "yes"}}, {"type": "node", "id": 3350963369, "lat": 48.7235335, "lon": 17.0911835, "tags": {"name": "Gbely", "name:de": "Egbell", "name:hu": "Egbell", "network": "\u017dSR", "operator": "\u017dSR", "platforms": "4", "public_transport": "station", "railway": "station", "train": "yes", "wikidata": "Q55594244"}}, {"type": "node", "id": 3350963371, "lat": 48.7716863, "lon": 17.1213137, "tags": {"name": "Kop\u010dany", "network": "\u017dSR", "operator": "\u017dSR", "public_transport": "stop_position", "railway": "stop", "train": "yes"}}, {"type": "node", "id": 1914465005, "lat": 48.8146894, "lon": 17.149955, "tags": {"name": "Hol\u00ed\u010d nad Moravou", "network": "\u017dSR", "operator": "\u017dSR", "public_transport": "stop_position", "railway": "stop", "train": "yes"}}, {"type": "node", "id": 3350963370, "lat": 48.8146553, "lon": 17.1500662, "tags": {"name": "Hol\u00ed\u010d nad Moravou", "network": "\u017dSR", "operator": "\u017dSR", "public_transport": "stop_position", "railway": "stop", "train": "yes"}}, {"type": "node", "id": 6388664864, "lat": 48.8147144, "lon": 17.1500756, "tags": {"disused": "station", "name": "Hol\u00ed\u010d nad Moravou", "network": "\u017dSR", "operator": "\u017dSR", "public_transport": "station", "railway": "station", "wikidata": "Q58806972"}}, {"type": "node", "id": 2333182261, "lat": 48.8283348, "lon": 17.1776594, "tags": {"name": "K\u00e1tov", "network": "\u017dSR", "operator": "\u017dSR", "public_transport": "station", "railway": "station"}}, {"type": "node", "id": 3350963372, "lat": 48.8283812, "lon": 17.1776949, "tags": {"name": "K\u00e1tov", "network": "\u017dSR", "operator": "\u017dSR", "public_transport": "stop_position", "railway": "stop", "train": "yes"}}, {"type": "node", "id": 27135752, "lat": 48.8500315, "lon": 17.2184068, "tags": {"name": "Skalica na Slovensku", "name:de": "Skalitz", "name:hu": "Szakolca", "name:la": "Sakolcium", "name:ru": "\u0421\u043a\u0430\u043b\u0438\u0446\u0430", "network": "\u017dSR", "operator": "\u017dSR", "public_transport": "stop_position", "railway": "stop", "train": "yes"}}, {"type": "node", "id": 3350963377, "lat": 48.849886, "lon": 17.2182848, "tags": {"name": "Skalica na Slovensku", "network": "\u017dSR", "operator": "\u017dSR", "public_transport": "station", "railway": "station", "wikidata": "Q55443443"}}, {"type": "node", "id": 473481359, "lat": 48.763663, "lon": 17.5709962, "tags": {"name": "Myjava", "railway": "station", "wikidata": "Q61748124"}}, {"type": "node", "id": 280568755, "lat": 48.8244294, "lon": 17.5163501, "tags": {"name": "Vrbovce", "railway": "station", "wikidata": "Q67320992"}}, {"type": "node", "id": 473481526, "lat": 48.7760627, "lon": 17.6156971, "tags": {"name": "Poriadie", "railway": "station", "wikidata": "Q61748125"}}, {"type": "node", "id": 1384263718, "lat": 48.3302412, "lon": 17.6612017, "tags": {"name": "Kri\u017eovany nad Dudv\u00e1hom", "public_transport": "stop_position", "railway": "stop", "train": "yes"}}, {"type": "node", "id": 6793945399, "lat": 48.3302553, "lon": 17.6612164, "tags": {"name": "Kri\u017eovany nad Dudv\u00e1hom", "railway": "station"}}, {"type": "node", "id": 26546890, "lat": 48.2901412, "lon": 17.7269749, "tags": {"name": "Sere\u010f", "name:de": "Sereth", "name:hu": "Szered", "name:pl": "Sere\u010f", "public_transport": "stop_position", "railway": "stop", "train": "yes"}}, {"type": "node", "id": 6793945400, "lat": 48.2901323, "lon": 17.7268782, "tags": {"name": "Sere\u010f", "name:de": "Sereth", "name:hu": "Szered", "name:pl": "Sere\u010f", "railway": "station", "wikidata": "Q56102875"}}, {"type": "node", "id": 325586407, "lat": 48.3819976, "lon": 17.6912092, "tags": {"name": "Brestovany", "railway": "station"}}, {"type": "node", "id": 325586396, "lat": 48.4416698, "lon": 17.7585877, "tags": {"alt_name:de": "Leopoldstadt", "name": "Leopoldov", "name:de": "Leopold-Neustadtl", "public_transport": "stop_position", "railway": "station", "train": "yes", "wikidata": "Q15703303"}}, {"type": "node", "id": 26823556, "lat": 48.4334385, "lon": 17.8070117, "tags": {"name": "Hlohovec", "railway": "station", "wheelchair": "no"}}, {"type": "node", "id": 1174954327, "lat": 48.3518038, "lon": 18.0238625, "tags": {"name": "Lu\u017eianky", "public_transport": "stop_position", "railway": "stop", "train": "yes"}}, {"type": "node", "id": 3667792819, "lat": 48.3517786, "lon": 18.0238998, "tags": {"name": "Lu\u017eianky", "public_transport": "station", "railway": "station"}}, {"type": "node", "id": 482941326, "lat": 48.3869923, "lon": 17.867914, "tags": {"is_in": "K\u013ea\u010dany", "name": "K\u013ea\u010dany", "railway": "station"}}, {"type": "node", "id": 321855210, "lat": 48.3731589, "lon": 17.8903491, "tags": {"name": "Ri\u0161\u0148ovce", "railway": "station"}}, {"type": "node", "id": 321855493, "lat": 48.3636279, "lon": 17.943598, "tags": {"is_in": "Alek\u0161ince", "name": "Alek\u0161ince", "railway": "station"}}, {"type": "node", "id": 1291779474, "lat": 48.3810903, "lon": 17.9673296, "tags": {"int_name": "Anda\u010d", "name": "Anda\u010d", "railway": "station"}}, {"type": "node", "id": 1174954487, "lat": 48.3821019, "lon": 17.9998896, "tags": {"name": "Zbehy", "platforms": "3", "railway": "station"}}, {"type": "node", "id": 1174953881, "lat": 48.39287, "lon": 17.9972448, "tags": {"name": "\u010cab-Sila", "railway": "station"}}, {"type": "node", "id": 1174953923, "lat": 48.4053606, "lon": 17.9858073, "tags": {"name": "\u010cab-Sila zast\u00e1vka", "railway": "station"}}, {"type": "node", "id": 1174954402, "lat": 48.414444, "lon": 17.9799064, "tags": {"name": "Nov\u00e9 Sady", "railway": "station"}}, {"type": "node", "id": 1174953520, "lat": 48.4473969, "lon": 17.9813815, "tags": {"name": "Kapince", "railway": "station"}}, {"type": "node", "id": 4759561100, "lat": 48.5962973, "lon": 17.8147647, "tags": {"alt_name:de": "Pistian", "name": "Pie\u0161\u0165any", "name:de": "Pistyan", "name:hu": "P\u00f6sty\u00e9n", "name:pl": "Pieszczany", "name:ru": "\u041f\u044c\u0435\u0448\u0442\u044f\u043d\u044b", "public_transport": "station", "railway": "station", "train": "yes", "wheelchair": "yes", "wikidata": "Q15631059", "wikipedia": "sk:\u017delezni\u010dn\u00e1 stanica Pie\u0161\u0165any"}}, {"type": "node", "id": 7769771417, "lat": 48.5962665, "lon": 17.814858, "tags": {"alt_name:de": "Pistian", "name": "Pie\u0161\u0165any", "name:de": "Pistyan", "name:hu": "P\u00f6sty\u00e9n", "name:pl": "Pieszczany", "name:ru": "\u041f\u044c\u0435\u0448\u0442\u044f\u043d\u044b", "public_transport": "stop_position", "railway": "stop", "train": "yes"}}, {"type": "node", "id": 8442489298, "lat": 48.596288, "lon": 17.8147964, "tags": {"alt_name:de": "Pistian", "name": "Pie\u0161\u0165any", "name:de": "Pistyan", "name:hu": "P\u00f6sty\u00e9n", "name:pl": "Pieszczany", "name:ru": "\u041f\u044c\u0435\u0448\u0442\u044f\u043d\u044b", "public_transport": "stop_position", "railway": "stop", "train": "yes"}}, {"type": "node", "id": 205287986, "lat": 48.5000729, "lon": 17.9817451, "tags": {"name": "Ve\u013ek\u00e9 Rip\u0148any", "railway": "station"}}, {"type": "node", "id": 1174954145, "lat": 48.5465853, "lon": 17.9414819, "tags": {"name": "Rado\u0161ina", "railway": "station", "wheelchair": "no"}}, {"type": "node", "id": 395698852, "lat": 48.6514285, "lon": 17.8361762, "tags": {"name": "Horn\u00e1 Streda", "railway": "station"}}, {"type": "node", "id": 4759561085, "lat": 48.6514191, "lon": 17.8362305, "tags": {"name": "Horn\u00e1 Streda", "railway": "station"}}, {"type": "node", "id": 7066101885, "lat": 48.301489, "lon": 18.0792408, "tags": {"name": "Nitra", "operator": "\u017dSR", "railway": "station"}}, {"type": "node", "id": 1678847922, "lat": 48.3117817, "lon": 18.0567496, "tags": {"name": "Nitra zast\u00e1vka", "railway": "station"}}, {"type": "node", "id": 1814703888, "lat": 48.3251914, "lon": 18.0398281, "tags": {"name": "Mlyn\u00e1rce", "public_transport": "stop_position", "railway": "stop", "train": "yes"}}, {"type": "node", "id": 481258301, "lat": 48.3579943, "lon": 18.0547798, "tags": {"name": "Dra\u017eovce", "railway": "station"}}, {"type": "node", "id": 1174953686, "lat": 48.3836715, "lon": 18.052764, "tags": {"name": "Jel\u0161ovce", "railway": "station"}}, {"type": "node", "id": 3324860220, "lat": 48.3718443, "lon": 18.1159982, "tags": {"name": "Podhorany", "public_transport": "stop_position", "train": "yes"}}, {"type": "node", "id": 1828757731, "lat": 48.3826784, "lon": 18.1697348, "tags": {"name": "\u017dirany", "railway": "station"}}, {"type": "node", "id": 441721022, "lat": 48.3738744, "lon": 18.2383729, "tags": {"name": "Jelenec", "railway": "station"}}, {"type": "node", "id": 3324944468, "lat": 48.2545202, "lon": 18.3006927, "tags": {"name": "Vr\u00e1ble", "name:hu": "Vereb\u00e9ly", "public_transport": "stop_position", "railway": "station", "train": "yes"}}, {"type": "node", "id": 3324904220, "lat": 48.2923508, "lon": 18.3210386, "tags": {"name": "Nov\u00e1 Ves nad \u017ditavou", "name:hu": "Zsitva\u00fajfalu", "public_transport": "stop_position", "railway": "halt", "train": "yes"}}, {"type": "node", "id": 3324904221, "lat": 48.3160898, "lon": 18.3414315, "tags": {"name": "Slep\u010dany", "name:hu": "Szelepcs\u00e9ny", "public_transport": "stop_position", "railway": "halt", "train": "yes"}}, {"type": "node", "id": 3324944467, "lat": 48.3431264, "lon": 18.3594622, "tags": {"name": "Tes\u00e1rske Mly\u0148any", "name:hu": "Tasz\u00e1rmalonya", "public_transport": "stop_position", "railway": "station", "train": "yes"}}, {"type": "node", "id": 604236605, "lat": 48.3796593, "lon": 18.266616, "tags": {"name": "Ladice", "railway": "station"}}, {"type": "node", "id": 1836978682, "lat": 48.3795861, "lon": 18.3119046, "tags": {"name": "Sla\u017eany", "railway": "station"}}, {"type": "node", "id": 1828665125, "lat": 48.3860305, "lon": 18.3765291, "tags": {"name": "Zlat\u00e9 Moravce", "name:hu": "Aranyosmar\u00f3t", "public_transport": "stop_position", "railway": "station", "train": "yes"}}, {"type": "node", "id": 1828665118, "lat": 48.3625627, "lon": 18.4239576, "tags": {"name": "Zlat\u00e9 Moravce - Pr\u00edlepy", "railway": "station"}}, {"type": "node", "id": 1828665119, "lat": 48.3970246, "lon": 18.4026581, "tags": {"name": "Zlat\u00e9 Moravce z\u00e1vody", "railway": "station"}}, {"type": "node", "id": 1768614983, "lat": 48.4119803, "lon": 18.4069139, "tags": {"name": "Topo\u013e\u010dianky", "railway": "station"}}, {"type": "node", "id": 7767784188, "lat": 48.5042748, "lon": 18.1188421, "tags": {"name": "Ludanice", "public_transport": "station", "railway": "station"}}, {"type": "node", "id": 5366254620, "lat": 48.5625616, "lon": 18.1695519, "tags": {"name": "Topo\u013e\u010dany", "public_transport": "station", "railway": "station", "train": "yes"}}, {"type": "node", "id": 2694357126, "lat": 48.592962, "lon": 18.241916, "tags": {"name": "Bo\u0161any", "railway": "station"}}, {"type": "node", "id": 702384342, "lat": 48.6080263, "lon": 18.2753171, "tags": {"name": "Chynorany", "railway": "station", "source": "kapor2"}}, {"type": "node", "id": 2293679094, "lat": 48.6174823, "lon": 18.2995486, "tags": {"name": "\u017dabokreky nad Nitrou", "railway": "station"}}, {"type": "node", "id": 5743856155, "lat": 48.6697759, "lon": 18.2612826, "tags": {"name": "Rybany", "public_transport": "station", "railway": "station", "train": "yes"}}, {"type": "node", "id": 617993225, "lat": 48.6246862, "lon": 18.3496911, "tags": {"name": "Ve\u013ek\u00e9 Bielice", "public_transport": "station", "railway": "station", "wheelchair": "limited"}}, {"type": "node", "id": 7371960355, "lat": 48.6254252, "lon": 18.4246985, "tags": {"name": "Ve\u013ek\u00e9 Uherce", "public_transport": "station", "railway": "station"}}, {"type": "node", "id": 473481521, "lat": 48.7731784, "lon": 17.7003709, "tags": {"name": "Star\u00e1 Tur\u00e1", "railway": "station", "wikidata": "Q61728302"}}, {"type": "node", "id": 1351232125, "lat": 48.7215125, "lon": 17.7988322, "tags": {"name": "\u010cachtice", "railway": "station", "wikidata": "Q61748127"}}, {"type": "node", "id": 637319523, "lat": 48.7310977, "lon": 17.7246684, "tags": {"name": "Va\u010fovce", "railway": "station", "wikidata": "Q61951469"}}, {"type": "node", "id": 473481467, "lat": 48.7806242, "lon": 17.6438356, "tags": {"name": "Paprad", "railway": "station"}}, {"type": "node", "id": 26727211, "lat": 48.751491, "lon": 17.8361, "tags": {"name": "Nov\u00e9 Mesto nad V\u00e1hom", "name:de": "Neustadt an der Waag", "name:hu": "V\u00e1g\u00fajhely", "name:sk": "Nov\u00e9 Mesto nad V\u00e1hom", "public_transport": "stop_position", "railway": "station", "train": "yes", "wheelchair": "yes", "wikidata": "Q39772348"}}, {"type": "node", "id": 26727213, "lat": 48.8017168, "lon": 17.8739792, "tags": {"name": "Tren\u010dianske Bohuslavice", "railway": "station"}}, {"type": "node", "id": 4761786774, "lat": 48.8017429, "lon": 17.8739277, "tags": {"name": "Tren\u010dianske Bohuslavice", "railway": "station"}}, {"type": "node", "id": 26727212, "lat": 48.8368812, "lon": 17.9194802, "tags": {"name": "Mel\u010dice", "railway": "station"}}, {"type": "node", "id": 4761786766, "lat": 48.836908, "lon": 17.919443, "tags": {"name": "Mel\u010dice", "railway": "station"}}, {"type": "node", "id": 3174663576, "lat": 48.8782479, "lon": 17.9760012, "tags": {"name": "Kostoln\u00e1-Z\u00e1rie\u010die", "railway": "station"}}, {"type": "node", "id": 4761786737, "lat": 48.8782684, "lon": 17.9759544, "tags": {"name": "Kostoln\u00e1-Z\u00e1rie\u010die", "railway": "station"}}, {"type": "node", "id": 1560167807, "lat": 48.8588179, "lon": 18.0194668, "tags": {"name": "Tren\u010dianska Turn\u00e1", "railway": "station"}}, {"type": "node", "id": 26726672, "lat": 48.9006599, "lon": 18.0225144, "tags": {"name": "Tren\u010d\u00edn-Zlatovce", "railway": "station", "wikidata": "Q61951468"}}, {"type": "node", "id": 1560203766, "lat": 48.7480926, "lon": 18.197508, "tags": {"name": "Ruskovce", "railway": "station"}}, {"type": "node", "id": 1560203755, "lat": 48.7371662, "lon": 18.2326062, "tags": {"name": "Horn\u00e9 Ozorovce", "railway": "station"}}, {"type": "node", "id": 1560203761, "lat": 48.8132072, "lon": 18.0873611, "tags": {"name": "Mn\u00edchova Lehota", "railway": "station"}}, {"type": "node", "id": 614207657, "lat": 48.8008589, "lon": 18.1190524, "tags": {"name": "Tren\u010dianske Jastrabie", "public_transport": "station", "railway": "station", "train": "yes"}}, {"type": "node", "id": 990186563, "lat": 48.7810743, "lon": 18.1721582, "tags": {"name": "Svinn\u00e1", "railway": "station"}}, {"type": "node", "id": 1560217179, "lat": 48.690449, "lon": 18.2487126, "tags": {"name": "Doln\u00e9 Na\u0161tice", "railway": "station"}}, {"type": "node", "id": 1560203739, "lat": 48.7202061, "lon": 18.251339, "tags": {"name": "B\u00e1novce nad Bebravou", "name:de": "Banowitz", "name:hu": "B\u00e1n", "railway": "station"}}, {"type": "node", "id": 1911997558, "lat": 48.896631, "lon": 18.0517678, "tags": {"name": "Tren\u010d\u00edn", "name:de": "Trentschin", "name:hu": "Trencs\u00e9n", "name:la": "Trentsinium;Laugaricio", "name:ru": "\u0422\u0440\u0435\u043d\u0447\u0438\u043d", "name:sr": "\u0422\u0440\u0435\u043d\u0447\u0438\u043d", "public_transport": "station", "railway": "station", "train": "yes", "wikidata": "Q9361479"}}, {"type": "node", "id": 8429075778, "lat": 48.8966078, "lon": 18.0517669, "tags": {"name": "Tren\u010d\u00edn", "name:de": "Trentschin", "name:hu": "Trencs\u00e9n", "name:la": "Trentsinium;Laugaricio", "name:ru": "\u0422\u0440\u0435\u043d\u0447\u0438\u043d", "name:sr": "\u0422\u0440\u0435\u043d\u0447\u0438\u043d", "public_transport": "stop_position", "railway": "stop", "train": "yes"}}, {"type": "node", "id": 206244063, "lat": 48.9376155, "lon": 18.1135922, "tags": {"name": "Tren\u010dianska Tepl\u00e1", "platforms": "2", "public_transport": "stop_position", "railway": "station", "train": "yes", "wikidata": "Q15057882"}}, {"type": "node", "id": 1560394861, "lat": 48.9677329, "lon": 18.121801, "tags": {"name": "Nem\u0161ov\u00e1", "railway": "station"}}, {"type": "node", "id": 829506043, "lat": 48.9101733, "lon": 18.1705817, "tags": {"alt_name:de": "Trentschiner Bad", "name": "Tren\u010dianske Teplice", "name:de": "Trentschin-Teplitz", "name:hu": "Trencs\u00e9nteplic", "railway": "station"}}, {"type": "node", "id": 431624808, "lat": 48.966236, "lon": 18.1676051, "tags": {"name": "Dubnica nad V\u00e1hom", "railway": "station"}}, {"type": "node", "id": 431626390, "lat": 49.0020229, "lon": 18.2362025, "tags": {"name": "Ilava", "name:de": "Illau", "name:hu": "Illava", "railway": "station", "wikidata": "Q55443441"}}, {"type": "node", "id": 442710420, "lat": 49.0341342, "lon": 18.2902995, "tags": {"name": "Ladce", "railway": "station"}}, {"type": "node", "id": 1914720420, "lat": 49.070457, "lon": 18.2841199, "tags": {"name": "Lednick\u00e9 Rovne", "railway": "station", "wikidata": "Q86257071"}}, {"type": "node", "id": 3057990394, "lat": 49.0633912, "lon": 18.3201541, "tags": {"name": "Belu\u0161a", "name:de": "Bellusch", "name:hu": "Bellus", "railway": "station"}}, {"type": "node", "id": 2281250494, "lat": 49.1911853, "lon": 18.2278694, "tags": {"name": "L\u00faky pod Makytou", "railway": "station"}}, {"type": "node", "id": 2281250492, "lat": 49.1953443, "lon": 18.1961999, "tags": {"name": "Lys\u00e1 pod Makytou", "railway": "station"}}, {"type": "node", "id": 2281250497, "lat": 49.107434, "lon": 18.3169694, "tags": {"name": "P\u00fachov z\u00e1vody", "network": "\u017dSR", "operator": "ZSSK", "public_transport": "station", "railway": "station"}}, {"type": "node", "id": 366036951, "lat": 49.1137422, "lon": 18.3272612, "tags": {"name": "P\u00fachov", "railway": "station", "wikidata": "Q15057870"}}, {"type": "node", "id": 2277435526, "lat": 49.1456601, "lon": 18.2871954, "tags": {"name": "Doh\u0148any", "railway": "station"}}, {"type": "node", "id": 2169181937, "lat": 49.1771166, "lon": 18.2524167, "tags": {"name": "Z\u00e1rie\u010die", "railway": "station"}}, {"type": "node", "id": 7913371561, "lat": 49.1332866, "lon": 18.3541952, "tags": {"name": "Nosice", "public_transport": "stop_position", "railway": "stop", "ref": "2", "train": "yes"}}, {"type": "node", "id": 7918122821, "lat": 49.1332245, "lon": 18.354193, "tags": {"name": "Nosice", "public_transport": "stop_position", "railway": "stop", "ref": "1", "train": "yes"}}, {"type": "node", "id": 206244706, "lat": 49.1228435, "lon": 18.4313705, "tags": {"name": "Pova\u017esk\u00e1 Bystrica", "network": "\u017dSR", "operator": "ZSSK", "platforms": "2", "public_transport": "station", "railway": "station", "train": "yes"}}, {"type": "node", "id": 563298344, "lat": 48.2898902, "lon": 18.5410864, "tags": {"name": "Tlma\u010de", "public_transport": "station", "railway": "station", "train": "yes"}}, {"type": "node", "id": 1828665117, "lat": 48.3468896, "lon": 18.4624005, "tags": {"name": "Volkovce", "railway": "station"}}, {"type": "node", "id": 563298349, "lat": 48.310765, "lon": 18.5362134, "tags": {"name": "Koz\u00e1rovce", "railway": "station"}}, {"type": "node", "id": 27318508, "lat": 48.4137872, "lon": 18.6486378, "tags": {"name": "Nov\u00e1 Ba\u0148a", "railway": "station"}}, {"type": "node", "id": 990183222, "lat": 48.6413684, "lon": 18.4642547, "tags": {"name": "Oslany", "railway": "station"}}, {"type": "node", "id": 27318549, "lat": 48.4859197, "lon": 18.7281225, "tags": {"name": "\u017darnovica", "railway": "station", "wikidata": "Q66900037"}}, {"type": "node", "id": 27318671, "lat": 48.5786846, "lon": 18.8708123, "tags": {"name": "\u017diar nad Hronom", "name:de": "Heiligenkreuz an der Gran", "railway": "station"}}, {"type": "node", "id": 527380938, "lat": 48.2800074, "lon": 18.9930286, "tags": {"name": "Hontianske Nemce", "railway": "station", "railway:position:exact": "29.829", "uic_ref": "5614683"}}, {"type": "node", "id": 6588759042, "lat": 48.3464378, "lon": 19.0686515, "tags": {"name": "Krupina", "public_transport": "stop_position", "railway": "station", "railway:position:exact": "33.792", "train": "yes", "uic_ref": "5614713"}}, {"type": "node", "id": 561515926, "lat": 48.4439923, "lon": 18.9155102, "tags": {"alt_name:de": "Schebnitz", "name": "Bansk\u00e1 \u0160tiavnica", "name:de": "Schemnitz", "name:hu": "Selmecb\u00e1nya", "name:ru": "\u0411\u0430\u043d\u0441\u043a\u0430 \u0428\u0442\u044c\u044f\u0432\u043d\u0438\u0446\u0430", "railway": "station", "railway:position:exact": "19.731", "uic_ref": "5614623"}}, {"type": "node", "id": 429296471, "lat": 48.4276025, "lon": 19.1369194, "tags": {"name": "S\u00e1sa-Plie\u0161ovce", "railway": "station", "railway:position:exact": "19.430", "uic_ref": "5614753", "wikidata": "Q97209277"}}, {"type": "node", "id": 561516079, "lat": 48.4732668, "lon": 18.9478469, "tags": {"name": "Bansk\u00e1 Bel\u00e1", "railway": "station", "railway:position:exact": "15.154", "uic_ref": "5614603"}}, {"type": "node", "id": 561516336, "lat": 48.5156728, "lon": 19.0048323, "tags": {"name": "Kozeln\u00edk", "railway": "station", "railway:position:exact": "7.866", "uic_ref": "5614613"}}, {"type": "node", "id": 828149143, "lat": 48.6372632, "lon": 18.9119107, "tags": {"name": "Barto\u0161ova Leh\u00f4tka", "railway": "station", "railway:position:exact": "241.668", "uic_ref": "5613153"}}, {"type": "node", "id": 246660165, "lat": 48.576314, "lon": 18.9898495, "tags": {"name": "Hronsk\u00e1 D\u00fabrava", "railway": "station", "railway:position:exact": "226.877", "toilets:wheelchair": "no", "uic_ref": "5613183", "wheelchair": "no", "wikidata": "Q28597439"}}, {"type": "node", "id": 1403132243, "lat": 48.4807403, "lon": 19.1019966, "tags": {"name": "Dobr\u00e1 Niva", "railway": "station", "railway:position:exact": "12.224", "uic_ref": "5614773", "wikidata": "Q97209262"}}, {"type": "node", "id": 84489835, "lat": 48.5588814, "lon": 19.2607777, "tags": {"name": "Zvolensk\u00e1 Slatina", "railway": "station"}}, {"type": "node", "id": 2506859179, "lat": 48.5541355, "lon": 19.2827727, "tags": {"name": "V\u00edg\u013ea\u0161", "railway": "station"}}, {"type": "node", "id": 4291282862, "lat": 48.569517, "lon": 19.1207712, "tags": {"public_transport": "stop_position", "train": "yes"}}, {"type": "node", "id": 4291282863, "lat": 48.5696011, "lon": 19.1206726, "tags": {"public_transport": "stop_position", "train": "yes"}}, {"type": "node", "id": 4291282864, "lat": 48.5694874, "lon": 19.1208065, "tags": {"public_transport": "stop_position", "train": "yes"}}, {"type": "node", "id": 4291282865, "lat": 48.56939, "lon": 19.1209091, "tags": {"public_transport": "stop_position", "train": "yes"}}, {"type": "node", "id": 4291282866, "lat": 48.5692858, "lon": 19.1210244, "tags": {"public_transport": "stop_position", "train": "yes"}}, {"type": "node", "id": 4291282867, "lat": 48.5691879, "lon": 19.1211346, "tags": {"public_transport": "stop_position", "train": "yes"}}, {"type": "node", "id": 8012721730, "lat": 48.569687, "lon": 19.1205706, "tags": {"alt_name": "Zvolen - osobn\u00e1 stanica;Zvolen - os.st.", "loc_name": "Zolyom;Zwolen;Zwole\u0144", "name": "Zvolen osobn\u00e1 stanica", "name:de": "Altsohl", "name:hu": "Z\u00f3lyom", "name:la": "Veterosolium", "name:ru": "\u0417\u0432\u043e\u043b\u0435\u043d", "railway": "station", "railway:ref": "Zv", "wheelchair": "yes", "wikidata": "Q8075566"}}, {"type": "node", "id": 84491707, "lat": 48.5727698, "lon": 19.1430938, "tags": {"name": "Zvolen n\u00e1kladn\u00e1 stanica", "railway": "station"}}, {"type": "node", "id": 84505747, "lat": 48.6142013, "lon": 19.1495113, "tags": {"name": "Slia\u010d-k\u00fapele", "railway": "station", "railway:position:exact": "5.885", "uic_ref": "5613443"}}, {"type": "node", "id": 84505762, "lat": 48.6694291, "lon": 19.1494081, "tags": {"name": "Vlkanov\u00e1", "railway": "station", "railway:position:exact": "12.231", "uic_ref": "5613423"}}, {"type": "node", "id": 446101163, "lat": 48.6845272, "lon": 18.5192932, "tags": {"is_in": "Zemianske Kosto\u013eany", "name": "Zemianske Kosto\u013eany", "railway": "station"}}, {"type": "node", "id": 356178089, "lat": 48.7182834, "lon": 18.5363691, "tags": {"name": "Nov\u00e1ky", "railway": "station"}}, {"type": "node", "id": 2384791118, "lat": 48.7485967, "lon": 18.5739918, "tags": {"name": "Ko\u0161", "railway": "station"}}, {"type": "node", "id": 5878712864, "lat": 48.7746363, "lon": 18.6166112, "tags": {"name": "Prievidza", "name:de": "Priwitz", "railway": "station", "wikidata": "Q15631068"}}, {"type": "node", "id": 447855974, "lat": 48.8641917, "lon": 18.634473, "tags": {"name": "Nitrianske Pravno", "name:de": "Deutsch Proben", "name:hu": "N\u00e9metpr\u00f3na", "name:sk": "Nitrianske Pravno", "railway": "station", "wikidata": "Q15712554"}}, {"type": "node", "id": 307439585, "lat": 48.7255283, "lon": 18.7541486, "tags": {"name": "Handlov\u00e1", "name:de": "Krickerhau", "name:hu": "Nyitrab\u00e1nya", "railway": "station"}}, {"type": "node", "id": 413111313, "lat": 48.7782002, "lon": 18.7122434, "tags": {"name": "Chrenovec", "railway": "station"}}, {"type": "node", "id": 472955828, "lat": 48.7827599, "lon": 18.8423365, "tags": {"name": "Sklen\u00e9 pri Handlovej", "railway": "station"}}, {"type": "node", "id": 455084858, "lat": 48.8761146, "lon": 18.8504935, "tags": {"name": "Diviaky", "railway": "station", "railway:position:exact": "283.029", "uic_ref": "5613053"}}, {"type": "node", "id": 408541630, "lat": 48.6974277, "lon": 18.9240982, "tags": {"name": "Kremnica", "name:de": "Kremnitz", "railway": "station", "railway:position:exact": "253.068", "uic_ref": "5613123"}}, {"type": "node", "id": 356610538, "lat": 48.7428973, "lon": 18.9027687, "tags": {"name": "Kremnick\u00e9 Bane", "railway": "station", "railway:position:exact": "262.499", "uic_ref": "5613133"}}, {"type": "node", "id": 272487293, "lat": 48.7927827, "lon": 18.881655, "tags": {"name": "Horn\u00e1 \u0160tub\u0148a", "railway": "station", "railway:position:exact": "273.112", "uic_ref": "5613093", "wikidata": "Q65782945"}}, {"type": "node", "id": 455085135, "lat": 48.8399422, "lon": 18.9510642, "tags": {"name": "\u010cremo\u0161n\u00e9", "railway": "station", "railway:position:exact": "32.965", "uic_ref": "5613283"}}, {"type": "node", "id": 455085868, "lat": 48.8227434, "lon": 19.0341282, "tags": {"name": "Harmanec jasky\u0148a", "railway": "station", "railway:position:exact": "26.329", "uic_ref": "5613303"}}, {"type": "node", "id": 27320254, "lat": 48.7165483, "lon": 19.1407594, "tags": {"alt_name:de": "Radwan", "name": "Radva\u0148", "name:de": "Burgst\u00e4dtl", "railway": "station", "railway:position:exact": "17.918", "uic_ref": "5613403", "wikidata": "Q62576950"}}, {"type": "node", "id": 8012637130, "lat": 48.7347481, "lon": 19.1627072, "tags": {"name": "Bansk\u00e1 Bystrica", "name:de": "Neusohl", "name:hu": "Beszterceb\u00e1nya", "name:la": "Neosolium", "name:pl": "Ba\u0144ska Bystrzyca", "name:ru": "\u0411\u0430\u043d\u0441\u043a\u0430-\u0411\u0438\u0441\u0442\u0440\u0438\u0446\u0430", "name:sk": "Bansk\u00e1 Bystrica", "name:sr": "\u0411\u0430\u043d\u0441\u043a\u0430 \u0411\u0438\u0441\u0442\u0440\u0438\u0446\u0430", "old_name": "Ba\u0148sk\u00e1 Bystrica", "railway": "station", "railway:position:exact": "21.371", "railway:ref": "BB", "toilets:wheelchair": "yes", "uic_ref": "5613363", "wheelchair": "limited", "wikidata": "Q4857149"}}, {"type": "node", "id": 277670185, "lat": 48.7573912, "lon": 19.145086, "tags": {"name": "Kostiviarska", "railway": "station", "railway:position:exact": "5.384", "uic_ref": "5613353"}}, {"type": "node", "id": 85126542, "lat": 48.7629419, "lon": 19.2765289, "tags": {"name": "Slovensk\u00e1 \u013dup\u010da", "railway": "station", "wikidata": "Q65162894"}}, {"type": "node", "id": 455085414, "lat": 48.8015776, "lon": 19.0995824, "tags": {"name": "U\u013eanka", "railway": "station", "railway:position:exact": "11.972", "uic_ref": "5613333"}}, {"type": "node", "id": 30727710, "lat": 48.9937085, "lon": 18.8796452, "tags": {"name": "Pr\u00edbovce-Rakovo", "railway": "station", "railway:position:exact": "297.042", "uic_ref": "5613033"}}, {"type": "node", "id": 455084798, "lat": 49.0650274, "lon": 18.9154455, "tags": {"name": "Martin", "railway": "station", "railway:position:exact": "305.490", "uic_ref": "5613013"}}, {"type": "node", "id": 8294228024, "lat": 48.3359937, "lon": 19.667624, "tags": {"name": "Lu\u010denec", "name:de": "Lizenz", "name:hu": "Losonc", "name:ru": "\u041b\u0443\u0447\u0435\u043d\u0435\u0446", "railway": "station", "railway:position:exact": "161.755", "uic_ref": "5613613", "wikidata": "Q31093504"}}, {"type": "node", "id": 83402482, "lat": 48.4053658, "lon": 19.5997786, "tags": {"name": "Podre\u010dany", "railway": "station"}}, {"type": "node", "id": 8173618305, "lat": 48.4447186, "lon": 19.5751154, "tags": {"name": "Lovinoba\u0148a", "railway": "station"}}, {"type": "node", "id": 27069282, "lat": 48.3694117, "lon": 19.6266908, "tags": {"created_by": "JOSM", "name": "Tom\u00e1\u0161ovce", "railway": "station"}}, {"type": "node", "id": 27319280, "lat": 48.553319, "lon": 19.3127009, "tags": {"name": "Pstru\u0161a", "railway": "station"}}, {"type": "node", "id": 7182818018, "lat": 48.5533599, "lon": 19.312453, "tags": {"name": "Pstru\u0161a", "public_transport": "stop_position", "railway": "stop", "train": "yes", "wikidata": "Q34131589"}}, {"type": "node", "id": 83488878, "lat": 48.5381669, "lon": 19.3585532, "tags": {"name": "Sto\u017eok", "railway": "station", "wikidata": "Q34131707"}}, {"type": "node", "id": 83456594, "lat": 48.5285285, "lon": 19.4457419, "tags": {"name": "Kriv\u00e1\u0148", "railway": "station", "toilets:wheelchair": "no", "wheelchair": "no"}}, {"type": "node", "id": 27319328, "lat": 48.5163415, "lon": 19.4670049, "tags": {"name": "Podkriv\u00e1\u0148", "railway": "station"}}, {"type": "node", "id": 83416785, "lat": 48.4658849, "lon": 19.5474331, "tags": {"name": "M\u00fdtna", "railway": "station"}}, {"type": "node", "id": 73307006, "lat": 48.2970453, "lon": 19.7911713, "tags": {"name": "Pr\u0161a", "railway": "station", "railway:position:exact": "151.239", "uic_ref": "5613713"}}, {"type": "node", "id": 384249646, "lat": 48.2662418, "lon": 19.8325227, "tags": {"loc_name": "Fulek,F\u00fclek", "name": "Fi\u013eakovo", "name:de": "Fileck", "name:hu": "F\u00fclek", "name:ru": "\u0424\u0438\u043b\u044f\u043a\u043e\u0432\u043e", "railway": "station", "railway:position:exact": "146.309", "uic_ref": "5613693"}}, {"type": "node", "id": 59632354, "lat": 48.4232067, "lon": 19.7398487, "tags": {"name": "Brezni\u010dka", "railway": "station", "railway:position:exact": "13.048", "uic_ref": "5614833"}}, {"type": "node", "id": 59642867, "lat": 48.4286491, "lon": 19.7953758, "tags": {"name": "Polt\u00e1r", "railway": "station", "railway:position:exact": "18.642", "uic_ref": "5614893"}}, {"type": "node", "id": 62373883, "lat": 48.2771625, "lon": 19.9551062, "tags": {"name": "Blhovce", "railway": "station", "railway:position:exact": "75.422", "uic_ref": "5613783"}}, {"type": "node", "id": 73396490, "lat": 48.2963465, "lon": 19.9797821, "tags": {"name": "Hodejov", "railway": "station", "railway:position:exact": "72.221", "uic_ref": "5613793"}}, {"type": "node", "id": 73438863, "lat": 48.299622, "lon": 20.0619708, "tags": {"name": "Jesensk\u00e9", "railway": "station", "railway:position:exact": "65.968", "uic_ref": "5613803", "wikidata": "Q35147117"}}, {"type": "node", "id": 73457415, "lat": 48.3370808, "lon": 20.0569362, "tags": {"name": "Rimavsk\u00e9 Janovce obec", "railway": "station"}}, {"type": "node", "id": 81252701, "lat": 48.4531185, "lon": 19.9675928, "tags": {"name": "Ni\u017en\u00fd Sk\u00e1lnik", "railway": "station"}}, {"type": "node", "id": 81252350, "lat": 48.4129548, "lon": 19.9894665, "tags": {"name": "\u010ceren\u010dany", "railway": "station"}}, {"type": "node", "id": 73439138, "lat": 48.3851445, "lon": 20.0285976, "tags": {"name": "Rimavsk\u00e1 Sobota", "name:de": "Gro\u00dfsteffelsdorf", "name:hu": "Rimaszombat", "name:pl": "Rymawska Sobota", "name:ru": "\u0420\u0438\u043c\u0430\u0432\u0441\u043a\u0430 \u0421\u043e\u0431\u043e\u0442\u0430", "railway": "station", "toilets:wheelchair": "no", "wheelchair": "no"}}, {"type": "node", "id": 59644676, "lat": 48.5134812, "lon": 19.8167125, "tags": {"name": "Zlatno", "railway": "station", "railway:position:exact": "28.486", "uic_ref": "5614953"}}, {"type": "node", "id": 59645971, "lat": 48.5669189, "lon": 19.8415837, "tags": {"name": "Kokava nad Rimavicou", "railway": "station", "railway:position:exact": "35.726", "uic_ref": "5614943"}}, {"type": "node", "id": 81252754, "lat": 48.4647977, "lon": 19.9602121, "tags": {"name": "Hrachovo", "railway": "station"}}, {"type": "node", "id": 81260782, "lat": 48.4993592, "lon": 19.940311, "tags": {"name": "Rimavsk\u00e9 Zalu\u017eany", "railway": "station"}}, {"type": "node", "id": 81260929, "lat": 48.5098948, "lon": 19.9445614, "tags": {"name": "Rimavsk\u00e1 Ba\u0148a", "railway": "station"}}, {"type": "node", "id": 712578527, "lat": 48.5398582, "lon": 19.9642764, "tags": {"name": "Rimavsk\u00e9 Brezovo", "railway": "station"}}, {"type": "node", "id": 81266612, "lat": 48.5613917, "lon": 19.9630519, "tags": {"name": "Likier", "railway": "station"}}, {"type": "node", "id": 81266628, "lat": 48.5769962, "lon": 19.9579209, "tags": {"name": "Hn\u00fa\u0161\u0165a", "name:de": "Nusten", "name:hu": "Nyustya", "railway": "station"}}, {"type": "node", "id": 81287610, "lat": 48.6503788, "lon": 19.9476251, "tags": {"name": "Rimavsk\u00e1 P\u00edla", "railway": "station"}}, {"type": "node", "id": 85138870, "lat": 48.7913315, "lon": 19.3574858, "tags": {"name": "Medzibrod", "railway": "station"}}, {"type": "node", "id": 85160192, "lat": 48.8137099, "lon": 19.4395548, "tags": {"name": "Dubov\u00e1", "railway": "station"}}, {"type": "node", "id": 3042419898, "lat": 48.7290792, "lon": 19.6340649, "tags": {"name": "\u010cierny Balog, Vydrovo, Koryt\u00e1rske", "railway": "station"}}, {"type": "node", "id": 455858526, "lat": 48.7338184, "lon": 19.644165, "tags": {"name": "\u010cierny Balog - Vydrovo,skanzen", "railway": "station"}}, {"type": "node", "id": 455858525, "lat": 48.7461115, "lon": 19.6574315, "tags": {"name": "\u010cierny Balog", "name:de": "Schwarzwasser", "name:hu": "Feketebalog", "name:sk": "\u010cierny Balog", "railway": "station", "wikidata": "Q459204", "wikipedia": "sk:\u010ciernohronsk\u00e1 \u017eeleznica"}}, {"type": "node", "id": 452398297, "lat": 48.8102172, "lon": 19.5230257, "tags": {"name": "Podbrezov\u00e1", "railway": "station"}}, {"type": "node", "id": 475488768, "lat": 48.7988666, "lon": 19.5790814, "tags": {"name": "Hronec zlievare\u0148", "railway": "station"}}, {"type": "node", "id": 475488833, "lat": 48.8044279, "lon": 19.5588101, "tags": {"name": "Chvatimech \u010cHZ", "railway": "station"}}, {"type": "node", "id": 60462600, "lat": 48.8015371, "lon": 19.6289405, "tags": {"name": "Brezno", "railway": "station", "wikidata": "Q18327182"}}, {"type": "node", "id": 60462487, "lat": 48.7948682, "lon": 19.7088237, "tags": {"name": "Rohozn\u00e1", "railway": "station"}}, {"type": "node", "id": 736519398, "lat": 48.8177336, "lon": 19.6650078, "tags": {"name": "Brezno - Halny", "platforms": "2", "railway": "station"}}, {"type": "node", "id": 736519769, "lat": 48.8176875, "lon": 19.6650651, "tags": {"name": "Brezno - Halny", "platforms": "2", "railway": "station"}}, {"type": "node", "id": 5687924526, "lat": 49.0583812, "lon": 19.3056963, "tags": {"addr:city": "Ru\u017eomberok", "addr:postcode": "03401", "addr:street": "Unnamed Road", "facebook": "https://www.facebook.com/korytnicka.zeleznica/", "internet_access": "no", "name": "Ru\u017eomberok-Z\u00e1palk\u00e1re\u0148", "public_transport": "station", "railway": "station", "train": "yes", "website": "https://www.korytnickazeleznica.eu/"}}, {"type": "node", "id": 5461793293, "lat": 49.0663263, "lon": 19.3058056, "tags": {"addr:city": "Ru\u017eomberok - Bani\u010dn\u00e9", "addr:housenumber": "224/3", "addr:postcode": "03401", "addr:street": "Sl\u00e1dkovi\u010dova", "internet_access": "no", "name": "Ru\u017eomberok - Mal\u00e9 N\u00e1dra\u017eie", "note": "V cudz\u00edch jazykoch:\nNem\u010dina - Rosenberg-Kleiner Bahnhof\nMa\u010far\u010dina - R\u00f3zsahegy-Kis \u00c1lomm\u00e1s\nAngli\u010dtina - Ruzomberok-Small Railway Station\nPo\u013e\u0161tina - Rozmberk-Maly Dvorzec Kolejowy\nRu\u0161tina - Ruzhomberok-Nebol\u00b4shoy vokzal (Pyxkom6epok-He6onbwo\u0148 Bok3an)", "public_transport": "station", "railway": "station", "train": "yes"}}, {"type": "node", "id": 257790771, "lat": 49.0835449, "lon": 19.3091105, "tags": {"name": "Ru\u017eomberok", "name:de": "Rosenberg", "name:hu": "R\u00f3zsahegy", "name:pl": "Ru\u017comberk", "public_transport": "stop_position", "railway": "station", "train": "yes"}}, {"type": "node", "id": 5236529182, "lat": 49.0836076, "lon": 19.3091038, "tags": {"name": "Ru\u017eomberok", "name:de": "Rosenberg", "name:hu": "R\u00f3zsahegy", "name:pl": "Ru\u017comberk", "public_transport": "stop_position", "railway": "station", "train": "yes"}}, {"type": "node", "id": 5707475372, "lat": 49.0765394, "lon": 19.6516641, "tags": {"addr:city": "Liptovsk\u00fd Mikul\u00e1\u0161-Okoli\u010dn\u00e9", "addr:postcode": "03404", "addr:street": "Stani\u010dn\u00e1", "addr:unit": "76", "name": "Okoli\u010dn\u00e9", "public_transport": "station", "railway": "station", "train": "yes"}}, {"type": "node", "id": 60460877, "lat": 48.7654273, "lon": 19.7775002, "tags": {"name": "Michalov\u00e1", "railway": "station"}}, {"type": "node", "id": 60460270, "lat": 48.7583487, "lon": 19.7936448, "tags": {"name": "Pohronsk\u00e1 Polhora", "railway": "station"}}, {"type": "node", "id": 60459265, "lat": 48.7156636, "lon": 19.8678803, "tags": {"name": "Tisovec-B\u00e1novo", "railway": "station"}}, {"type": "node", "id": 844375491, "lat": 48.7466181, "lon": 19.8410052, "tags": {"name": "Zbojsk\u00e1", "railway": "station"}}, {"type": "node", "id": 454663458, "lat": 48.8269181, "lon": 19.7456991, "tags": {"name": "Ga\u0161parovo", "platforms": "1", "railway": "station"}}, {"type": "node", "id": 101172008, "lat": 48.8285223, "lon": 19.7614072, "tags": {"name": "Be\u0148u\u0161", "name:de": "Beneschau", "name:sk": "Be\u0148u\u0161", "railway": "station"}}, {"type": "node", "id": 101185883, "lat": 48.8462984, "lon": 19.8537171, "tags": {"name": "Polomka", "railway": "station"}}, {"type": "node", "id": 60458138, "lat": 48.6913615, "lon": 19.935005, "tags": {"name": "Tisovec", "name:de": "Thei\u00dfholz", "name:hu": "Tiszolc", "name:la": "Taxovia", "railway": "station"}}, {"type": "node", "id": 1910383973, "lat": 48.6775103, "lon": 20.1146652, "tags": {"name": "Rev\u00faca", "name:de": "Gro\u00dfrauschenbach", "name:hu": "Nagyr\u0151ce", "name:pl": "Rev\u00faca", "name:ru": "\u0420\u0435\u0432\u0443\u0446\u0430", "railway": "station"}}, {"type": "node", "id": 7084407482, "lat": 48.677456, "lon": 20.1145761, "tags": {"railway": "stop"}}, {"type": "node", "id": 7084476809, "lat": 48.6774134, "lon": 20.114561, "tags": {"railway": "stop"}}, {"type": "node", "id": 7084476838, "lat": 48.6774925, "lon": 20.1145904, "tags": {"railway": "stop"}}, {"type": "node", "id": 1910383970, "lat": 48.7404707, "lon": 20.051882, "tags": {"name": "Mur\u00e1\u0148", "railway": "station"}}, {"type": "node", "id": 101207612, "lat": 48.8563308, "lon": 19.9594806, "tags": {"is_in": "He\u013epa", "name": "He\u013epa", "name:de": "Helpach an der Gran", "name:hu": "Helpa", "name:sk": "He\u013epa", "railway": "station"}}, {"type": "node", "id": 101235644, "lat": 48.823198, "lon": 20.1315212, "tags": {"name": "\u010cerven\u00e1 Skala", "railway": "station", "wikidata": "Q65169350"}}, {"type": "node", "id": 848478071, "lat": 49.0255843, "lon": 19.7865475, "tags": {"name": "Kr\u00e1\u013eova Lehota", "railway": "station", "source": "survey"}}, {"type": "node", "id": 27317525, "lat": 49.0379895, "lon": 19.7213542, "tags": {"name": "Liptovsk\u00fd Hr\u00e1dok", "railway": "station", "wheelchair": "no"}}, {"type": "node", "id": 5236504031, "lat": 49.0502913, "lon": 19.9164061, "tags": {"name": "V\u00fdchodn\u00e1", "railway": "station"}}, {"type": "node", "id": 1918925370, "lat": 49.0836684, "lon": 20.065543, "tags": {"name": "\u0160trba", "name:hu": "Csorba", "public_transport": "stop_position", "railway": "station", "train": "yes"}},