{"type": "FeatureCollection", "features": [{"type": "Feature", "properties": {"type": "node", "id": 1837570219, "tags": {"name": "Koper / Capodistria", "name:da": "Koper", "name:de": "Gafers", "name:fur": "Cjaudistrie", "name:hr": "Kopar", "name:it": "Capodistria", "name:ja": "\u30b3\u30da\u30eb", "name:la": "Aegida", "name:lt": "Koperis", "name:sl": "Koper", "old_name": "Capodistria", "public_transport": "station", "railway": "station", "wikidata": "Q6431071", "wikipedia": "sl:\u017delezni\u0161ka postaja Koper"}}, "geometry": {"type": "Point", "coordinates": [13.7389692, 45.539184]}}, {"type": "Feature", "properties": {"type": "node", "id": 2261867187, "tags": {"name": "Hrastovlje", "name:it": "Cristoglie", "railway": "station", "wikidata": "Q12807489"}}, "geometry": {"type": "Point", "coordinates": [13.9092627, 45.5011378]}}, {"type": "Feature", "properties": {"type": "node", "id": 1867258110, "tags": {"name": "Rakitovec", "name:it": "Acquaviva dei Vena", "name:ru": "\u0420\u0430\u043a\u0438\u0442\u043e\u0432\u0435\u0446", "railway": "station"}}, "geometry": {"type": "Point", "coordinates": [13.9552565, 45.4660214]}}, {"type": "Feature", "properties": {"type": "node", "id": 4384738366, "tags": {"name": "Ri\u017eana", "name:it": "Risano", "railway": "station", "wikidata": "Q12807522", "wikipedia": "sl:\u017delezni\u0161ka postaja Ri\u017eana"}}, "geometry": {"type": "Point", "coordinates": [13.8572439, 45.5414698]}}, {"type": "Feature", "properties": {"type": "node", "id": 1867254163, "tags": {"name": "\u010crnoti\u010de", "name:it": "Cernotti", "railway": "station", "wikidata": "Q12807535"}}, "geometry": {"type": "Point", "coordinates": [13.8916792, 45.5519199]}}, {"type": "Feature", "properties": {"type": "node", "id": 3009139742, "tags": {"name": "Podgorje", "name:it": "Piedimonte d'Istria", "railway": "station", "wikidata": "Q12807514"}}, "geometry": {"type": "Point", "coordinates": [13.9428415, 45.5344559]}}, {"type": "Feature", "properties": {"type": "node", "id": 283080017, "tags": {"name": "Hrpelje-Kozina", "name:de": "Herpelle-Gossdorf", "name:it": "Erpelle-Cosina", "name:sl": "Hrpelje-Kozina", "railway": "station", "wikidata": "Q5923902", "wikipedia": "sl:\u017delezni\u0161ka postaja Hrpelje - Kozina"}}, "geometry": {"type": "Point", "coordinates": [13.935317, 45.603963]}}, {"type": "Feature", "properties": {"type": "node", "id": 283079611, "tags": {"name": "Rodik", "name:it": "Roditti", "public_transport": "station", "railway": "station", "train": "yes", "wikidata": "Q12807524"}}, "geometry": {"type": "Point", "coordinates": [13.9752196, 45.6271841]}}, {"type": "Feature", "properties": {"type": "node", "id": 275403778, "tags": {"name": "Se\u017eana", "name:de": "Zizan", "name:it": "Sesana", "name:sl": "Se\u017eana", "public_transport": "stop_position", "railway": "station", "train": "yes", "wikidata": "Q1983700", "wikipedia": "sl:\u017delezni\u0161ka postaja Se\u017eana"}}, "geometry": {"type": "Point", "coordinates": [13.8633664, 45.7040709]}}, {"type": "Feature", "properties": {"type": "node", "id": 4936709235, "tags": {"name": "Se\u017eana", "public_transport": "stop_position", "train": "yes"}}, "geometry": {"type": "Point", "coordinates": [13.8641721, 45.703965]}}, {"type": "Feature", "properties": {"type": "node", "id": 275403880, "tags": {"name": "Diva\u010da", "name:de": "Waatsche", "name:it": "Divaccia", "name:sl": "Diva\u010da", "railway": "station", "wikidata": "Q3969538", "wikipedia": "en:Diva\u010da railway station"}}, "geometry": {"type": "Point", "coordinates": [13.9650299, 45.6815687]}}, {"type": "Feature", "properties": {"type": "node", "id": 1867249142, "tags": {"name": "Ilirska Bistrica", "public_transport": "station", "railway": "station", "train": "yes", "wikidata": "Q5998405", "wikipedia": "sl:\u017delezni\u0161ka postaja Ilirska Bistrica"}}, "geometry": {"type": "Point", "coordinates": [14.2359806, 45.5692648]}}, {"type": "Feature", "properties": {"type": "node", "id": 4905868416, "tags": {"name": "Gornje Le\u017ee\u010de", "name:it": "Lesecce Auremiano", "public_transport": "station", "railway": "station", "train": "yes"}}, "geometry": {"type": "Point", "coordinates": [14.0722916, 45.6664087]}}, {"type": "Feature", "properties": {"type": "node", "id": 275384043, "tags": {"name": "Pivka", "name:de": "St. Peter in Krain", "name:it": "San Pietro del Carso", "name:sl": "Pivka", "public_transport": "stop_position", "railway": "station", "uic_name": "Pivka", "uic_ref": "7900011", "wikidata": "Q2002456", "wikipedia": "sl:\u017delezni\u0161ka postaja Pivka"}}, "geometry": {"type": "Point", "coordinates": [14.1912501, 45.675276]}}, {"type": "Feature", "properties": {"type": "node", "id": 5619179563, "tags": {"name": "Prestranek", "operator": "S\u017d Infrastruktura", "railway": "station"}}, "geometry": {"type": "Point", "coordinates": [14.1855972, 45.7285348]}}, {"type": "Feature", "properties": {"type": "node", "id": 2373004562, "tags": {"name": "Ko\u010devje", "public_transport": "station", "railway": "station", "wikidata": "Q19938268", "wikipedia": "sl:\u017delezni\u0161ka postaja Ko\u010devje"}}, "geometry": {"type": "Point", "coordinates": [14.856499, 45.6470278]}}, {"type": "Feature", "properties": {"type": "node", "id": 8283943566, "tags": {"name": "Stara Cerkev", "public_transport": "station", "railway": "station", "train": "yes"}}, "geometry": {"type": "Point", "coordinates": [14.8379233, 45.6693416]}}, {"type": "Feature", "properties": {"type": "node", "id": 860150930, "tags": {"name": "Kreplje", "name:it": "Crepegliano", "public_transport": "stop_position", "railway": "halt", "train": "yes", "wikidata": "Q18284542"}}, "geometry": {"type": "Point", "coordinates": [13.8273172, 45.7421535]}}, {"type": "Feature", "properties": {"type": "node", "id": 1867264632, "tags": {"name": "Dutovlje", "name:ru": "\u0414\u0443\u0442\u043e\u0432\u043b\u0435", "name:sl": "Dutovlje", "public_transport": "stop_position", "railway": "halt", "train": "yes"}}, "geometry": {"type": "Point", "coordinates": [13.8261665, 45.7648726]}}, {"type": "Feature", "properties": {"type": "node", "id": 4462627088, "tags": {"name": "Kopriva", "public_transport": "stop_position", "railway": "halt", "train": "yes"}}, "geometry": {"type": "Point", "coordinates": [13.831704, 45.7848647]}}, {"type": "Feature", "properties": {"type": "node", "id": 860117543, "tags": {"name": "Prva\u010dina", "name:de": "Pr\u00e4bendlach", "name:it": "Prevacina", "public_transport": "stop_position", "railway": "station", "train": "yes", "wikidata": "Q19938285", "wikipedia": "sl:\u017delezni\u0161ka postaja Prva\u010dina"}}, "geometry": {"type": "Point", "coordinates": [13.7228197, 45.8875074]}}, {"type": "Feature", "properties": {"type": "node", "id": 1762243741, "tags": {"alt_name:it": "Montespino", "name": "Dornberk", "name:de": "Dornberg", "name:it": "Dorimbergo", "name:sl": "Dornberk", "public_transport": "stop_position", "railway": "halt", "train": "yes"}}, "geometry": {"type": "Point", "coordinates": [13.7343116, 45.8857645]}}, {"type": "Feature", "properties": {"type": "node", "id": 1762243740, "tags": {"name": "Vol\u010dja Draga", "name:de": "Fultschack", "name:sl": "Vol\u010dja Draga", "public_transport": "stop_position", "railway": "station", "train": "yes", "wheelchair": "no", "wikidata": "Q12807531"}}, "geometry": {"type": "Point", "coordinates": [13.6756611, 45.9058486]}}, {"type": "Feature", "properties": {"type": "node", "id": 1762243738, "tags": {"name": "\u0160empeter pri Gorici", "name:de": "Sankt Peter", "name:sl": "\u0160empeter pri Gorici", "public_transport": "stop_position", "railway": "halt", "train": "yes", "wikidata": "Q12807634"}}, "geometry": {"type": "Point", "coordinates": [13.6468726, 45.9282317]}}, {"type": "Feature", "properties": {"type": "node", "id": 1762243737, "tags": {"name": "Okroglica", "public_transport": "stop_position", "railway": "halt", "train": "yes", "wikidata": "Q12807606"}}, "geometry": {"type": "Point", "coordinates": [13.6902233, 45.8990938]}}, {"type": "Feature", "properties": {"type": "node", "id": 1762284285, "tags": {"name": "Branik", "name:de": "Reifenberg", "name:it": "Rifembergo", "public_transport": "stop_position", "railway": "halt", "train": "yes"}}, "geometry": {"type": "Point", "coordinates": [13.7842277, 45.8558901]}}, {"type": "Feature", "properties": {"type": "node", "id": 1867262492, "tags": {"name": "Steske", "name:de": "Rauchenstein", "public_transport": "stop_position", "railway": "halt", "train": "yes"}}, "geometry": {"type": "Point", "coordinates": [13.7575087, 45.8759905]}}, {"type": "Feature", "properties": {"type": "node", "id": 838627738, "tags": {"name": "Plave", "name:it": "Plava", "public_transport": "stop_position", "railway": "station", "source": "survey", "train": "yes", "uic_ref": "7900175", "wikidata": "Q12807613", "wikipedia": "it:Stazione di Plava"}}, "geometry": {"type": "Point", "coordinates": [13.5897472, 46.0462171]}}, {"type": "Feature", "properties": {"type": "node", "id": 838627770, "tags": {"name": "Anhovo", "name:it": "Anicova", "public_transport": "stop_position", "railway": "station", "source": "survey", "train": "yes", "uic_ref": "7900056", "wikidata": "Q4764369", "wikipedia": "sl:\u017delezni\u0161ka postaja Anhovo"}}, "geometry": {"type": "Point", "coordinates": [13.6171849, 46.0580539]}}, {"type": "Feature", "properties": {"type": "node", "id": 1864393414, "tags": {"name": "Nova Gorica", "name:de": "Neu-G\u00f6rz", "name:sl": "Nova Gorica", "public_transport": "stop_position", "railway": "station", "train": "yes", "wikidata": "Q3970319", "wikipedia": "sl:\u017delezni\u0161ka postaja Nova Gorica"}}, "geometry": {"type": "Point", "coordinates": [13.6356348, 45.9551621]}}, {"type": "Feature", "properties": {"type": "node", "id": 1867261625, "tags": {"name": "Solkan", "name:de": "Sollingen", "name:it": "Salcano", "name:sl": "Solkan", "public_transport": "stop_position", "railway": "halt", "train": "yes", "wikidata": "Q12807628", "wikipedia": "it:Stazione di Salcano"}}, "geometry": {"type": "Point", "coordinates": [13.6462158, 45.9726446]}}, {"type": "Feature", "properties": {"type": "node", "id": 449384674, "tags": {"name": "Kanal", "name:it": "Canale d'Isonzo", "public_transport": "stop_position", "railway": "station", "train": "yes", "uic_ref": "7900126", "wikidata": "Q19938354", "wikipedia": "it:Stazione di Canale d'Isonzo"}}, "geometry": {"type": "Point", "coordinates": [13.6316368, 46.0835113]}}, {"type": "Feature", "properties": {"type": "node", "id": 838615399, "tags": {"name": "Av\u010de", "public_transport": "stop_position", "railway": "halt", "source": "survey", "train": "yes", "uic_ref": "7900073"}}, "geometry": {"type": "Point", "coordinates": [13.6844716, 46.1080858]}}, {"type": "Feature", "properties": {"type": "node", "id": 811465751, "tags": {"name": "Most na So\u010di", "name:ru": "\u041c\u043e\u0441\u0442-\u043d\u0430-\u0421\u043e\u0447\u0438", "public_transport": "stop_position", "railway": "station", "train": "yes", "uic_ref": "7900020"}}, "geometry": {"type": "Point", "coordinates": [13.7592521, 46.1464082]}}, {"type": "Feature", "properties": {"type": "node", "id": 4931196950, "tags": {"name": "Most na So\u010di", "public_transport": "stop_position", "train": "yes"}}, "geometry": {"type": "Point", "coordinates": [13.7602915, 46.1459537]}}, {"type": "Feature", "properties": {"type": "node", "id": 711463844, "tags": {"name": "\u0160tanjel", "name:ru": "\u0428\u0442\u0430\u043d\u0435\u043b", "public_transport": "stop_position", "railway": "station", "train": "yes"}}, "geometry": {"type": "Point", "coordinates": [13.8482626, 45.8178591]}}, {"type": "Feature", "properties": {"type": "node", "id": 270129111, "tags": {"name": "Postojna", "name:de": "Adelsberg", "name:it": "Postumia", "name:sl": "Postojna", "public_transport": "stop_position", "railway": "station", "wikidata": "Q2002906", "wikipedia": "sl:\u017delezni\u0161ka postaja Postojna"}}, "geometry": {"type": "Point", "coordinates": [14.2217281, 45.7731969]}}, {"type": "Feature", "properties": {"type": "node", "id": 4190638970, "tags": {"name": "Logatec", "platforms": "3", "public_transport": "stop_position", "railway": "station", "source": "https://sl.wikipedia.org/wiki/%C5%BDelezni%C5%A1ka_postaja_Logatec"}}, "geometry": {"type": "Point", "coordinates": [14.2358297, 45.9177483]}}, {"type": "Feature", "properties": {"type": "node", "id": 838588271, "tags": {"name": "Grahovo", "public_transport": "stop_position", "railway": "station", "source": "survey", "train": "yes", "uic_ref": "7900108"}}, "geometry": {"type": "Point", "coordinates": [13.8569167, 46.1513668]}}, {"type": "Feature", "properties": {"type": "node", "id": 838588247, "tags": {"name": "Podmelec", "public_transport": "stop_position", "railway": "halt", "train": "yes", "wikidata": "Q19938382", "wikipedia": "sl:\u017delezni\u0161ko postajali\u0161\u010de Podmelec"}}, "geometry": {"type": "Point", "coordinates": [13.8138491, 46.1593947]}}, {"type": "Feature", "properties": {"type": "node", "id": 829057138, "tags": {"name": "Hudaju\u017ena", "public_transport": "stop_position", "railway": "halt", "source": "survey", "train": "yes", "uic_ref": "7900116"}}, "geometry": {"type": "Point", "coordinates": [13.9197836, 46.1797787]}}, {"type": "Feature", "properties": {"type": "node", "id": 829057113, "tags": {"name": "Podbrdo", "name:de": "Podberda", "name:it": "Piedicolle", "name:sl": "Podbrdo", "public_transport": "station", "railway": "station", "train": "yes", "uic_ref": "7900176", "wikidata": "Q3970482", "wikipedia": "sl:\u017delezni\u0161ka postaja Podbrdo"}}, "geometry": {"type": "Point", "coordinates": [13.9670871, 46.2092872]}}, {"type": "Feature", "properties": {"type": "node", "id": 4931196951, "tags": {"name": "Podbrdo", "public_transport": "stop_position", "train": "yes"}}, "geometry": {"type": "Point", "coordinates": [13.9675713, 46.2100315]}}, {"type": "Feature", "properties": {"type": "node", "id": 471562298, "tags": {"name": "Bohinjska Bistrica", "name:de": "Wochein Feistritz", "name:ru": "\u0411\u043e\u0445\u0438\u043d\u044c\u0441\u043a\u0430-\u0411\u0438\u0441\u0442\u0440\u0438\u0446\u0430", "name:sl": "Bohinjska Bistrica", "public_transport": "stop_position", "railway": "station", "train": "yes", "uic_ref": "7900015", "wikidata": "Q4938152", "wikipedia": "sl:\u017delezni\u0161ka postaja Bohinjska Bistrica"}}, "geometry": {"type": "Point", "coordinates": [13.9591732, 46.2742653]}}, {"type": "Feature", "properties": {"type": "node", "id": 4931196952, "tags": {"name": "Bohinjska Bistrica", "public_transport": "stop_position", "train": "yes"}}, "geometry": {"type": "Point", "coordinates": [13.9592754, 46.275292]}}, {"type": "Feature", "properties": {"type": "node", "id": 786599091, "tags": {"name": "Nomenj", "name:ru": "\u041d\u043e\u043c\u0435\u043d\u044c", "public_transport": "stop_position", "railway": "halt", "source": "survey", "source_ref": "2010-07-29", "train": "yes", "uic_ref": "7900158"}}, "geometry": {"type": "Point", "coordinates": [14.0025584, 46.2890146]}}, {"type": "Feature", "properties": {"type": "node", "id": 930818699, "tags": {"name": "Bohinjska Bela", "public_transport": "stop_position", "railway": "station", "source": "local_knowledge", "train": "yes", "uic_ref": "7900079"}}, "geometry": {"type": "Point", "coordinates": [14.0604308, 46.338491]}}, {"type": "Feature", "properties": {"type": "node", "id": 834660508, "tags": {"name": "Podnart", "public_transport": "stop_position", "railway": "station", "source": "survey", "train": "yes", "uic_name": "Podnart", "uic_ref": "7900049", "wikidata": "Q12807612", "wikipedia:sl": "\u017delezni\u0161ko postajali\u0161\u010de Podnart"}}, "geometry": {"type": "Point", "coordinates": [14.2585428, 46.2939145]}}, {"type": "Feature", "properties": {"type": "node", "id": 768924356, "tags": {"name": "Radovljica", "name:de": "Radmannsdorf", "name:sl": "Radovljica", "public_transport": "stop_position", "railway": "halt", "train": "yes", "wheelchair": "no", "wikidata": "Q11833529", "wikipedia": "sl:\u017delezni\u0161ka postaja Radovljica"}}, "geometry": {"type": "Point", "coordinates": [14.1737568, 46.3404633]}}, {"type": "Feature", "properties": {"type": "node", "id": 4443703953, "tags": {"name": "Lesce-Bled", "public_transport": "stop_position", "train": "yes"}}, "geometry": {"type": "Point", "coordinates": [14.1579679, 46.3603944]}}, {"type": "Feature", "properties": {"type": "node", "id": 5685260193, "tags": {"name": "Lesce-Bled", "public_transport": "stop_position", "train": "yes"}}, "geometry": {"type": "Point", "coordinates": [14.1578604, 46.360359]}}, {"type": "Feature", "properties": {"type": "node", "id": 5685260194, "tags": {"name": "Lesce-Bled", "operator": "S\u017d Infrastruktura", "railway": "station", "wikidata": "Q11198952", "wikipedia:sl": "\u017delezni\u0161ka postaja Lesce Bled"}}, "geometry": {"type": "Point", "coordinates": [14.1579189, 46.3603693]}}, {"type": "Feature", "properties": {"type": "node", "id": 50009756, "tags": {"name": "Globoko", "public_transport": "stop_position", "railway": "halt", "train": "yes", "wikidata": "Q19938345", "wikipedia": "sl:\u017delezni\u0161ko postajali\u0161\u010de Globoko"}}, "geometry": {"type": "Point", "coordinates": [14.2084496, 46.3233175]}}, {"type": "Feature", "properties": {"type": "node", "id": 50011396, "tags": {"name": "Oto\u010de", "name:ru": "\u041e\u0442\u043e\u0447\u0435", "public_transport": "stop_position", "railway": "halt", "source": "survey", "train": "yes", "uic_name": "Otoce", "uic_ref": "7900050"}}, "geometry": {"type": "Point", "coordinates": [14.2324674, 46.3110598]}}, {"type": "Feature", "properties": {"type": "node", "id": 283207146, "tags": {"name": "Bled Jezero", "public_transport": "stop_position", "railway": "station", "train": "yes", "uic_ref": "7900008", "wikidata": "Q4925834", "wikipedia": "sl:\u017delezni\u0161ka postaja Bled Jezero"}}, "geometry": {"type": "Point", "coordinates": [14.0822798, 46.3682793]}}, {"type": "Feature", "properties": {"type": "node", "id": 829850840, "tags": {"name": "Podhom", "public_transport": "stop_position", "railway": "halt", "train": "yes", "uic_ref": "7900180"}}, "geometry": {"type": "Point", "coordinates": [14.094283, 46.3874907]}}, {"type": "Feature", "properties": {"type": "node", "id": 472725357, "tags": {"name": "Vintgar", "public_transport": "stop_position", "railway": "station", "train": "yes", "uic_ref": "7900246", "wikidata": "Q12807633", "wikipedia": "sl:\u017delezni\u0161ko postajali\u0161\u010de Vintgar"}}, "geometry": {"type": "Point", "coordinates": [14.0987832, 46.4102378]}}, {"type": "Feature", "properties": {"type": "node", "id": 768869329, "tags": {"name": "\u017dirovnica", "name:de": "Scheraunitz", "name:sl": "\u017dirovnica", "public_transport": "stop_position", "railway": "station", "train": "yes"}}, "geometry": {"type": "Point", "coordinates": [14.1356244, 46.401938]}}, {"type": "Feature", "properties": {"type": "node", "id": 471786717, "tags": {"name": "Jesenice", "name:de": "A\u00dfling", "name:ru": "\u0415\u0441\u0435\u043d\u0438\u0446\u0435", "name:sl": "Jesenice", "operator": "S\u017d", "public_transport": "stop_position", "railway": "station", "railway:ref:\u00d6BB": "Js", "train": "yes", "uic_name": "Jesenice (SL)", "uic_ref": "7900001", "wikidata": "Q6962376", "wikipedia": "sl:\u017delezni\u0161ka postaja Jesenice"}}, "geometry": {"type": "Point", "coordinates": [14.054876, 46.4360536]}}, {"type": "Feature", "properties": {"type": "node", "id": 3972183750, "tags": {"name": "Jesenice", "public_transport": "stop_position", "train": "yes"}}, "geometry": {"type": "Point", "coordinates": [14.0549349, 46.4362351]}}, {"type": "Feature", "properties": {"type": "node", "id": 4007610850, "tags": {"name": "Ko\u010dna", "public_transport": "stop_position", "railway": "halt", "train": "yes", "uic_ref": "7900130"}}, "geometry": {"type": "Point", "coordinates": [14.0785939, 46.4238468]}}, {"type": "Feature", "properties": {"type": "node", "id": 253612827, "tags": {"name": "Slovenski Javornik", "public_transport": "stop_position", "train": "yes"}}, "geometry": {"type": "Point", "coordinates": [14.0881137, 46.4271987]}}, {"type": "Feature", "properties": {"type": "node", "id": 5685276171, "tags": {"name": "Slovenski Javornik", "operator": "S\u017d Infrastruktura", "railway": "station", "uic_name": "Slovenski Javornik", "uic_ref": "7900051"}}, "geometry": {"type": "Point", "coordinates": [14.0881124, 46.4272224]}}, {"type": "Feature", "properties": {"type": "node", "id": 269260478, "tags": {"name": "Rakek", "name:de": "Fulm", "public_transport": "stop_position", "railway": "station"}}, "geometry": {"type": "Point", "coordinates": [14.3131343, 45.8153313]}}, {"type": "Feature", "properties": {"type": "node", "id": 49490326, "tags": {"name": "Borovnica", "name:de": "Franzdorf", "name:sl": "Borovnica", "platforms": "4", "public_transport": "station", "railway": "station", "wheelchair": "limited", "wikidata": "Q11029837", "wikipedia:sl": "\u017delezni\u0161ka postaja Borovnica"}}, "geometry": {"type": "Point", "coordinates": [14.368228, 45.9214338]}}, {"type": "Feature", "properties": {"type": "node", "id": 7643291862, "tags": {"addr:city": "Ortnek", "addr:housenumber": "6", "addr:postcode": "1316", "addr:street": "Ortnek", "name": "Ortnek", "network": "Grosuplje\u2013Ko\u010devje", "operator": "Slovenske \u017eeleznice", "public_transport": "station", "railway": "station", "train": "yes"}}, "geometry": {"type": "Point", "coordinates": [14.680033, 45.7902294]}}, {"type": "Feature", "properties": {"type": "node", "id": 4902193807, "tags": {"name": "Verd", "public_transport": "station", "railway": "station", "train": "yes"}}, "geometry": {"type": "Point", "coordinates": [14.3038807, 45.9479425]}}, {"type": "Feature", "properties": {"type": "node", "id": 46844136, "tags": {"name": "Preserje", "public_transport": "stop_position", "railway": "station"}}, "geometry": {"type": "Point", "coordinates": [14.3957537, 45.9653469]}}, {"type": "Feature", "properties": {"type": "node", "id": 46831195, "tags": {"name": "Brezovica", "name:ru": "\u0411\u0440\u0435\u0437\u043e\u0432\u0438\u0446\u0430", "public_transport": "stop_position", "railway": "station", "wikidata": "Q4962864", "wikipedia": "sl:\u017delezni\u0161ka postaja Brezovica"}}, "geometry": {"type": "Point", "coordinates": [14.426582, 46.021327]}}, {"type": "Feature", "properties": {"type": "node", "id": 6127683208, "tags": {"name": "Dolgi most", "operator": "Slovenske \u017eeleznice", "public_transport": "station", "railway": "station", "train": "yes"}}, "geometry": {"type": "Point", "coordinates": [14.4640287, 46.0373581]}}, {"type": "Feature", "properties": {"type": "node", "id": 6216193409, "tags": {"name": "Peron 1 Smer Postojna", "public_transport": "stop_position", "railway": "stop", "train": "yes"}}, "geometry": {"type": "Point", "coordinates": [14.4640451, 46.0373365]}}, {"type": "Feature", "properties": {"type": "node", "id": 6216196312, "tags": {"name": "Peron 2 Smer Ljubljana", "public_transport": "stop_position", "railway": "stop", "train": "yes"}}, "geometry": {"type": "Point", "coordinates": [14.4639962, 46.0373962]}}, {"type": "Feature", "properties": {"type": "node", "id": 4875950200, "tags": {"name": "Ljubljana Vi\u017emarje", "public_transport": "stop_position", "railway": "station", "source": "survey", "train": "yes", "wikidata": "Q12807498", "wikipedia": "sl:\u017delezni\u0161ka postaja Ljubljana Vi\u017emarje"}}, "geometry": {"type": "Point", "coordinates": [14.4645846, 46.1006308]}}, {"type": "Feature", "properties": {"type": "node", "id": 46526600, "tags": {"name": "Medvode", "name:de": "Zwischenwassern", "name:sl": "Medvode", "public_transport": "stop_position", "railway": "station", "source": "survey", "train": "yes", "uic_ref": "7900150", "wikidata": "Q19938277", "wikipedia": "sl:\u017delezni\u0161ka postaja Medvode"}}, "geometry": {"type": "Point", "coordinates": [14.4122249, 46.1380469]}}, {"type": "Feature", "properties": {"type": "node", "id": 834672569, "tags": {"name": "Medno", "public_transport": "stop_position", "railway": "halt", "source": "survey", "train": "yes", "wikidata": "Q19938367", "wikipedia": "sl:\u017delezni\u0161ko postajali\u0161\u010de Medno"}}, "geometry": {"type": "Point", "coordinates": [14.4391076, 46.1221668]}}, {"type": "Feature", "properties": {"type": "node", "id": 50736008, "tags": {"name": "\u0160kofljica", "operator": "S\u017d Infrastruktura", "railway": "station"}}, "geometry": {"type": "Point", "coordinates": [14.5727108, 45.9843722]}}, {"type": "Feature", "properties": {"type": "node", "id": 5685102239, "tags": {"name": "Ljubljana Rakovnik", "operator": "S\u017d Infrastruktura", "public_transport": "station", "railway": "station"}}, "geometry": {"type": "Point", "coordinates": [14.5187488, 46.0369569]}}, {"type": "Feature", "properties": {"type": "node", "id": 5615333224, "tags": {"name": "Grosuplje", "railway": "station", "wikidata": "Q19938262", "wikipedia": "sl:\u017delezni\u0161ka postaja Grosuplje"}}, "geometry": {"type": "Point", "coordinates": [14.6521789, 45.956009]}}, {"type": "Feature", "properties": {"type": "node", "id": 1580160115, "tags": {"funicular": "yes", "railway": "stop"}}, "geometry": {"type": "Point", "coordinates": [14.5090165, 46.0492717]}}, {"type": "Feature", "properties": {"type": "node", "id": 1580160118, "tags": {"funicular": "yes", "railway": "stop"}}, "geometry": {"type": "Point", "coordinates": [14.509692, 46.0501346]}}, {"type": "Feature", "properties": {"type": "node", "id": 617483683, "tags": {"name": "Ljubljana", "name:de": "Laibach", "name:en": "Ljubljana", "name:it": "Lubiana", "name:sl": "Ljubljana", "platforms": "9", "public_transport": "station", "railway": "station", "railway:ref:DB": "XZL", "uic_ref": "7900003", "wheelchair": "yes", "wikidata": "Q1817806"}}, "geometry": {"type": "Point", "coordinates": [14.5105343, 46.0582538]}}, {"type": "Feature", "properties": {"type": "node", "id": 1476496674, "tags": {"name": "Ljubljana", "public_transport": "stop_position", "railway": "stop", "ref": "1", "train": "yes"}}, "geometry": {"type": "Point", "coordinates": [14.5112617, 46.0583371]}}, {"type": "Feature", "properties": {"type": "node", "id": 2371631373, "tags": {"name": "Ljubljana", "public_transport": "stop_position", "railway": "stop", "ref": "2", "train": "yes"}}, "geometry": {"type": "Point", "coordinates": [14.5112601, 46.0583643]}}, {"type": "Feature", "properties": {"type": "node", "id": 2371641030, "tags": {"name": "Ljubljana", "public_transport": "stop_position", "railway": "stop", "ref": "2", "train": "yes"}}, "geometry": {"type": "Point", "coordinates": [14.5113122, 46.0584569]}}, {"type": "Feature", "properties": {"type": "node", "id": 5615561626, "tags": {"name": "Ljubljana", "public_transport": "stop_position", "railway": "stop", "ref": "3", "train": "yes"}}, "geometry": {"type": "Point", "coordinates": [14.5129339, 46.0586107]}}, {"type": "Feature", "properties": {"type": "node", "id": 5615561627, "tags": {"name": "Ljubljana", "public_transport": "stop_position", "railway": "stop", "ref": "3", "train": "yes"}}, "geometry": {"type": "Point", "coordinates": [14.5129467, 46.0587195]}}, {"type": "Feature", "properties": {"type": "node", "id": 5615561628, "tags": {"name": "Ljubljana", "public_transport": "stop_position", "railway": "stop", "ref": "4", "train": "yes"}}, "geometry": {"type": "Point", "coordinates": [14.5129467, 46.0587566]}}, {"type": "Feature", "properties": {"type": "node", "id": 5615561629, "tags": {"name": "Ljubljana", "public_transport": "stop_position", "railway": "stop", "ref": "4", "train": "yes"}}, "geometry": {"type": "Point", "coordinates": [14.5129497, 46.0588694]}}, {"type": "Feature", "properties": {"type": "node", "id": 5615561630, "tags": {"name": "Ljubljana", "public_transport": "stop_position", "railway": "stop", "ref": "5", "train": "yes"}}, "geometry": {"type": "Point", "coordinates": [14.5129487, 46.0589271]}}, {"type": "Feature", "properties": {"type": "node", "id": 5615561631, "tags": {"name": "Ljubljana", "public_transport": "stop_position", "railway": "stop", "ref": "5", "train": "yes"}}, "geometry": {"type": "Point", "coordinates": [14.5129353, 46.0590263]}}, {"type": "Feature", "properties": {"type": "node", "id": 1644402998, "tags": {"name": "Ljubljana Stegne", "public_transport": "stop_position", "railway": "halt", "train": "yes", "wikidata": "Q12807598", "wikipedia": "sl:\u017delezni\u0161ko postajali\u0161\u010de Ljubljana Stegne"}}, "geometry": {"type": "Point", "coordinates": [14.4797029, 46.0870317]}}, {"type": "Feature", "properties": {"type": "node", "id": 263250212, "tags": {"name": "Litostroj", "public_transport": "stop_position", "railway": "halt", "train": "yes", "wikidata": "Q12807595", "wikipedia": "sl:\u017delezni\u0161ko postajali\u0161\u010de Litostroj"}}, "geometry": {"type": "Point", "coordinates": [14.4902062, 46.076858]}}, {"type": "Feature", "properties": {"type": "node", "id": 1764223725, "tags": {"name": "Ljubljana Brinje", "public_transport": "stop_position", "railway": "halt", "train": "yes", "wikidata": "Q12807594", "wikipedia": "sl:\u017delezni\u0161ko postajali\u0161\u010de Ljubljana Brinje"}}, "geometry": {"type": "Point", "coordinates": [14.5029603, 46.0761975]}}, {"type": "Feature", "properties": {"type": "node", "id": 1764223728, "tags": {"name": "Ljubljana Je\u017eica", "public_transport": "stop_position", "railway": "halt", "train": "yes", "wikidata": "Q12807593", "wikipedia": "sl:\u017delezni\u0161ko postajali\u0161\u010de Ljubljana Je\u017eica"}}, "geometry": {"type": "Point", "coordinates": [14.5072747, 46.089621]}}, {"type": "Feature", "properties": {"type": "node", "id": 5685226833, "tags": {"name": "Ljubljana \u010crnu\u010de", "operator": "S\u017d Infrastruktura", "public_transport": "station", "railway": "station", "train": "yes", "wikidata": "Q12807500"}}, "geometry": {"type": "Point", "coordinates": [14.5268363, 46.1009709]}}, {"type": "Feature", "properties": {"type": "node", "id": 1764223120, "tags": {"name": "Trzin industrijska cona", "public_transport": "stop_position", "railway": "halt", "train": "yes"}}, "geometry": {"type": "Point", "coordinates": [14.5509678, 46.1189285]}}, {"type": "Feature", "properties": {"type": "node", "id": 56530806, "tags": {"name": "Trzin Mlake", "public_transport": "stop_position", "railway": "halt", "train": "yes"}}, "geometry": {"type": "Point", "coordinates": [14.5596971, 46.1286243]}}, {"type": "Feature", "properties": {"type": "node", "id": 46350571, "tags": {"name": "Trzin", "public_transport": "stop_position", "railway": "halt", "train": "yes"}}, "geometry": {"type": "Point", "coordinates": [14.5676375, 46.1327518]}}, {"type": "Feature", "properties": {"type": "node", "id": 1867166628, "tags": {"name": "Ljubljana Polje", "public_transport": "station", "railway": "station", "wikidata": "Q12807592", "wikipedia": "sl:\u017delezni\u0161ko postajali\u0161\u010de Ljubljana Polje"}}, "geometry": {"type": "Point", "coordinates": [14.5829704, 46.0595743]}}, {"type": "Feature", "properties": {"type": "node", "id": 1867167114, "tags": {"name": "Ljubljana Zalog", "railway": "station", "wikidata": "Q12807501"}}, "geometry": {"type": "Point", "coordinates": [14.6152845, 46.0595096]}}, {"type": "Feature", "properties": {"type": "node", "id": 56690650, "tags": {"name": "Dom\u017eale", "public_transport": "station", "railway": "station", "train": "yes", "wikidata": "Q5291407", "wikipedia:sl": "\u017delezni\u0161ka postaja Dom\u017eale"}}, "geometry": {"type": "Point", "coordinates": [14.592357, 46.1392571]}}, {"type": "Feature", "properties": {"type": "node", "id": 1764223131, "tags": {"name": "Rodica", "public_transport": "stop_position", "railway": "halt", "train": "yes"}}, "geometry": {"type": "Point", "coordinates": [14.5924505, 46.1489918]}}, {"type": "Feature", "properties": {"type": "node", "id": 2218794901, "tags": {"name": "Ribnica", "public_transport": "station", "railway": "station"}}, "geometry": {"type": "Point", "coordinates": [14.7303641, 45.7433204]}}, {"type": "Feature", "properties": {"type": "node", "id": 7417574422, "tags": {"name": "Ribnica", "public_transport": "station", "railway": "station"}}, "geometry": {"type": "Point", "coordinates": [14.7305715, 45.7434823]}}, {"type": "Feature", "properties": {"type": "node", "id": 2807443181, "tags": {"name": "\u017dlebi\u010d", "network": "Grosuplje\u2013Ko\u010devje", "operator": "Slovenske \u017eeleznice", "public_transport": "station", "railway": "station", "train": "yes"}}, "geometry": {"type": "Point", "coordinates": [14.6921711, 45.7679432]}}, {"type": "Feature", "properties": {"type": "node", "id": 7643291861, "tags": {"addr:city": "Ribnica", "addr:housenumber": "27", "addr:postcode": "1310", "addr:street": "\u017dlebi\u010d", "name": "\u017dlebi\u010d", "network": "Grosuplje\u2013Ko\u010devje", "operator": "Slovenske \u017eeleznice", "public_transport": "station", "railway": "station", "train": "yes"}}, "geometry": {"type": "Point", "coordinates": [14.6920105, 45.7678446]}}, {"type": "Feature", "properties": {"type": "node", "id": 7643291863, "tags": {"name": "Ortnek", "network": "Grosuplje\u2013Ko\u010devje", "operator": "Slovenske \u017eeleznice", "public_transport": "station", "railway": "station", "train": "yes"}}, "geometry": {"type": "Point", "coordinates": [14.6802894, 45.7902788]}}, {"type": "Feature", "properties": {"type": "node", "id": 1867314765, "tags": {"name": "Mla\u010devo", "public_transport": "station", "railway": "station"}}, "geometry": {"type": "Point", "coordinates": [14.6851615, 45.9402391]}}, {"type": "Feature", "properties": {"type": "node", "id": 2443074793, "tags": {"name": "Mla\u010devo", "public_transport": "stop_position", "railway": "stop", "train": "yes"}}, "geometry": {"type": "Point", "coordinates": [14.6851232, 45.9403488]}}, {"type": "Feature", "properties": {"type": "node", "id": 1867314762, "tags": {"name": "\u017dalna", "railway": "station"}}, "geometry": {"type": "Point", "coordinates": [14.7076315, 45.9397623]}}, {"type": "Feature", "properties": {"type": "node", "id": 1867314760, "tags": {"name": "Pol\u017eevo", "public_transport": "station", "railway": "station"}}, "geometry": {"type": "Point", "coordinates": [14.7790619, 45.9406649]}}, {"type": "Feature", "properties": {"type": "node", "id": 7417729131, "tags": {"name": "Pol\u017eevo", "public_transport": "station", "railway": "station"}}, "geometry": {"type": "Point", "coordinates": [14.7791199, 45.9407565]}}, {"type": "Feature", "properties": {"type": "node", "id": 7526714187, "tags": {"name": "Ivan\u010dna Gorica", "public_transport": "stop_position", "railway": "stop", "train": "yes"}}, "geometry": {"type": "Point", "coordinates": [14.8022992, 45.9379777]}}, {"type": "Feature", "properties": {"type": "node", "id": 4327529257, "tags": {"name": "\u0160entvid pri Sti\u010dni", "public_transport": "stop_position", "railway": "stop", "train": "yes"}}, "geometry": {"type": "Point", "coordinates": [14.849953, 45.9407683]}}, {"type": "Feature", "properties": {"type": "node", "id": 5685083801, "tags": {"name": "Radohova vas", "operator": "S\u017d Infrastruktura", "public_transport": "station", "railway": "station"}}, "geometry": {"type": "Point", "coordinates": [14.8730555, 45.9434454]}}, {"type": "Feature", "properties": {"type": "node", "id": 7417590946, "tags": {"name": "Radohova vas", "operator": "S\u017d Infrastruktura", "public_transport": "station", "railway": "station"}}, "geometry": {"type": "Point", "coordinates": [14.8732331, 45.9432818]}}, {"type": "Feature", "properties": {"type": "node", "id": 1867319064, "tags": {"name": "Gaber", "public_transport": "station", "railway": "station"}}, "geometry": {"type": "Point", "coordinates": [14.9092854, 45.9406375]}}, {"type": "Feature", "properties": {"type": "node", "id": 2443074580, "tags": {"name": "Gaber", "public_transport": "stop_position", "railway": "stop", "train": "yes"}}, "geometry": {"type": "Point", "coordinates": [14.9091058, 45.9405325]}}, {"type": "Feature", "properties": {"type": "node", "id": 1867321486, "tags": {"name": "\u0160entlovrenc", "public_transport": "station", "railway": "station"}}, "geometry": {"type": "Point", "coordinates": [14.9408802, 45.9381089]}}, {"type": "Feature", "properties": {"type": "node", "id": 1867321488, "tags": {"name": "\u0160entlovrenc", "public_transport": "station", "railway": "station"}}, "geometry": {"type": "Point", "coordinates": [14.9412081, 45.9381219]}}, {"type": "Feature", "properties": {"type": "node", "id": 1867321471, "tags": {"name": "\u0160tefan", "public_transport": "station", "railway": "station", "wheelchair": "yes"}}, "geometry": {"type": "Point", "coordinates": [14.9806627, 45.9114138]}}, {"type": "Feature", "properties": {"type": "node", "id": 7417490355, "tags": {"name": "\u0160tefan", "public_transport": "station", "railway": "station", "wheelchair": "yes"}}, "geometry": {"type": "Point", "coordinates": [14.9809209, 45.9113875]}}, {"type": "Feature", "properties": {"type": "node", "id": 1867321482, "tags": {"name": "Velika Loka", "public_transport": "station", "railway": "station"}}, "geometry": {"type": "Point", "coordinates": [14.9692614, 45.9321235]}}, {"type": "Feature", "properties": {"type": "node", "id": 1867325580, "tags": {"name": "Mirna Pe\u010d", "name:de": "H\u00f6nigstein", "name:ru": "\u041c\u0438\u0440\u043d\u0430-\u041f\u0435\u0447", "name:sl": "Mirna Pe\u010d", "public_transport": "station", "railway": "station"}}, "geometry": {"type": "Point", "coordinates": [15.0914296, 45.8667897]}}, {"type": "Feature", "properties": {"type": "node", "id": 1867325606, "tags": {"name": "Ponikve", "railway": "station", "wheelchair": "yes"}}, "geometry": {"type": "Point", "coordinates": [15.0427081, 45.8976097]}}, {"type": "Feature", "properties": {"type": "node", "id": 1867353306, "tags": {"name": "Trebnje Kamna Gora", "public_transport": "station", "railway": "station", "wheelchair": "limited"}}, "geometry": {"type": "Point", "coordinates": [15.0243284, 45.9060393]}}, {"type": "Feature", "properties": {"type": "node", "id": 1867352427, "tags": {"name": "Gomila", "public_transport": "station", "railway": "station", "wheelchair": "limited"}}, "geometry": {"type": "Point", "coordinates": [15.0449823, 45.9347399]}}, {"type": "Feature", "properties": {"type": "node", "id": 7471986141, "tags": {"name": "Gomila", "public_transport": "stop_position", "railway": "stop", "train": "yes"}}, "geometry": {"type": "Point", "coordinates": [15.0449039, 45.9347908]}}, {"type": "Feature", "properties": {"type": "node", "id": 5685085087, "tags": {"name": "Vi\u0161nja Gora", "name:de": "Weixelburg", "railway": "station", "wikidata": "Q12807532", "wikipedia": "sl:\u017delezni\u0161ka postaja Vi\u0161nja Gora"}}, "geometry": {"type": "Point", "coordinates": [14.7423414, 45.9581663]}}, {"type": "Feature", "properties": {"type": "node", "id": 50123055, "tags": {"name": "Laze", "public_transport": "stop_position", "train": "yes"}}, "geometry": {"type": "Point", "coordinates": [14.6876556, 46.0883445]}}, {"type": "Feature", "properties": {"type": "node", "id": 4533783160, "tags": {"name": "Laze", "public_transport": "stop_position", "train": "yes"}}, "geometry": {"type": "Point", "coordinates": [14.6876959, 46.0882633]}}, {"type": "Feature", "properties": {"type": "node", "id": 5685107691, "tags": {"name": "Laze", "name:ru": "\u041b\u0430\u0437\u0435", "operator": "S\u017d Infrastruktura", "railway": "station", "uic_ref": "7900137", "wikidata": "Q19938272", "wikipedia": "sl:\u017delezni\u0161ka postaja Laze"}}, "geometry": {"type": "Point", "coordinates": [14.6876693, 46.0883058]}}, {"type": "Feature", "properties": {"type": "node", "id": 313399609, "tags": {"name": "Litija", "name:de": "Littai", "name:sl": "Litija", "public_transport": "stop_position", "railway": "stop", "train": "yes", "uic_ref": "7900140"}}, "geometry": {"type": "Point", "coordinates": [14.8252025, 46.058273]}}, {"type": "Feature", "properties": {"type": "node", "id": 4533740697, "tags": {"name": "Litija", "name:de": "Littai", "name:sl": "Litija", "public_transport": "stop_position", "railway": "stop", "train": "yes", "uic_ref": "7900140"}}, "geometry": {"type": "Point", "coordinates": [14.8252575, 46.0581956]}}, {"type": "Feature", "properties": {"type": "node", "id": 5672615480, "tags": {"name": "Litija", "name:de": "Littai", "name:sl": "Litija", "operator": "S\u017d Infrastruktura", "railway": "station", "uic_ref": "7900140", "wikidata": "Q11033150", "wikipedia:sl": "\u017delezni\u0161ka postaja Litija"}}, "geometry": {"type": "Point", "coordinates": [14.8251998, 46.0582258]}}, {"type": "Feature", "properties": {"type": "node", "id": 313399603, "tags": {"name": "Kresnice", "public_transport": "stop_position", "railway": "stop", "train": "yes", "uic_ref": "7900135"}}, "geometry": {"type": "Point", "coordinates": [14.7917691, 46.1029089]}}, {"type": "Feature", "properties": {"type": "node", "id": 5685028547, "tags": {"name": "Kresnice", "operator": "S\u017d Infrastruktura", "railway": "station", "uic_ref": "7900135", "wikidata": "Q19938270", "wikipedia:sl": "\u017delezni\u0161ka postaja Kresnice"}}, "geometry": {"type": "Point", "coordinates": [14.7917414, 46.10289]}}, {"type": "Feature", "properties": {"type": "node", "id": 5685028548, "tags": {"name": "Kresnice", "public_transport": "stop_position", "railway": "stop", "train": "yes", "uic_ref": "7900135"}}, "geometry": {"type": "Point", "coordinates": [14.7916778, 46.1028473]}}, {"type": "Feature", "properties": {"type": "node", "id": 7590603374, "tags": {"name": "Mirna", "public_transport": "stop_position", "railway": "stop", "train": "yes"}}, "geometry": {"type": "Point", "coordinates": [15.0635993, 45.9493583]}}, {"type": "Feature", "properties": {"type": "node", "id": 1867351990, "tags": {"name": "\u0160entrupert", "railway": "station"}}, "geometry": {"type": "Point", "coordinates": [15.0876831, 45.9596001]}}, {"type": "Feature", "properties": {"type": "node", "id": 259625643, "tags": {"name": "Zagorje", "public_transport": "stop_position", "train": "yes"}}, "geometry": {"type": "Point", "coordinates": [14.9910987, 46.120584]}}, {"type": "Feature", "properties": {"type": "node", "id": 617483689, "tags": {"name": "Zagorje", "railway": "station", "uic_ref": "7900252", "wikidata": "Q19937418", "wikipedia": "sl:\u017delezni\u0161ka postaja Zagorje"}}, "geometry": {"type": "Point", "coordinates": [14.991071, 46.1206083]}}, {"type": "Feature", "properties": {"type": "node", "id": 5615421958, "tags": {"name": "Zagorje", "public_transport": "stop_position", "train": "yes"}}, "geometry": {"type": "Point", "coordinates": [14.9910855, 46.1206326]}}, {"type": "Feature", "properties": {"type": "node", "id": 259625907, "tags": {"name": "Trbovlje", "public_transport": "stop_position", "train": "yes"}}, "geometry": {"type": "Point", "coordinates": [15.0373693, 46.1264885]}}, {"type": "Feature", "properties": {"type": "node", "id": 5615421957, "tags": {"name": "Trbovlje", "public_transport": "stop_position", "train": "yes"}}, "geometry": {"type": "Point", "coordinates": [15.0373456, 46.1265359]}}, {"type": "Feature", "properties": {"type": "node", "id": 3268732110, "tags": {"name": "Hrastnik", "public_transport": "stop_position", "railway": "stop", "train": "yes"}}, "geometry": {"type": "Point", "coordinates": [15.092786, 46.1227344]}}, {"type": "Feature", "properties": {"type": "node", "id": 7504623755, "tags": {"name": "Hrastnik", "public_transport": "stop_position", "railway": "stop", "train": "yes"}}, "geometry": {"type": "Point", "coordinates": [15.0943205, 46.1222545]}}, {"type": "Feature", "properties": {"type": "node", "id": 46713856, "tags": {"name": "\u0160kofja Loka", "public_transport": "stop_position", "railway": "station", "train": "yes", "wikidata": "Q12807537", "wikipedia": "sl:\u017delezni\u0161ka postaja \u0160kofja Loka"}}, "geometry": {"type": "Point", "coordinates": [14.3355786, 46.1744214]}}, {"type": "Feature", "properties": {"type": "node", "id": 50002957, "tags": {"name": "Kranj", "name:de": "Krainburg", "name:la": "Carnioburgum", "name:ru": "\u041a\u0440\u0430\u043d\u044c", "name:sl": "Kranj", "public_transport": "stop_position", "railway": "station", "train": "yes", "uic_ref": "7900014", "wikidata": "Q6436087", "wikipedia:sl": "\u017delezni\u0161ka postaja Kranj"}}, "geometry": {"type": "Point", "coordinates": [14.3482471, 46.2389548]}}, {"type": "Feature", "properties": {"type": "node", "id": 2371919993, "tags": {"name": "Kranj", "public_transport": "stop_position", "train": "yes"}}, "geometry": {"type": "Point", "coordinates": [14.3481285, 46.2389532]}}, {"type": "Feature", "properties": {"type": "node", "id": 4932456964, "tags": {"name": "Kranj", "public_transport": "stop_position", "train": "yes"}}, "geometry": {"type": "Point", "coordinates": [14.3480496, 46.2389522]}}, {"type": "Feature", "properties": {"type": "node", "id": 834662103, "tags": {"name": "Rete\u010de", "name:ru": "\u0420\u0435\u0442\u0435\u0447\u0435", "public_transport": "stop_position", "railway": "halt", "source": "survey", "train": "yes", "uic_name": "Retece", "uic_ref": "7900201", "wikidata": "Q19938388", "wikipedia": "sl:\u017delezni\u0161ko postajali\u0161\u010de Rete\u010de"}}, "geometry": {"type": "Point", "coordinates": [14.3711485, 46.1565498]}}, {"type": "Feature", "properties": {"type": "node", "id": 1764223124, "tags": {"name": "Jar\u0161e-Menge\u0161", "public_transport": "station", "railway": "station", "train": "yes"}}, "geometry": {"type": "Point", "coordinates": [14.593796, 46.1656585]}}, {"type": "Feature", "properties": {"type": "node", "id": 1764223125, "tags": {"name": "Homec", "public_transport": "stop_position", "railway": "halt", "train": "yes"}}, "geometry": {"type": "Point", "coordinates": [14.5905612, 46.1799149]}}, {"type": "Feature", "properties": {"type": "node", "id": 1764223119, "tags": {"name": "\u0160marca", "public_transport": "stop_position", "railway": "halt", "train": "yes"}}, "geometry": {"type": "Point", "coordinates": [14.5885637, 46.1931181]}}, {"type": "Feature", "properties": {"type": "node", "id": 1764223127, "tags": {"name": "Duplica-Bakovnik", "public_transport": "stop_position", "railway": "halt", "train": "yes"}}, "geometry": {"type": "Point", "coordinates": [14.5944102, 46.2065131]}}, {"type": "Feature", "properties": {"type": "node", "id": 588851356, "tags": {"name": "Kamnik", "name:de": "Stein in Oberkrain", "name:sl": "Kamnik", "public_transport": "station", "railway": "station", "train": "yes", "wheelchair": "no"}}, "geometry": {"type": "Point", "coordinates": [14.6037154, 46.2209112]}}, {"type": "Feature", "properties": {"type": "node", "id": 596494516, "tags": {"name": "Kamnik Mesto", "name:de": "Stein in Oberkrain Stadt", "name:sl": "Kamnik Mesto", "public_transport": "stop_position", "railway": "halt", "train": "yes", "wheelchair": "no"}}, "geometry": {"type": "Point", "coordinates": [14.6093193, 46.2248976]}}, {"type": "Feature", "properties": {"type": "node", "id": 4862148129, "tags": {"name": "Kamnik Graben", "name:de": "Stein in Oberkrain Graben", "name:sl": "Kamnik Graben", "public_transport": "stop_position", "railway": "station", "train": "yes"}}, "geometry": {"type": "Point", "coordinates": [14.6095419, 46.2288318]}}, {"type": "Feature", "properties": {"type": "node", "id": 273991222, "tags": {"name": "Polzela", "public_transport": "stop_position", "train": "yes"}}, "geometry": {"type": "Point", "coordinates": [15.0659906, 46.2826157]}}, {"type": "Feature", "properties": {"type": "node", "id": 2667243466, "tags": {"name": "Polzela", "public_transport": "stop_position", "train": "yes"}}, "geometry": {"type": "Point", "coordinates": [15.0660265, 46.2826433]}}, {"type": "Feature", "properties": {"type": "node", "id": 5684829489, "tags": {"name": "Polzela", "name:de": "Heilenstein", "name:ru": "\u041f\u043e\u043b\u0437\u0435\u043b\u0430", "name:sl": "Polzela", "operator": "S\u017d Infrastruktura", "railway": "station", "uic_name": "Polzela", "uic_ref": "7900186", "wikidata": "Q12807515"}}, "geometry": {"type": "Point", "coordinates": [15.0659302, 46.2826813]}}, {"type": "Feature", "properties": {"type": "node", "id": 7417546100, "tags": {"name": "\u0160martno ob Paki", "public_transport": "stop_position", "railway": "stop", "train": "yes"}}, "geometry": {"type": "Point", "coordinates": [15.0376107, 46.328214]}}, {"type": "Feature", "properties": {"type": "node", "id": 1867180033, "tags": {"name": "Pa\u0161ka vas", "name:de": "Paackdorf", "railway": "station"}}, "geometry": {"type": "Point", "coordinates": [15.0196456, 46.3414976]}}, {"type": "Feature", "properties": {"type": "node", "id": 1007207713, "tags": {"name": "Holmec", "operator": "S\u017d", "public_transport": "stop_position", "railway": "halt", "railway:position": "82.0", "ref": "1", "train": "yes", "uic_name": "Holmec", "uic_ref": "7900055", "wikidata": "Q15727405", "wikipedia": "sl:\u017delezni\u0161ko postajali\u0161\u010de Holmec"}}, "geometry": {"type": "Point", "coordinates": [14.8413664, 46.5663597]}}, {"type": "Feature", "properties": {"type": "node", "id": 1867181889, "tags": {"name": "\u0160o\u0161tanj", "name:de": "Sch\u00f6nstein", "name:sl": "\u0160o\u0161tanj", "public_transport": "station", "railway": "station", "wikidata": "Q12807540", "wikipedia:sl": "\u017delezni\u0161ka postaja \u0160o\u0161tanj"}}, "geometry": {"type": "Point", "coordinates": [15.0495647, 46.3766575]}}, {"type": "Feature", "properties": {"type": "node", "id": 5879733018, "tags": {"name": "\u0160o\u0161tanj", "name:de": "Sch\u00f6nstein", "name:sl": "\u0160o\u0161tanj", "public_transport": "station", "railway": "station", "wikidata": "Q12807540", "wikipedia:sl": "\u017delezni\u0161ka postaja \u0160o\u0161tanj"}}, "geometry": {"type": "Point", "coordinates": [15.0497393, 46.3768406]}}, {"type": "Feature", "properties": {"type": "node", "id": 1867182562, "tags": {"name": "Velenje Pesje", "railway": "station", "uic_name": "Velenje Pesje", "uic_ref": "7900274"}}, "geometry": {"type": "Point", "coordinates": [15.0812214, 46.3680497]}}, {"type": "Feature", "properties": {"type": "node", "id": 3558276958, "tags": {"name": "Prevalje", "name:de": "Pr\u00e4vali", "name:sl": "Prevalje", "railway": "station", "railway:ref:\u00d6BB": "Prv", "uic_name": "Prevalje", "uic_ref": "7900023", "wikidata": "Q15727400", "wikipedia": "sl:\u017delezni\u0161ka postaja Prevalje"}}, "geometry": {"type": "Point", "coordinates": [14.9217394, 46.5499976]}}, {"type": "Feature", "properties": {"type": "node", "id": 1867208821, "tags": {"name": "Ravne na Koro\u0161kem", "name:de": "Gutenstein", "name:sl": "Ravne na Koro\u0161kem", "railway": "station"}}, "geometry": {"type": "Point", "coordinates": [14.9642659, 46.5473458]}}, {"type": "Feature", "properties": {"type": "node", "id": 1867208269, "tags": {"name": "Dobrije", "railway": "station"}}, "geometry": {"type": "Point", "coordinates": [14.9865586, 46.5505962]}}, {"type": "Feature", "properties": {"type": "node", "id": 1867207528, "tags": {"name": "Podklanc", "railway": "station"}}, "geometry": {"type": "Point", "coordinates": [15.0109574, 46.5679942]}}, {"type": "Feature", "properties": {"type": "node", "id": 6346036755, "tags": {"name": "Otovec", "public_transport": "station", "railway": "station"}}, "geometry": {"type": "Point", "coordinates": [15.1617604, 45.5989434]}}, {"type": "Feature", "properties": {"type": "node", "id": 7658813459, "tags": {"name": "Otovec", "public_transport": "stop_position", "railway": "stop", "train": "yes"}}, "geometry": {"type": "Point", "coordinates": [15.1615752, 45.5988617]}}, {"type": "Feature", "properties": {"type": "node", "id": 6389634381, "tags": {"name": "\u010crnomelj", "name:de": "Tschernembl", "name:sl": "\u010crnomelj", "public_transport": "station", "railway": "station", "wheelchair": "no"}}, "geometry": {"type": "Point", "coordinates": [15.1898673, 45.579768]}}, {"type": "Feature", "properties": {"type": "node", "id": 6329604075, "tags": {"name:ru": "\u0413\u0440\u0430\u0434\u0430\u0446", "name:sl": "Gradac", "network": "Ljubljana\u2013Metlika", "operator": "Slovenske \u017eeleznice", "public_transport": "station", "railway": "station"}}, "geometry": {"type": "Point", "coordinates": [15.2414516, 45.6143826]}}, {"type": "Feature", "properties": {"type": "node", "id": 1867340561, "tags": {"name": "Semi\u010d", "public_transport": "station", "railway": "station"}}, "geometry": {"type": "Point", "coordinates": [15.1615809, 45.6431612]}}, {"type": "Feature", "properties": {"type": "node", "id": 6234999157, "tags": {"name": "Semi\u010d", "public_transport": "station", "railway": "station"}}, "geometry": {"type": "Point", "coordinates": [15.1617108, 45.6430206]}}, {"type": "Feature", "properties": {"type": "node", "id": 1867339434, "tags": {"name": "Ro\u017eni Dol", "name:ru": "\u0420\u043e\u0436\u043d\u0438-\u0414\u043e\u043b", "public_transport": "station", "railway": "station"}}, "geometry": {"type": "Point", "coordinates": [15.1481581, 45.6821609]}}, {"type": "Feature", "properties": {"type": "node", "id": 7417564843, "tags": {"name": "Ro\u017eni Dol", "name:ru": "\u0420\u043e\u0436\u043d\u0438-\u0414\u043e\u043b", "public_transport": "station", "railway": "station"}}, "geometry": {"type": "Point", "coordinates": [15.1483827, 45.6822003]}}, {"type": "Feature", "properties": {"type": "node", "id": 7417449044, "tags": {"name": "Ur\u0161na sela", "public_transport": "stop_position", "railway": "stop", "train": "yes"}}, "geometry": {"type": "Point", "coordinates": [15.1278105, 45.7145836]}}, {"type": "Feature", "properties": {"type": "node", "id": 1867349249, "tags": {"internet_access": "no", "name": "Dobravice", "public_transport": "station", "railway": "station", "train": "yes"}}, "geometry": {"type": "Point", "coordinates": [15.2698105, 45.6322788]}}, {"type": "Feature", "properties": {"type": "node", "id": 6281711279, "tags": {"name": "Metlika", "name:de": "M\u00f6ttling", "name:ru": "\u041c\u0435\u0442\u043b\u0438\u043a\u0430", "name:sl": "Metlika", "old_name:de": "Merling", "public_transport": "station", "railway": "station"}}, "geometry": {"type": "Point", "coordinates": [15.3227733, 45.6425151]}}, {"type": "Feature", "properties": {"type": "node", "id": 1867337166, "tags": {"name": "Bir\u010dna Vas", "railway": "station"}}, "geometry": {"type": "Point", "coordinates": [15.1476574, 45.7578189]}}, {"type": "Feature", "properties": {"type": "node", "id": 1867325613, "tags": {"name": "Hudo", "public_transport": "station", "railway": "station"}}, "geometry": {"type": "Point", "coordinates": [15.1360651, 45.8338192]}}, {"type": "Feature", "properties": {"type": "node", "id": 3854366633, "tags": {"name": "Hudo", "public_transport": "stop_position", "railway": "stop", "train": "yes"}}, "geometry": {"type": "Point", "coordinates": [15.1359675, 45.8339796]}}, {"type": "Feature", "properties": {"type": "node", "id": 5854905459, "tags": {"name": "Mokronog", "public_transport": "station", "railway": "station"}}, "geometry": {"type": "Point", "coordinates": [15.1215675, 45.9578385]}}, {"type": "Feature", "properties": {"type": "node", "id": 1867351456, "tags": {"name": "Pijavice", "public_transport": "station", "railway": "station"}}, "geometry": {"type": "Point", "coordinates": [15.1633107, 45.9683261]}}, {"type": "Feature", "properties": {"type": "node", "id": 5842332450, "tags": {"name": "Pijavice", "public_transport": "stop_position", "railway": "stop", "train": "yes"}}, "geometry": {"type": "Point", "coordinates": [15.1635207, 45.9682548]}}, {"type": "Feature", "properties": {"type": "node", "id": 1867351373, "tags": {"name": "Tr\u017ei\u0161\u010de", "public_transport": "station", "railway": "station"}}, "geometry": {"type": "Point", "coordinates": [15.1908484, 45.9666847]}}, {"type": "Feature", "properties": {"type": "node", "id": 5842592452, "tags": {"name": "Tr\u017ei\u0161\u010de", "public_transport": "station", "railway": "station"}}, "geometry": {"type": "Point", "coordinates": [15.1909912, 45.96646]}}, {"type": "Feature", "properties": {"type": "node", "id": 1867350778, "tags": {"name": "Jelovec", "public_transport": "station", "railway": "station"}}, "geometry": {"type": "Point", "coordinates": [15.2414295, 45.9898797]}}, {"type": "Feature", "properties": {"type": "node", "id": 1867170297, "tags": {"name": "Breg", "operator": "S\u017d Infrastruktura", "railway": "station", "wikidata": "Q4960372", "wikipedia": "sl:\u017delezni\u0161ka postaja Breg"}}, "geometry": {"type": "Point", "coordinates": [15.2355564, 46.0416399]}}, {"type": "Feature", "properties": {"type": "node", "id": 975989846, "tags": {"name": "Bo\u0161tanj", "railway": "station"}}, "geometry": {"type": "Point", "coordinates": [15.2900319, 46.007031]}}, {"type": "Feature", "properties": {"type": "node", "id": 309626224, "tags": {"name": "Sevnica", "public_transport": "stop_position", "train": "yes"}}, "geometry": {"type": "Point", "coordinates": [15.3011036, 46.0094025]}}, {"type": "Feature", "properties": {"type": "node", "id": 1408687555, "tags": {"name": "Sevnica", "public_transport": "stop_position", "train": "yes"}}, "geometry": {"type": "Point", "coordinates": [15.3011732, 46.0094403]}}, {"type": "Feature", "properties": {"type": "node", "id": 5684864292, "tags": {"name": "Sevnica", "name:de": "Lichtenwald", "operator": "S\u017d Infrastruktura", "railway": "station", "wikidata": "Q9335716", "wikipedia": "sl:\u017delezni\u0161ka postaja Sevnica"}}, "geometry": {"type": "Point", "coordinates": [15.3011187, 46.0094372]}}, {"type": "Feature", "properties": {"type": "node", "id": 1867167882, "tags": {"name": "Rade\u010de", "name:de": "Ratschach", "name:sl": "Rade\u010de", "railway": "station", "wikidata": "Q12807622", "wikipedia": "sl:\u017delezni\u0161ko postajali\u0161\u010de Rade\u010de"}}, "geometry": {"type": "Point", "coordinates": [15.1923927, 46.0643077]}}, {"type": "Feature", "properties": {"type": "node", "id": 259626615, "tags": {"name": "Zidani Most", "public_transport": "stop_position", "train": "yes"}}, "geometry": {"type": "Point", "coordinates": [15.1702037, 46.0854498]}}, {"type": "Feature", "properties": {"type": "node", "id": 2587306611, "tags": {"name": "Zidani Most", "public_transport": "stop_position", "train": "yes"}}, "geometry": {"type": "Point", "coordinates": [15.1703225, 46.0854834]}}, {"type": "Feature", "properties": {"type": "node", "id": 611328944, "tags": {"name": "Rimske Toplice", "public_transport": "station", "railway": "station", "wikidata": "Q19938291", "wikipedia": "sl:\u017delezni\u0161ka postaja Rimske Toplice"}}, "geometry": {"type": "Point", "coordinates": [15.2030552, 46.123665]}}, {"type": "Feature", "properties": {"type": "node", "id": 1867169972, "tags": {"name": "Loka", "name:ru": "\u041b\u043e\u043a\u0430", "public_transport": "station", "railway": "station"}}, "geometry": {"type": "Point", "coordinates": [15.2054395, 46.0536048]}}, {"type": "Feature", "properties": {"type": "node", "id": 1575226341, "tags": {"name": "Blanca", "railway": "station", "wikidata": "Q4924777", "wikipedia": "sl:\u017delezni\u0161ka postaja Blanca"}}, "geometry": {"type": "Point", "coordinates": [15.3958835, 45.9898344]}}, {"type": "Feature", "properties": {"type": "node", "id": 309626061, "tags": {"name": "Kr\u0161ko", "public_transport": "stop_position", "train": "yes"}}, "geometry": {"type": "Point", "coordinates": [15.4933122, 45.9562009]}}, {"type": "Feature", "properties": {"type": "node", "id": 1399696178, "tags": {"name": "Kr\u0161ko", "name:de": "Gurkfeld", "name:sl": "Kr\u0161ko", "public_transport": "stop_position", "railway": "station", "train": "yes", "wikidata": "Q12807494", "wikipedia": "sl:\u017delezni\u0161ka postaja Kr\u0161ko"}}, "geometry": {"type": "Point", "coordinates": [15.4933506, 45.9562404]}}, {"type": "Feature", "properties": {"type": "node", "id": 7978498389, "tags": {"name": "Kr\u0161ko", "public_transport": "stop_position", "train": "yes"}}, "geometry": {"type": "Point", "coordinates": [15.4933082, 45.9562384]}}, {"type": "Feature", "properties": {"type": "node", "id": 1575226330, "tags": {"name": "Brestanica", "name:de": "Reichenburg in der Steiermark", "public_transport": "station", "railway": "station", "train": "yes", "wikidata": "Q4961894", "wikipedia": "sl:\u017delezni\u0161ka postaja Brestanica"}}, "geometry": {"type": "Point", "coordinates": [15.4696042, 45.9875528]}}, {"type": "Feature", "properties": {"type": "node", "id": 1575226351, "tags": {"name": "Bre\u017eice", "railway": "station", "wikidata": "Q4962883", "wikipedia:sl": "\u017delezni\u0161ka postaja Bre\u017eice"}}, "geometry": {"type": "Point", "coordinates": [15.5899172, 45.9237167]}}, {"type": "Feature", "properties": {"type": "node", "id": 853373803, "tags": {"barrier": "border_control", "name": "Dobova", "public_transport": "stop_position", "railway": "stop", "ref": "3", "train": "yes"}}, "geometry": {"type": "Point", "coordinates": [15.6552707, 45.8984648]}}, {"type": "Feature", "properties": {"type": "node", "id": 1349617056, "tags": {"barrier": "border_control", "name": "Dobova", "public_transport": "stop_position", "railway": "stop", "ref": "4", "train": "yes"}}, "geometry": {"type": "Point", "coordinates": [15.6553213, 45.8985417]}}, {"type": "Feature", "properties": {"type": "node", "id": 5226766123, "tags": {"name": "Dobova", "note": "There is a second UIC number 7900042 for the border station.", "operator": "S\u017d Infrastruktura", "railway": "station", "uic_ref": "7900017", "wikidata": "Q5286654", "wikipedia:sl": "\u017delezni\u0161ka postaja Dobova"}}, "geometry": {"type": "Point", "coordinates": [15.6553533, 45.8984862]}}, {"type": "Feature", "properties": {"type": "node", "id": 7346848910, "tags": {"barrier": "border_control", "name": "Dobova", "public_transport": "stop_position", "railway": "stop", "ref": "1", "train": "yes"}}, "geometry": {"type": "Point", "coordinates": [15.655219, 45.8983862]}}, {"type": "Feature", "properties": {"type": "node", "id": 1867171038, "tags": {"name": "Libna", "public_transport": "station", "railway": "station", "wikidata": "Q12807590", "wikipedia": "sl:\u017delezni\u0161ko postajali\u0161\u010de Libna"}}, "geometry": {"type": "Point", "coordinates": [15.540309, 45.9453788]}}, {"type": "Feature", "properties": {"type": "node", "id": 1867193384, "tags": {"name": "Imeno", "railway": "station", "uic_name": "Imeno", "uic_ref": "7900061"}}, "geometry": {"type": "Point", "coordinates": [15.6012389, 46.1269786]}}, {"type": "Feature", "properties": {"type": "node", "id": 1761384950, "tags": {"name": "\u017dalec", "name:de": "Sachsenfeld", "name:sl": "\u017dalec", "railway": "station", "wikidata": "Q12807541"}}, "geometry": {"type": "Point", "coordinates": [15.1662128, 46.2495087]}}, {"type": "Feature", "properties": {"type": "node", "id": 259627492, "tags": {"name": "La\u0161ko", "public_transport": "stop_position", "train": "yes"}}, "geometry": {"type": "Point", "coordinates": [15.2319394, 46.1551242]}}, {"type": "Feature", "properties": {"type": "node", "id": 3268711624, "tags": {"name": "La\u0161ko", "public_transport": "stop_position", "railway": "stop", "train": "yes"}}, "geometry": {"type": "Point", "coordinates": [15.2318423, 46.1549992]}}, {"type": "Feature", "properties": {"type": "node", "id": 5613487430, "tags": {"alt_name:de": "Markt T\u00fcffer", "name": "La\u0161ko", "name:de": "T\u00fcffer", "railway": "station", "wikidata": "Q19938274", "wikipedia": "sl:\u017delezni\u0161ka postaja La\u0161ko"}}, "geometry": {"type": "Point", "coordinates": [15.2318999, 46.1550853]}}, {"type": "Feature", "properties": {"type": "node", "id": 71578308, "tags": {"electrified": "contact_line", "name": "Celje", "railway": "station", "wheelchair": "yes", "wikidata": "Q5058125", "wikipedia": "sl:\u017delezni\u0161ka postaja Celje"}}, "geometry": {"type": "Point", "coordinates": [15.2681411, 46.228503]}}, {"type": "Feature", "properties": {"type": "node", "id": 259628446, "tags": {"name": "\u0160tore", "public_transport": "stop_position", "train": "yes"}}, "geometry": {"type": "Point", "coordinates": [15.3213182, 46.2215649]}}, {"type": "Feature", "properties": {"type": "node", "id": 3268707411, "tags": {"name": "\u0160tore", "public_transport": "stop_position", "train": "yes"}}, "geometry": {"type": "Point", "coordinates": [15.3212795, 46.2215043]}}, {"type": "Feature", "properties": {"type": "node", "id": 81271333, "tags": {"name": "\u0160entjur", "public_transport": "stop_position", "railway": "stop", "train": "yes"}}, "geometry": {"type": "Point", "coordinates": [15.3960067, 46.2130031]}}, {"type": "Feature", "properties": {"type": "node", "id": 3268674137, "tags": {"name": "\u0160entjur", "public_transport": "stop_position", "railway": "stop", "train": "yes"}}, "geometry": {"type": "Point", "coordinates": [15.3960387, 46.2130834]}}, {"type": "Feature", "properties": {"type": "node", "id": 5684850880, "tags": {"name": "\u0160entjur", "operator": "S\u017d Infrastruktura", "railway": "station"}}, "geometry": {"type": "Point", "coordinates": [15.396266, 46.2130291]}}, {"type": "Feature", "properties": {"type": "node", "id": 2207131391, "tags": {"name": "Grobelno", "public_transport": "stop_position", "railway": "stop", "train": "yes"}}, "geometry": {"type": "Point", "coordinates": [15.4399057, 46.2129325]}}, {"type": "Feature", "properties": {"type": "node", "id": 7243268330, "tags": {"name": "Grobelno", "public_transport": "stop_position", "railway": "stop", "train": "yes"}}, "geometry": {"type": "Point", "coordinates": [15.4394623, 46.2130508]}}, {"type": "Feature", "properties": {"type": "node", "id": 7243268333, "tags": {"name": "Grobelno", "public_transport": "stop_position", "railway": "stop", "train": "yes"}}, "geometry": {"type": "Point", "coordinates": [15.4395235, 46.2130189]}}, {"type": "Feature", "properties": {"type": "node", "id": 259629093, "tags": {"name": "Ponikva", "railway": "station"}}, "geometry": {"type": "Point", "coordinates": [15.4306181, 46.2479011]}}, {"type": "Feature", "properties": {"type": "node", "id": 3268673776, "tags": {"name": "Ponikva", "railway": "station"}}, "geometry": {"type": "Point", "coordinates": [15.4305662, 46.2478991]}}, {"type": "Feature", "properties": {"type": "node", "id": 1867190513, "tags": {"name": "\u0160marje pri Jel\u0161ah", "name:de": "Sankt Marein bei Erlachstein", "railway": "station", "wikidata": "Q12807542", "wikipedia": "sl:\u017delezni\u0161ka postaja \u0160marje pri Jel\u0161ah"}}, "geometry": {"type": "Point", "coordinates": [15.5167703, 46.230711]}}, {"type": "Feature", "properties": {"type": "node", "id": 1867183527, "tags": {"name": "Velenje", "name:de": "W\u00f6llan", "name:sl": "Velenje", "operator": "Slovenske \u017eeleznice", "railway": "station", "uic_name": "Velenje"}}, "geometry": {"type": "Point", "coordinates": [15.1036301, 46.3637549]}}, {"type": "Feature", "properties": {"type": "node", "id": 1715035599, "tags": {"name": "Ruta", "railway": "station", "uic_name": "Ruta", "uic_ref": "7900207"}}, "geometry": {"type": "Point", "coordinates": [15.431683, 46.563035]}}, {"type": "Feature", "properties": {"type": "node", "id": 5682625137, "tags": {"name": "Ru\u0161e", "name:de": "Maria Rast", "name:sl": "Ru\u0161e", "operator": "S\u017d Infrastruktura", "railway": "station", "uic_name": "Ruse (SL)", "uic_ref": "7900052", "wikidata": "Q19938295", "wikipedia:sl": "\u017delezni\u0161ka postaja Ru\u0161e"}}, "geometry": {"type": "Point", "coordinates": [15.5038289, 46.5409445]}}, {"type": "Feature", "properties": {"type": "node", "id": 1867191959, "tags": {"name": "Stranje", "name:de": "Stranach", "railway": "station", "uic_ref": "7900062", "wikidata": "Q19938300", "wikipedia": "sl:\u017delezni\u0161ka postaja Stranje"}}, "geometry": {"type": "Point", "coordinates": [15.56016, 46.2174074]}}, {"type": "Feature", "properties": {"type": "node", "id": 1867197340, "tags": {"name": "Mestinje", "name:de": "M\u00f6stin", "railway": "station", "uic_name": "Mestinje", "uic_ref": "7900151"}}, "geometry": {"type": "Point", "coordinates": [15.5644172, 46.2350139]}}, {"type": "Feature", "properties": {"type": "node", "id": 1867198379, "tags": {"name": "Roga\u0161ka Slatina", "name:de": "Rohitsch-Sauerbrunn", "name:sl": "Roga\u0161ka Slatina", "railway": "station", "uic_name": "Rogaska Slatina", "uic_ref": "7900068"}}, "geometry": {"type": "Point", "coordinates": [15.6384781, 46.2320049]}}, {"type": "Feature", "properties": {"type": "node", "id": 2667778535, "tags": {"name": "Rogatec", "public_transport": "stop_position", "railway": "stop", "train": "yes"}}, "geometry": {"type": "Point", "coordinates": [15.6978046, 46.2244685]}}, {"type": "Feature", "properties": {"type": "node", "id": 259630497, "tags": {"name": "Polj\u010dane", "railway": "station", "uic_name": "Poljcane", "uic_ref": "7900185"}}, "geometry": {"type": "Point", "coordinates": [15.5765666, 46.3134688]}}, {"type": "Feature", "properties": {"type": "node", "id": 259631086, "tags": {"name": "Slovenska Bistrica", "name:ru": "\u0421\u043b\u043e\u0432\u0435\u043d\u0441\u043a\u0430-\u0411\u0438\u0441\u0442\u0440\u0438\u0446\u0430", "public_transport": "stop_position", "railway": "stop", "train": "yes"}}, "geometry": {"type": "Point", "coordinates": [15.5979094, 46.3630561]}}, {"type": "Feature", "properties": {"type": "node", "id": 1822863222, "tags": {"name": "Slovenska Bistrica", "name:ru": "\u0421\u043b\u043e\u0432\u0435\u043d\u0441\u043a\u0430-\u0411\u0438\u0441\u0442\u0440\u0438\u0446\u0430", "public_transport": "stop_position", "railway": "stop", "train": "yes"}}, "geometry": {"type": "Point", "coordinates": [15.5979924, 46.3631677]}}, {"type": "Feature", "properties": {"type": "node", "id": 5699758621, "tags": {"name": "Slovenska Bistrica", "name:ru": "\u0421\u043b\u043e\u0432\u0435\u043d\u0441\u043a\u0430-\u0411\u0438\u0441\u0442\u0440\u0438\u0446\u0430", "public_transport": "station", "railway": "station", "station": "train", "wikidata": "Q15442617", "wikipedia:sl": "\u017delezni\u0161ka postaja Slovenska Bistrica"}}, "geometry": {"type": "Point", "coordinates": [15.5980494, 46.3631917]}}, {"type": "Feature", "properties": {"type": "node", "id": 5712413014, "tags": {"name": "Slovenska Bistrica", "name:ru": "\u0421\u043b\u043e\u0432\u0435\u043d\u0441\u043a\u0430-\u0411\u0438\u0441\u0442\u0440\u0438\u0446\u0430", "public_transport": "stop_position", "railway": "stop", "train": "yes"}}, "geometry": {"type": "Point", "coordinates": [15.597988, 46.3632544]}}, {"type": "Feature", "properties": {"type": "node", "id": 5712413015, "tags": {"name": "Slovenska Bistrica", "name:ru": "\u0421\u043b\u043e\u0432\u0435\u043d\u0441\u043a\u0430-\u0411\u0438\u0441\u0442\u0440\u0438\u0446\u0430", "public_transport": "stop_position", "railway": "stop", "train": "yes"}}, "geometry": {"type": "Point", "coordinates": [15.5979879, 46.3632116]}}, {"type": "Feature", "properties": {"type": "node", "id": 1867202152, "tags": {"name": "Sveti Rok ob Sotli", "public_transport": "station", "railway": "station", "uic_name": "Sveti Rok ob Sotli", "uic_ref": "7900214"}}, "geometry": {"type": "Point", "coordinates": [15.7600107, 46.2087824]}}, {"type": "Feature", "properties": {"type": "node", "id": 441907436, "tags": {"addr:city": "Pragersko", "addr:postcode": "2331", "addr:street": "Kolodvorska ulica", "electrified": "contact_line", "name": "Pragersko", "name:de": "Pragerhof", "name:ru": "\u041f\u0440\u0430\u0433\u0435\u0440\u0441\u043a\u043e", "name:sl": "Pragersko", "railway": "station"}}, "geometry": {"type": "Point", "coordinates": [15.6621543, 46.3953192]}}, {"type": "Feature", "properties": {"type": "node", "id": 1845623865, "tags": {"name": "\u0160ikole", "name:de": "Schikolla", "name:sl": "\u0160ikole", "railway": "station", "wikidata": "Q88785911"}}, "geometry": {"type": "Point", "coordinates": [15.696952, 46.4009826]}}, {"type": "Feature", "properties": {"type": "node", "id": 1845630127, "tags": {"name": "Cirkovce", "name:de": "Zirkovetz", "name:ru": "\u0426\u0438\u0440\u043a\u043e\u0432\u0446\u0435", "name:sl": "Cirkovce", "railway": "station"}}, "geometry": {"type": "Point", "coordinates": [15.7242415, 46.4009113]}}, {"type": "Feature", "properties": {"type": "node", "id": 259631722, "tags": {"name": "Ra\u010de", "railway": "station", "wikidata": "Q12807520"}}, "geometry": {"type": "Point", "coordinates": [15.6638728, 46.4529882]}}, {"type": "Feature", "properties": {"type": "node", "id": 43512621, "tags": {"name": "Orehova vas", "railway": "station"}}, "geometry": {"type": "Point", "coordinates": [15.6634557, 46.4733885]}}, {"type": "Feature", "properties": {"type": "node", "id": 5682658562, "tags": {"name": "Ho\u010de", "operator": "S\u017d Infrastruktura", "railway": "station"}}, "geometry": {"type": "Point", "coordinates": [15.6629084, 46.501003]}}, {"type": "Feature", "properties": {"type": "node", "id": 1166182487, "tags": {"name": "Maribor Tezno", "public_transport": "stop_position", "train": "yes"}}, "geometry": {"type": "Point", "coordinates": [15.6510953, 46.5390027]}}, {"type": "Feature", "properties": {"type": "node", "id": 1821613175, "tags": {"name": "Maribor Tezno", "public_transport": "stop_position", "train": "yes"}}, "geometry": {"type": "Point", "coordinates": [15.6511599, 46.5390158]}}, {"type": "Feature", "properties": {"type": "node", "id": 5610972924, "tags": {"name": "Maribor Tezno", "operator": "S\u017d Infrastruktura", "railway": "station", "railway:position": "591.3", "uic_name": "Maribor Tezno", "uic_ref": "7900234", "wheelchair": "yes", "wikidata": "Q12807505"}}, "geometry": {"type": "Point", "coordinates": [15.6511389, 46.5389888]}}, {"type": "Feature", "properties": {"type": "node", "id": 1845618942, "tags": {"name": "Maribor Sokolska", "operator": "S\u017d Infrastruktura", "public_transport": "stop_position", "railway": "halt", "railway:position": "2.6", "train": "yes", "uic_name": "Maribor Sokolska", "uic_ref": "7900111"}}, "geometry": {"type": "Point", "coordinates": [15.6246923, 46.5565191]}}, {"type": "Feature", "properties": {"type": "node", "id": 5610972933, "tags": {"name": "Maribor Studenci", "operator": "S\u017d Infrastruktura", "railway": "station", "railway:position": "1.9", "uic_name": "Maribor Studenci", "uic_ref": "7900148", "wikidata": "Q12807503"}}, "geometry": {"type": "Point", "coordinates": [15.634815, 46.5541994]}}, {"type": "Feature", "properties": {"type": "node", "id": 1845618952, "tags": {"name": "Maribor Tabor", "public_transport": "stop_position", "train": "yes"}}, "geometry": {"type": "Point", "coordinates": [15.6454373, 46.5517217]}}, {"type": "Feature", "properties": {"type": "node", "id": 5610972934, "tags": {"name": "Maribor Tabor", "public_transport": "stop_position", "train": "yes"}}, "geometry": {"type": "Point", "coordinates": [15.6454103, 46.5516784]}}, {"type": "Feature", "properties": {"type": "node", "id": 259632604, "tags": {"name": "Maribor", "public_transport": "stop_position", "ref": "1", "train": "yes"}}, "geometry": {"type": "Point", "coordinates": [15.6580509, 46.5621002]}}, {"type": "Feature", "properties": {"type": "node", "id": 5610972925, "tags": {"name": "Maribor", "public_transport": "stop_position", "ref": "3", "train": "yes"}}, "geometry": {"type": "Point", "coordinates": [15.6582734, 46.5620379]}}, {"type": "Feature", "properties": {"type": "node", "id": 5610972926, "tags": {"name": "Maribor", "public_transport": "stop_position", "ref": "2", "train": "yes"}}, "geometry": {"type": "Point", "coordinates": [15.6581118, 46.5620839]}}, {"type": "Feature", "properties": {"type": "node", "id": 5610972932, "tags": {"name": "Maribor", "name:de": "Marburg Hbf", "operator": "S\u017d Infrastruktura", "railway": "station", "railway:position": "593.9/-0.7", "railway:ref:\u00d6BB": "Mbo", "wikidata": "Q6762546", "wikipedia:sl": "\u017delezni\u0161ka postaja Maribor"}}, "geometry": {"type": "Point", "coordinates": [15.6581119, 46.5619513]}}, {"type": "Feature", "properties": {"type": "node", "id": 5682616370, "tags": {"name": "Kidri\u010devo", "name:ru": "\u041a\u0438\u0434\u0440\u0438\u0447\u0435\u0432\u043e", "name:sl": "Kidri\u010devo", "operator": "S\u017d Infrastruktura", "railway": "station", "wikidata": "Q12807492", "wikipedia": "sl:\u017delezni\u0161ka postaja Kidri\u010devo"}}, "geometry": {"type": "Point", "coordinates": [15.8003126, 46.4006725]}}, {"type": "Feature", "properties": {"type": "node", "id": 1836797103, "tags": {"name": "Ptuj", "name:de": "Pettau", "name:la": "Poetovium", "name:sl": "Ptuj", "public_transport": "station", "railway": "station", "wheelchair": "yes", "wikidata": "Q11042692", "wikipedia": "sl:\u017delezni\u0161ka postaja Ptuj"}}, "geometry": {"type": "Point", "coordinates": [15.8789467, 46.4223122]}}, {"type": "Feature", "properties": {"type": "node", "id": 5682608008, "tags": {"name": "Mo\u0161kanjci", "operator": "S\u017d Infrastruktura", "railway": "station"}}, "geometry": {"type": "Point", "coordinates": [15.9836802, 46.4233568]}}, {"type": "Feature", "properties": {"type": "node", "id": 1867216570, "tags": {"name": "Oslu\u0161evci", "railway": "station", "wikidata": "Q88799074"}}, "geometry": {"type": "Point", "coordinates": [16.0484498, 46.4194769]}}, {"type": "Feature", "properties": {"type": "node", "id": 1836805689, "tags": {"name": "Ormo\u017e", "public_transport": "station", "railway": "station", "train": "yes", "uic_name": "Ormoz", "uic_ref": "7900026", "wikidata": "Q7103472", "wikipedia": "sl:\u017delezni\u0161ka postaja Ormo\u017e"}}, "geometry": {"type": "Point", "coordinates": [16.1568663, 46.4027166]}}, {"type": "Feature", "properties": {"type": "node", "id": 1867224261, "tags": {"name": "Ivanjkovci", "railway": "station", "uic_name": "Ivanjkovci", "uic_ref": "7900119", "wikidata": "Q88803710"}}, "geometry": {"type": "Point", "coordinates": [16.1566456, 46.4587259]}}, {"type": "Feature", "properties": {"type": "node", "id": 1867221185, "tags": {"name": "Sredi\u0161\u010de", "public_transport": "stop_position", "railway": "station", "uic_name": "Sredisce", "uic_ref": "7900066", "wikidata": "Q19938299", "wikipedia": "sl:\u017delezni\u0161ka postaja Sredi\u0161\u010de"}}, "geometry": {"type": "Point", "coordinates": [16.2771071, 46.3890968]}}, {"type": "Feature", "properties": {"type": "node", "id": 3663762936, "tags": {"name": "Ljutomer", "railway": "station", "uic_name": "Ljutomer", "uic_ref": "7900065", "wikidata": "Q6661022", "wikipedia": "sl:\u017delezni\u0161ka postaja Ljutomer"}}, "geometry": {"type": "Point", "coordinates": [16.1891773, 46.5286124]}}, {"type": "Feature", "properties": {"type": "node", "id": 3898381599, "tags": {"name": "Lendava / Lendva", "name:hu": "Lendva", "name:ru": "\u041b\u0435\u043d\u0434\u0430\u0432\u0430", "name:sl": "Lendava", "operator": "S\u017d Infrastruktura", "public_transport": "stop_position", "railway": "station", "train": "yes", "wikidata": "Q12807495", "wikipedia": "sl:\u017delezni\u0161ka postaja Lendava"}}, "geometry": {"type": "Point", "coordinates": [16.4461911, 46.5566262]}}, {"type": "Feature", "properties": {"type": "node", "id": 5658320713, "tags": {"name": "Dravograd", "name:de": "Unterdrauburg", "name:sl": "Dravograd", "railway": "station", "wikidata": "Q5305970", "wikipedia:sl": "\u017delezni\u0161ka postaja Dravograd"}}, "geometry": {"type": "Point", "coordinates": [15.02661, 46.5870594]}}, {"type": "Feature", "properties": {"type": "node", "id": 1304776878, "tags": {"name": "Vuzenica", "name:de": "Saldenhofen", "name:ru": "\u0412\u0443\u0437\u0435\u043d\u0438\u0446\u0430", "name:sl": "Vuzenica", "railway": "station", "uic_name": "Vuzenica", "uic_ref": "7900251"}}, "geometry": {"type": "Point", "coordinates": [15.1585484, 46.5936927]}}, {"type": "Feature", "properties": {"type": "node", "id": 1304777206, "tags": {"name": "Vuhred", "name:ru": "\u0412\u0443\u0440\u0445\u0435\u0434", "railway": "station", "uic_ref": "7900053", "wikidata": "Q12807530"}}, "geometry": {"type": "Point", "coordinates": [15.2358947, 46.5965407]}}, {"type": "Feature", "properties": {"type": "node", "id": 403272403, "tags": {"name": "Vuhred elektrarna", "railway": "station", "uic_name": "Vuhred elektrarna", "uic_ref": "7900250"}}, "geometry": {"type": "Point", "coordinates": [15.2798772, 46.5865069]}}, {"type": "Feature", "properties": {"type": "node", "id": 385808108, "tags": {"name": "Podvelka", "name:de": "Podw\u00f6lling", "name:ru": "\u041f\u043e\u0434\u0432\u0435\u043b\u043a\u0430", "name:sl": "Podvelka", "railway": "station", "wikidata": "Q12807513", "wikipedia": "sl:\u017delezni\u0161ka postaja Podvelka"}}, "geometry": {"type": "Point", "coordinates": [15.3305933, 46.5906343]}}, {"type": "Feature", "properties": {"type": "node", "id": 5682631227, "tags": {"name": "Pesnica", "name:de": "P\u00f6\u00dfnitzhofen", "public_transport": "station", "railway": "station"}}, "geometry": {"type": "Point", "coordinates": [15.6804796, 46.6098748]}}, {"type": "Feature", "properties": {"type": "node", "id": 5682644396, "tags": {"alt_name:de": "St. Ilgen", "name": "\u0160entilj", "name:de": "St. Egidi in Windischb\u00fcheln", "name:sl": "\u0160entilj", "operator": "S\u017d Infrastruktura", "railway": "station", "railway:ref:\u00d6BB": "Sej", "uic_name": "Sentilj", "uic_ref": "7900064"}}, "geometry": {"type": "Point", "coordinates": [15.6580221, 46.6743455]}}, {"type": "Feature", "properties": {"type": "node", "id": 364926662, "tags": {"name": "Lipovci", "railway": "station"}}, "geometry": {"type": "Point", "coordinates": [16.2113201, 46.6230969]}}, {"type": "Feature", "properties": {"type": "node", "id": 1867237282, "tags": {"name": "Murska Sobota", "name:de": "Olsnitz", "name:sl": "Murska Sobota", "public_transport": "station", "railway": "station", "uic_name": "Murska Sobota", "uic_ref": "7900033", "wikidata": "Q6939694", "wikipedia": "sl:\u017delezni\u0161ka postaja Murska Sobota"}}, "geometry": {"type": "Point", "coordinates": [16.1718768, 46.6594852]}}, {"type": "Feature", "properties": {"type": "node", "id": 620742908, "tags": {"name": "Dankovci", "public_transport": "station", "railway": "station", "train": "yes"}}, "geometry": {"type": "Point", "coordinates": [16.1619298, 46.768968]}}, {"type": "Feature", "properties": {"type": "node", "id": 7567272040, "tags": {"name": "Mackovci", "public_transport": "stop_position", "railway": "stop", "train": "yes"}}, "geometry": {"type": "Point", "coordinates": [16.1647056, 46.7831349]}}, {"type": "Feature", "properties": {"type": "node", "id": 1867245139, "tags": {"name": "Hodo\u0161 / Hodos", "name:de": "Hodosch", "name:hu": "Hodos", "name:sl": "Hodo\u0161", "public_transport": "stop_position", "railway": "stop", "ref": "3", "train": "yes"}}, "geometry": {"type": "Point", "coordinates": [16.3291923, 46.820118]}}, {"type": "Feature", "properties": {"type": "node", "id": 2426201820, "tags": {"name": "Hodo\u0161 / Hodos", "name:de": "Hodosch", "name:hu": "Hodos", "name:sl": "Hodo\u0161", "public_transport": "stop_position", "railway": "stop", "ref": "2", "train": "yes"}}, "geometry": {"type": "Point", "coordinates": [16.329203, 46.8202072]}}, {"type": "Feature", "properties": {"type": "node", "id": 2426201821, "tags": {"name": "Hodo\u0161 / Hodos", "name:de": "Hodosch", "name:hu": "Hodos", "name:sl": "Hodo\u0161", "public_transport": "stop_position", "railway": "stop", "ref": "1", "train": "yes"}}, "geometry": {"type": "Point", "coordinates": [16.3292055, 46.8202374]}}, {"type": "Feature", "properties": {"type": "node", "id": 7351254917, "tags": {"name": "Hodo\u0161 / Hodos", "name:de": "Hodosch", "name:hu": "Hodos", "name:sl": "Hodo\u0161", "public_transport": "station", "railway": "station", "uic_name": "Hodos", "uic_ref": "7900279", "wikidata": "Q5876307", "wikipedia": "sl:\u017delezni\u0161ka postaja Hodo\u0161"}}, "geometry": {"type": "Point", "coordinates": [16.3291302, 46.8201655]}}]}