{"version": 0.6, "generator": "Overpass API 0.7.56.7 b85c4387", "osm3s": {"timestamp_osm_base": "2021-03-01T09:33:12Z", "timestamp_areas_base": "2021-03-01T08:54:37Z", "copyright": "The data included in this document is from www.openstreetmap.org. The data is made available under ODbL."}, "elements": [{"type": "node", "id": 849526722, "lat": 46.1787133, "lon": 6.0001352, "tags": {"name": "La Plaine", "network": "Unireso", "operator": "CFF", "public_transport": "stop_position", "railway": "stop", "train": "yes", "uic_name": "La Plaine", "uic_ref": "8501001"}}, {"type": "node", "id": 3059714407, "lat": 46.1786426, "lon": 5.9998408, "tags": {"ele": "356", "name": "La Plaine", "operator": "SBB", "public_transport": "station", "railway": "station", "uic_name": "La Plaine", "uic_ref": "8501001", "url": "https://www.sbb.ch/fr/gare-services/gares/autres-gares/gare.1001.plaine-la.html", "wikidata": "Q3096800"}}, {"type": "node", "id": 36464579, "lat": 46.1880479, "lon": 6.0177736, "tags": {"name": "Russin", "network": "Unireso", "operator": "CFF", "public_transport": "stop_position", "railway": "stop", "train": "yes"}}, {"type": "node", "id": 849526790, "lat": 46.1880424, "lon": 6.0178204, "tags": {"name": "Russin", "network": "Unireso", "operator": "CFF", "public_transport": "stop_position", "railway": "stop", "train": "yes"}}, {"type": "node", "id": 3059714408, "lat": 46.1877668, "lon": 6.0175136, "tags": {"addr:city": "Russin", "addr:housenumber": "21", "addr:street": "Chemin des Christophes", "ele": "377", "name": "Russin", "operator": "SBB", "railway": "station", "uic_name": "Russin", "uic_ref": "8501002", "wikidata": "Q15953342", "wikimedia_commons": "Category:Russin train station", "wikipedia": "fr:Gare de Russin"}}, {"type": "node", "id": 36464618, "lat": 46.2141646, "lon": 6.0375201, "tags": {"ele": "414", "name": "Satigny", "network": "Unireso", "operator": "CFF", "public_transport": "stop_position", "railway": "stop", "train": "yes", "uic_name": "Satigny", "uic_ref": "8501003"}}, {"type": "node", "id": 849526921, "lat": 46.2141369, "lon": 6.0375494, "tags": {"ele": "414", "name": "Satigny", "network": "Unireso", "operator": "CFF", "public_transport": "stop_position", "railway": "stop", "train": "yes", "uic_name": "Satigny", "uic_ref": "8501003"}}, {"type": "node", "id": 3057742964, "lat": 46.2211998, "lon": 6.0657547, "tags": {"ele": "429", "name": "Zimeysa", "network": "Unireso", "operator": "CFF", "public_transport": "stop_position", "railway": "stop", "train": "yes", "uic_name": "Zimeysa", "uic_ref": "8501000"}}, {"type": "node", "id": 5895997486, "lat": 46.2212331, "lon": 6.065748, "tags": {"ele": "429", "name": "Zimeysa", "network": "Unireso", "operator": "CFF", "public_transport": "stop_position", "railway": "stop", "train": "yes", "uic_name": "Zimeysa", "uic_ref": "8501000"}}, {"type": "node", "id": 1549450891, "lat": 46.2223433, "lon": 6.0768053, "tags": {"name": "Meyrin", "network": "Unireso", "operator": "CFF", "public_transport": "stop_position", "railway": "stop", "train": "yes"}}, {"type": "node", "id": 2754246077, "lat": 46.2223106, "lon": 6.0767973, "tags": {"name": "Meyrin", "network": "Unireso", "operator": "CFF", "public_transport": "stop_position", "railway": "stop", "train": "yes"}}, {"type": "node", "id": 6363172611, "lat": 46.1742543, "lon": 6.1295279, "tags": {"name": "Lancy-Bachet", "network": "Unireso", "operator": "CFF", "public_transport": "stop_position", "railway": "stop", "train": "yes"}}, {"type": "node", "id": 6363172612, "lat": 46.1742849, "lon": 6.1295635, "tags": {"name": "Lancy-Bachet", "network": "Unireso", "operator": "CFF", "public_transport": "stop_position", "railway": "stop", "train": "yes"}}, {"type": "node", "id": 3060828206, "lat": 46.1869666, "lon": 6.1251674, "tags": {"ele": "384", "name": "Lancy-Pont-Rouge", "operator": "SBB", "public_transport": "station", "railway": "station", "railway:ref": "LAPR", "train": "yes", "uic_name": "Lancy-Pont-Rouge", "uic_ref": "8516155", "wikidata": "Q1583893"}}, {"type": "node", "id": 3070377721, "lat": 46.186972, "lon": 6.1250932, "tags": {"name": "Lancy-Pont-Rouge", "network": "Unireso", "operator": "CFF", "public_transport": "stop_position", "railway": "stop", "train": "yes"}}, {"type": "node", "id": 7079478872, "lat": 46.1869563, "lon": 6.1252694, "tags": {"name": "Lancy-Pont-Rouge", "network": "Unireso", "operator": "CFF", "public_transport": "stop_position", "railway": "stop", "train": "yes"}}, {"type": "node", "id": 7079478873, "lat": 46.1926097, "lon": 6.1537632, "tags": {"name": "Gen\u00e8ve-Champel", "network": "Unireso", "operator": "CFF", "public_transport": "stop_position", "railway": "stop", "train": "yes"}}, {"type": "node", "id": 7079478883, "lat": 46.1925978, "lon": 6.1538076, "tags": {"name": "Gen\u00e8ve-Champel", "network": "Unireso", "operator": "CFF", "public_transport": "stop_position", "railway": "stop", "train": "yes"}}, {"type": "node", "id": 6044426066, "lat": 46.200523, "lon": 6.1648206, "tags": {"name": "Gen\u00e8ve-Eaux-Vives", "network": "ch-direct", "operator": "SBB", "public_transport": "station", "railway": "station", "railway:ref": "GEV", "train": "yes", "uic_name": "Gen\u00e8ve-Eaux-Vives", "uic_ref": "8516273", "wikidata": "Q3098155", "wikipedia": "fr:Gare de Gen\u00e8ve-Eaux-Vives"}}, {"type": "node", "id": 7079478874, "lat": 46.2015169, "lon": 6.1664896, "tags": {"name": "Gen\u00e8ve-Eaux-Vives", "network": "Unireso", "operator": "CFF", "public_transport": "stop_position", "railway": "stop", "train": "yes"}}, {"type": "node", "id": 7079478884, "lat": 46.2014197, "lon": 6.1666138, "tags": {"name": "Gen\u00e8ve-Eaux-Vives", "network": "Unireso", "operator": "CFF", "public_transport": "stop_position", "railway": "stop", "train": "yes"}}, {"type": "node", "id": 1549450885, "lat": 46.220747, "lon": 6.0936117, "tags": {"name": "Vernier", "network": "Unireso", "operator": "CFF", "public_transport": "stop_position", "railway": "stop", "train": "yes"}}, {"type": "node", "id": 847579059, "lat": 46.2203952, "lon": 6.0948834, "tags": {"name": "Vernier", "network": "Unireso", "operator": "CFF", "public_transport": "stop_position", "railway": "stop", "train": "yes"}}, {"type": "node", "id": 2388447150, "lat": 46.2313343, "lon": 6.1102707, "tags": {"ele": "424", "internet_access": "wlan", "internet_access:fee": "no", "internet_access:operator": "SBB", "name": "Gen\u00e8ve-A\u00e9roport", "name:de": "Genf Flughafen", "name:zh": "\u65e5\u5185\u74e6\u673a\u573a\u706b\u8f66\u7ad9", "operator": "SBB", "public_transport": "station", "railway": "station", "railway:ref": "GEAP", "uic_name": "Gen\u00e8ve-A\u00e9roport", "uic_ref": "8501026", "wheelchair": "yes", "wikidata": "Q677158"}}, {"type": "node", "id": 3253249815, "lat": 46.2323509, "lon": 6.1120773, "tags": {"layer": "-2", "local_ref": "4", "name": "Gen\u00e8ve-A\u00e9roport", "name:de": "Genf Flughafen", "public_transport": "stop_position", "train": "yes"}}, {"type": "node", "id": 3253249816, "lat": 46.2329971, "lon": 6.1127693, "tags": {"layer": "-2", "local_ref": "3", "name": "Gen\u00e8ve-A\u00e9roport", "name:de": "Genf Flughafen", "public_transport": "stop_position", "train": "yes"}}, {"type": "node", "id": 3253249817, "lat": 46.2324835, "lon": 6.1119203, "tags": {"layer": "-2", "local_ref": "2", "name": "Gen\u00e8ve-A\u00e9roport", "name:de": "Genf Flughafen", "public_transport": "stop_position", "train": "yes"}}, {"type": "node", "id": 3253249818, "lat": 46.2325785, "lon": 6.1118105, "tags": {"layer": "-2", "local_ref": "1", "name": "Gen\u00e8ve-A\u00e9roport", "name:de": "Genf Flughafen", "public_transport": "stop_position", "train": "yes"}}, {"type": "node", "id": 25654732, "lat": 46.2105434, "lon": 6.1419879, "tags": {"name": "Gen\u00e8ve-Cornavin", "name:de": "Genf", "network": "Unireso", "operator": "CFF", "public_transport": "stop_position", "railway": "stop", "train": "yes"}}, {"type": "node", "id": 2388447154, "lat": 46.210423, "lon": 6.142213, "tags": {"name": "Gen\u00e8ve-Cornavin", "name:de": "Genf", "network": "Unireso", "operator": "CFF", "public_transport": "stop_position", "railway": "stop", "train": "yes"}}, {"type": "node", "id": 2388447156, "lat": 46.210562, "lon": 6.1419408, "tags": {"name": "Gen\u00e8ve-Cornavin", "name:de": "Genf", "network": "Unireso", "operator": "CFF", "public_transport": "stop_position", "railway": "stop", "train": "yes"}}, {"type": "node", "id": 2388447157, "lat": 46.2106577, "lon": 6.1418048, "tags": {"name": "Gen\u00e8ve-Cornavin", "name:de": "Genf", "network": "Unireso", "operator": "CFF", "public_transport": "stop_position", "railway": "stop", "train": "yes"}}, {"type": "node", "id": 4890696636, "lat": 46.2102288, "lon": 6.1426218, "tags": {"addr:city": "Gen\u00e8ve", "alt_name": "Gen\u00e8ve-Cornavin", "ele": "392", "internet_access": "wlan", "internet_access:fee": "no", "internet_access:operator": "SBB", "name": "Gen\u00e8ve", "name:ar": "\u062c\u0646\u064a\u0641", "name:azb": "\u0698\u0646\u0648", "name:de": "Genf Hauptbahnhof", "name:en": "Geneva Railway Station", "name:fa": "\u0698\u0646\u0648", "name:kk-Arab": "\u062c\u06d5\u0646\u06d5\u06c6\u0627", "name:pnb": "\u062c\u0646\u06cc\u0648\u0627", "name:sd": "\u062c\u0646\u064a\u0648\u0627", "name:ur": "\u062c\u0646\u06cc\u0648\u0627", "name:zh": "\u65e5\u5185\u74e6\u706b\u8f66\u7ad9", "network": "Unireso", "operator": "CFF", "public_transport": "station", "railway": "station", "railway:ref": "GE", "train": "yes", "uic_name": "Gen\u00e8ve", "uic_ref": "8501008", "wheelchair": "yes", "wikidata": "Q800819", "wikipedia": "fr:Gare de Gen\u00e8ve-Cornavin"}}, {"type": "node", "id": 7079478871, "lat": 46.2103204, "lon": 6.1424332, "tags": {"name": "Gen\u00e8ve-Cornavin", "name:de": "Genf", "network": "Unireso", "operator": "CFF", "public_transport": "stop_position", "railway": "stop", "train": "yes"}}, {"type": "node", "id": 7079478882, "lat": 46.2103407, "lon": 6.1423854, "tags": {"name": "Gen\u00e8ve-Cornavin", "name:de": "Genf", "network": "Unireso", "operator": "CFF", "public_transport": "stop_position", "railway": "stop", "train": "yes"}}, {"type": "node", "id": 7185444024, "lat": 46.2104002, "lon": 6.1422567, "tags": {"name": "Gen\u00e8ve-Cornavin", "name:de": "Genf", "network": "Unireso", "operator": "CFF", "public_transport": "stop_position", "railway": "stop", "train": "yes"}}, {"type": "node", "id": 7079478881, "lat": 46.2229005, "lon": 6.1446423, "tags": {"name": "Gen\u00e8ve-S\u00e9cheron", "network": "Unireso", "operator": "CFF", "public_transport": "stop_position", "railway": "stop", "train": "yes"}}, {"type": "node", "id": 7074570194, "lat": 46.2411319, "lon": 6.1473446, "tags": {"name": "Chamb\u00e9sy", "network": "Unireso", "operator": "CFF", "public_transport": "stop_position", "railway": "stop", "train": "yes"}}, {"type": "node", "id": 7074570195, "lat": 46.2411324, "lon": 6.1474778, "tags": {"name": "Chamb\u00e9sy", "operator": "SBB CFF FFS", "public_transport": "stop_position", "railway": "stop", "train": "yes"}}, {"type": "node", "id": 298130773, "lat": 46.2499732, "lon": 6.1472723, "tags": {"name": "Les Tuileries", "network": "Unireso", "operator": "CFF", "public_transport": "stop_position", "railway": "stop", "train": "yes"}}, {"type": "node", "id": 33308021, "lat": 46.2567778, "lon": 6.1539034, "tags": {"name": "Genthod-Bellevue", "network": "Unireso", "operator": "CFF", "public_transport": "stop_position", "railway": "stop", "train": "yes"}}, {"type": "node", "id": 7079478875, "lat": 46.1966235, "lon": 6.1972547, "tags": {"name": "Ch\u00eane-Bourg", "network": "Unireso", "operator": "CFF", "public_transport": "stop_position", "railway": "stop", "train": "yes"}}, {"type": "node", "id": 7079500185, "lat": 46.1965908, "lon": 6.1972499, "tags": {"name": "Ch\u00eane-Bourg", "network": "Unireso", "operator": "CFF", "public_transport": "stop_position", "railway": "stop", "train": "yes"}}, {"type": "node", "id": 7079478870, "lat": 46.2642092, "lon": 6.1614285, "tags": {"name": "Creux-de-Genthod", "network": "Unireso", "operator": "CFF", "public_transport": "stop_position", "railway": "stop", "train": "yes"}}, {"type": "node", "id": 7079478880, "lat": 46.2641876, "lon": 6.1615333, "tags": {"name": "Creux-de-Genthod", "network": "Unireso", "operator": "CFF", "public_transport": "stop_position", "railway": "stop", "train": "yes"}}, {"type": "node", "id": 33307187, "lat": 46.27973, "lon": 6.165627, "tags": {"name": "Versoix", "network": "Unireso", "operator": "CFF", "public_transport": "stop_position", "railway": "stop", "train": "yes"}}, {"type": "node", "id": 3053167580, "lat": 46.2797404, "lon": 6.1658051, "tags": {"ele": "388", "internet_access": "no", "name": "Versoix", "operator": "SBB", "public_transport": "station", "railway": "station", "railway:ref": "VSX", "uic_name": "Versoix", "uic_ref": "8501022", "wikidata": "Q5847444"}}, {"type": "node", "id": 7079478879, "lat": 46.2874371, "lon": 6.1626, "tags": {"name": "Pont-C\u00e9ard", "network": "Unireso", "operator": "CFF", "public_transport": "stop_position", "railway": "stop", "train": "yes"}}, {"type": "node", "id": 6899847041, "lat": 46.2987929, "lon": 6.1683195, "tags": {"name": "Mies", "network": "Unireso", "operator": "CFF", "public_transport": "stop_position", "railway": "stop", "train": "yes"}}, {"type": "node", "id": 7079478869, "lat": 46.2988549, "lon": 6.1682184, "tags": {"name": "Mies", "network": "Unireso", "operator": "CFF", "public_transport": "stop_position", "railway": "stop", "train": "yes"}}, {"type": "node", "id": 7079478877, "lat": 46.3074788, "lon": 6.180887, "tags": {"name": "Tannay", "network": "Unireso", "operator": "CFF", "public_transport": "stop_position", "railway": "stop", "train": "yes"}}, {"type": "node", "id": 3052044268, "lat": 46.3172872, "lon": 6.1878952, "tags": {"ele": "394", "name": "Coppet", "operator": "SBB", "public_transport": "station", "railway": "station", "railway:ref": "COP", "uic_name": "Coppet", "uic_ref": "8501023", "wikidata": "Q5846075"}}, {"type": "node", "id": 7079478876, "lat": 46.317142, "lon": 6.1876788, "tags": {"name": "Coppet", "network": "Unireso", "operator": "CFF", "public_transport": "stop_position", "railway": "stop", "train": "yes"}}, {"type": "node", "id": 3037883083, "lat": 46.4652943, "lon": 6.0734899, "tags": {"ele": "1155", "name": "La Cure", "operator": "NStCM", "railway": "station", "uic_name": "La Cure", "uic_ref": "8501060", "wikidata": "Q33441925"}}, {"type": "node", "id": 3037883084, "lat": 46.4484863, "lon": 6.160171, "tags": {"addr:city": "Saint-Cergue", "addr:housenumber": "13", "addr:postcode": "1264", "addr:street": "Rue de la Gare", "ele": "1047", "name": "St-Cergue", "operator": "NStCM", "public_transport": "station", "railway": "station", "railway:ref": "STCE", "uic_name": "St-Cergue", "uic_ref": "8501062", "website": "http://www.bustpn.ch/", "wikidata": "Q33441972"}}, {"type": "node", "id": 5148276768, "lat": 46.3843115, "lon": 6.2359925, "tags": {"ele": "406", "internet_access": "wlan", "internet_access:fee": "no", "internet_access:operator": "SBB", "name": "Nyon", "operator": "SBB", "public_transport": "station", "railway": "station", "uic_name": "Nyon", "uic_ref": "8501030", "wheelchair": "yes", "wikidata": "Q8841131"}}, {"type": "node", "id": 1390495818, "lat": 46.413584, "lon": 6.2062822, "tags": {"ele": "501", "name": "Tr\u00e9lex", "operator": "NStCM", "railway": "station", "railway:ref": "TREL", "uic_name": "Tr\u00e9lex", "uic_ref": "8501068", "wikidata": "Q33442108"}}, {"type": "node", "id": 3038931613, "lat": 46.4289294, "lon": 6.2051635, "tags": {"ele": "554", "name": "Givrins", "operator": "NStCM", "railway": "station", "railway:ref": "GIVI", "uic_name": "Givrins", "uic_ref": "8501067", "wikidata": "Q33442086"}}, {"type": "node", "id": 1941309430, "lat": 46.4365341, "lon": 6.2147079, "tags": {"ele": "562", "name": "Genolier", "operator": "NStCM", "railway": "station", "railway:ref": "GEN", "uic_name": "Genolier", "uic_ref": "8501066", "wikidata": "Q33442062"}}, {"type": "node", "id": 2284793595, "lat": 46.4586477, "lon": 6.211465, "tags": {"ele": "842", "name": "Arzier", "operator": "NStCM", "platforms": "2", "railway": "station", "railway:ref": "ARZ", "uic_name": "Arzier", "uic_ref": "8501063", "wikidata": "Q33441993"}}, {"type": "node", "id": 3038931614, "lat": 46.4541869, "lon": 6.2154864, "tags": {"ele": "715", "name": "Le Muids", "operator": "NStCM", "railway": "station", "railway:ref": "MUI", "uic_name": "Le Muids", "uic_ref": "8501065", "wikidata": "Q33442038"}}, {"type": "node", "id": 3035352284, "lat": 46.4200054, "lon": 6.2690993, "tags": {"ele": "415", "name": "Gland", "operator": "SBB", "railway": "station", "railway:ref": "GLA", "uic_name": "Gland", "uic_ref": "8501031", "wikidata": "Q8779843"}}, {"type": "node", "id": 3025234417, "lat": 46.4628286, "lon": 6.3364226, "tags": {"ele": "402", "name": "Rolle", "operator": "SBB", "railway": "station", "railway:ref": "ROL", "uic_name": "Rolle", "uic_ref": "8501033", "wikidata": "Q8841638"}}, {"type": "node", "id": 7297173561, "lat": 46.4627528, "lon": 6.3366095, "tags": {"local_ref": "2", "name": "Rolle", "network": "Mobilis", "network:wikidata": "Q2394222", "operator": "SBB", "public_transport": "stop_position", "railway": "stop", "train": "yes", "uic_name": "Rolle", "uic_ref": "8501033"}}, {"type": "node", "id": 7297173562, "lat": 46.4627812, "lon": 6.3365736, "tags": {"local_ref": "1", "name": "Rolle", "network": "Mobilis", "network:wikidata": "Q2394222", "operator": "SBB", "public_transport": "stop_position", "railway": "stop", "train": "yes", "uic_name": "Rolle", "uic_ref": "8501033"}}, {"type": "node", "id": 308165414, "lat": 46.5375073, "lon": 6.3369299, "tags": {"ele": "694", "name": "Bi\u00e8re", "operator": "MBC", "railway": "station", "uic_name": "Bi\u00e8re", "uic_ref": "8501096", "wikidata": "Q3095999"}}, {"type": "node", "id": 286044718, "lat": 46.5522903, "lon": 6.3744376, "tags": {"ele": "713", "name": "Ballens", "operator": "MBC", "railway": "station", "uic_name": "Ballens", "uic_ref": "8501095", "wikidata": "Q33442463"}}, {"type": "node", "id": 33307297, "lat": 46.4755974, "lon": 6.399522, "tags": {"local_ref": "2", "name": "Allaman", "network": "Mobilis", "network:wikidata": "Q2394222", "operator": "SBB", "public_transport": "stop_position", "train": "yes", "uic_name": "Allaman", "uic_ref": "8501035"}}, {"type": "node", "id": 1751652840, "lat": 46.475635, "lon": 6.3995022, "tags": {"local_ref": "1", "name": "Allaman", "network": "Mobilis", "network:wikidata": "Q2394222", "operator": "SBB", "public_transport": "stop_position", "train": "yes", "uic_name": "Allaman", "uic_ref": "8501035"}}, {"type": "node", "id": 3022131191, "lat": 46.4757782, "lon": 6.3996823, "tags": {"ele": "422", "name": "Allaman", "operator": "SBB", "public_transport": "station", "railway": "station", "railway:ref": "ALL", "train": "yes", "uic_name": "Allaman", "uic_ref": "8501035", "wikidata": "Q10947344"}}, {"type": "node", "id": 7297173565, "lat": 46.4755079, "lon": 6.3995689, "tags": {"local_ref": "3", "name": "Allaman", "network": "Mobilis", "network:wikidata": "Q2394222", "operator": "SBB", "public_transport": "stop_position", "train": "yes", "uic_name": "Allaman", "uic_ref": "8501035"}}, {"type": "node", "id": 7297173566, "lat": 46.4751444, "lon": 6.4270375, "tags": {"local_ref": "2", "name": "Etoy", "network": "Mobilis", "network:wikidata": "Q2394222", "operator": "SBB", "public_transport": "stop_position", "railway": "stop", "train": "yes", "uic_name": "Etoy", "uic_ref": "8501042"}}, {"type": "node", "id": 7297173567, "lat": 46.4751132, "lon": 6.4270268, "tags": {"local_ref": "1", "name": "Etoy", "network": "Mobilis", "network:wikidata": "Q2394222", "operator": "SBB", "public_transport": "stop_position", "railway": "stop", "train": "yes", "uic_name": "Etoy", "uic_ref": "8501042"}}, {"type": "node", "id": 286044669, "lat": 46.5198897, "lon": 6.4276362, "tags": {"ele": "527", "name": "Yens", "operator": "MBC", "public_transport": "station", "railway": "station", "railway:ref": "YENS", "uic_name": "Yens", "uic_ref": "8501093", "wikidata": "Q33442430"}}, {"type": "node", "id": 3022062409, "lat": 46.482298, "lon": 6.4559654, "tags": {"addr:city": "Saint-Prex", "addr:housenumber": "1", "addr:street": "Place de la Gare", "ele": "395", "name": "St-Prex", "operator": "SBB", "public_transport": "station", "railway": "station", "railway:ref": "STP", "uic_name": "St-Prex", "uic_ref": "8501036", "wikidata": "Q8841673"}}, {"type": "node", "id": 7297173568, "lat": 46.4822718, "lon": 6.455549, "tags": {"local_ref": "3", "name": "St-Prex", "network": "Mobilis", "network:wikidata": "Q2394222", "operator": "SBB", "public_transport": "stop_position", "railway": "stop", "train": "yes", "uic_name": "St-Prex", "uic_ref": "8501036"}}, {"type": "node", "id": 7297173569, "lat": 46.4822179, "lon": 6.4556579, "tags": {"local_ref": "2", "name": "St-Prex", "network": "Mobilis", "network:wikidata": "Q2394222", "operator": "SBB", "public_transport": "stop_position", "railway": "stop", "train": "yes", "uic_name": "St-Prex", "uic_ref": "8501036"}}, {"type": "node", "id": 7297173570, "lat": 46.482197, "lon": 6.4557021, "tags": {"local_ref": "1", "name": "St-Prex", "network": "Mobilis", "network:wikidata": "Q2394222", "operator": "SBB", "public_transport": "stop_position", "railway": "stop", "train": "yes", "uic_name": "St-Prex", "uic_ref": "8501036"}}, {"type": "node", "id": 2388447158, "lat": 46.5112541, "lon": 6.4940099, "tags": {"local_ref": "2", "name": "Morges", "network": "Mobilis", "network:wikidata": "Q2394222", "operator": "SBB", "public_transport": "stop_position", "railway": "stop", "train": "yes", "uic_name": "Morges", "uic_ref": "8501037"}}, {"type": "node", "id": 2388447159, "lat": 46.5113212, "lon": 6.493927, "tags": {"local_ref": "3", "name": "Morges", "network": "Mobilis", "network:wikidata": "Q2394222", "operator": "SBB", "public_transport": "stop_position", "railway": "stop", "train": "yes", "uic_name": "Morges", "uic_ref": "8501037"}}, {"type": "node", "id": 2388447160, "lat": 46.5113567, "lon": 6.4938832, "tags": {"local_ref": "4", "name": "Morges", "network": "Mobilis", "network:wikidata": "Q2394222", "operator": "SBB", "public_transport": "stop_position", "railway": "stop", "train": "yes", "uic_name": "Morges", "uic_ref": "8501037"}}, {"type": "node", "id": 2388447161, "lat": 46.5112699, "lon": 6.4935643, "tags": {"public_transport": "stop_position", "railway": "stop", "train": "yes"}}, {"type": "node", "id": 3081154409, "lat": 46.5110186, "lon": 6.4941304, "tags": {"ele": "381", "internet_access": "wlan", "internet_access:fee": "no", "internet_access:operator": "SBB", "name": "Morges", "operator": "SBB", "public_transport": "station", "railway": "station", "railway:ref": "MOR", "train": "yes", "uic_name": "Morges", "uic_ref": "8501037", "wikidata": "Q2384426"}}, {"type": "node", "id": 7297173571, "lat": 46.5114233, "lon": 6.493801, "tags": {"local_ref": "5", "name": "Morges", "network": "Mobilis", "network:wikidata": "Q2394222", "operator": "SBB", "public_transport": "stop_position", "railway": "stop", "train": "yes", "uic_name": "Morges", "uic_ref": "8501037"}}, {"type": "node", "id": 7297173572, "lat": 46.5112193, "lon": 6.4940528, "tags": {"local_ref": "1", "name": "Morges", "network": "Mobilis", "network:wikidata": "Q2394222", "operator": "SBB", "public_transport": "stop_position", "railway": "stop", "train": "yes", "uic_name": "Morges", "uic_ref": "8501037"}}, {"type": "node", "id": 313698590, "lat": 46.5509387, "lon": 6.4232029, "tags": {"ele": "642", "name": "Apples", "operator": "MBC", "railway": "station", "railway:ref": "APPL", "uic_name": "Apples", "uic_ref": "8501094", "wikidata": "Q3095655"}}, {"type": "node", "id": 3010408570, "lat": 46.5181127, "lon": 6.5081894, "tags": {"ele": "380", "name": "Morges-St-Jean", "operator": "SBB", "public_transport": "station", "railway": "stop", "uic_name": "Morges-St-Jean", "uic_ref": "8501047", "url": "http://www.t-l.ch/images/fla/reseau_tl_resize.html", "wikidata": "Q15964179"}}, {"type": "node", "id": 7297173573, "lat": 46.5180393, "lon": 6.5080752, "tags": {"local_ref": "1", "name": "Morges-St-Jean", "network": "Mobilis", "network:wikidata": "Q2394222", "operator": "SBB", "public_transport": "stop_position", "railway": "stop", "train": "yes", "uic_name": "Morges-St-Jean", "uic_ref": "8501047"}}, {"type": "node", "id": 7297173574, "lat": 46.5180646, "lon": 6.508059, "tags": {"local_ref": "2", "name": "Morges-St-Jean", "network": "Mobilis", "network:wikidata": "Q2394222", "operator": "SBB", "public_transport": "stop_position", "railway": "stop", "train": "yes", "uic_name": "Morges-St-Jean", "uic_ref": "8501047"}}, {"type": "node", "id": 7297173575, "lat": 46.5229456, "lon": 6.5192941, "tags": {"local_ref": "1", "name": "Lonay-Pr\u00e9verenges", "network": "Mobilis", "network:wikidata": "Q2394222", "operator": "SBB", "public_transport": "stop_position", "railway": "stop", "train": "yes", "uic_name": "Lonay-Pr\u00e9verenges", "uic_ref": "8501048"}}, {"type": "node", "id": 7297173576, "lat": 46.5229775, "lon": 6.5192725, "tags": {"local_ref": "2", "name": "Lonay-Pr\u00e9verenges", "network": "Mobilis", "network:wikidata": "Q2394222", "operator": "SBB", "public_transport": "stop_position", "railway": "stop", "train": "yes", "uic_name": "Lonay-Pr\u00e9verenges", "uic_ref": "8501048"}}, {"type": "node", "id": 7297173577, "lat": 46.5290546, "lon": 6.5406295, "tags": {"local_ref": "1", "name": "Denges-Echandens", "network": "Mobilis", "network:wikidata": "Q2394222", "operator": "SBB", "public_transport": "stop_position", "railway": "stop", "train": "yes", "uic_name": "Denges-Echandens", "uic_ref": "8501045"}}, {"type": "node", "id": 7297173578, "lat": 46.529087, "lon": 6.5406082, "tags": {"local_ref": "2", "name": "Denges-Echandens", "network": "Mobilis", "network:wikidata": "Q2394222", "operator": "SBB", "public_transport": "stop_position", "railway": "stop", "train": "yes", "uic_name": "Denges-Echandens", "uic_ref": "8501045"}}, {"type": "node", "id": 1471359424, "lat": 46.5474031, "lon": 6.5517165, "tags": {"local_ref": "4", "name": "Bussigny", "network": "Mobilis", "network:wikidata": "Q2394222", "operator": "SBB", "public_transport": "stop_position", "railway": "stop", "train": "yes", "uic_name": "Bussigny", "uic_ref": "8501117"}}, {"type": "node", "id": 2772059993, "lat": 46.5476466, "lon": 6.5518541, "tags": {"ele": "407", "name": "Bussigny", "operator": "SBB", "public_transport": "station", "railway": "station", "railway:ref": "BY", "uic_name": "Bussigny", "uic_ref": "8501117", "wikidata": "Q16060680"}}, {"type": "node", "id": 2772060113, "lat": 46.5474962, "lon": 6.5517966, "tags": {"local_ref": "3", "name": "Bussigny", "network": "Mobilis", "network:wikidata": "Q2394222", "operator": "SBB", "public_transport": "stop_position", "railway": "stop", "train": "yes", "uic_name": "Bussigny", "uic_ref": "8501117"}}, {"type": "node", "id": 5153454609, "lat": 46.53701, "lon": 6.5789142, "tags": {"ele": "416", "name": "Renens", "operator": "SBB", "public_transport": "station", "railway": "station", "railway:ref": "REN", "uic_name": "Renens VD", "uic_ref": "8501118", "wheelchair": "yes", "wikidata": "Q3097393"}}, {"type": "node", "id": 7297178871, "lat": 46.5372767, "lon": 6.5794794, "tags": {"local_ref": "5", "name": "Renens VD", "network": "Mobilis", "network:wikidata": "Q2394222", "operator": "SBB", "public_transport": "stop_position", "railway": "stop", "train": "yes", "uic_name": "Renens VD", "uic_ref": "8501118"}}, {"type": "node", "id": 7297178872, "lat": 46.5371685, "lon": 6.5793645, "tags": {"local_ref": "4", "name": "Renens VD", "network": "Mobilis", "network:wikidata": "Q2394222", "operator": "SBB", "public_transport": "stop_position", "railway": "stop", "train": "yes", "uic_name": "Renens VD", "uic_ref": "8501118"}}, {"type": "node", "id": 7297178873, "lat": 46.5371376, "lon": 6.5793316, "tags": {"local_ref": "3", "name": "Renens VD", "network": "Mobilis", "network:wikidata": "Q2394222", "operator": "SBB", "public_transport": "stop_position", "railway": "stop", "train": "yes", "uic_name": "Renens VD", "uic_ref": "8501118"}}, {"type": "node", "id": 7297178874, "lat": 46.5370616, "lon": 6.579251, "tags": {"local_ref": "2", "name": "Renens VD", "network": "Mobilis", "network:wikidata": "Q2394222", "operator": "SBB", "public_transport": "stop_position", "railway": "stop", "train": "yes", "uic_name": "Renens VD", "uic_ref": "8501118"}}, {"type": "node", "id": 7297178875, "lat": 46.5370321, "lon": 6.5792197, "tags": {"local_ref": "1", "name": "Renens VD", "network": "Mobilis", "network:wikidata": "Q2394222", "operator": "SBB", "public_transport": "stop_position", "railway": "stop", "train": "yes", "uic_name": "Renens VD", "uic_ref": "8501118"}}, {"type": "node", "id": 2207090144, "lat": 46.5267096, "lon": 6.6025582, "tags": {"ele": "430", "name": "Prilly-Malley", "operator": "SBB", "public_transport": "station", "railway": "station", "railway:ref": "PRMA", "uic_name": "Prilly-Malley", "uic_ref": "8518452", "wheelchair": "yes", "wikidata": "Q3126248"}}, {"type": "node", "id": 7297178865, "lat": 46.5265852, "lon": 6.6026047, "tags": {"local_ref": "1", "name": "Prilly-Malley", "network": "Mobilis", "network:wikidata": "Q2394222", "operator": "SBB", "public_transport": "stop_position", "railway": "stop", "train": "yes", "uic_name": "Prilly-Malley", "uic_ref": "8518452"}}, {"type": "node", "id": 7297178866, "lat": 46.5266137, "lon": 6.6026232, "tags": {"local_ref": "2", "name": "Prilly-Malley", "network": "Mobilis", "network:wikidata": "Q2394222", "operator": "SBB", "public_transport": "stop_position", "railway": "stop", "train": "yes", "uic_name": "Prilly-Malley", "uic_ref": "8518452"}}, {"type": "node", "id": 7297178867, "lat": 46.52673, "lon": 6.6027013, "tags": {"local_ref": "3", "name": "Prilly-Malley", "network": "Mobilis", "network:wikidata": "Q2394222", "operator": "SBB", "public_transport": "stop_position", "railway": "stop", "train": "yes", "uic_name": "Prilly-Malley", "uic_ref": "8518452"}}, {"type": "node", "id": 7297178868, "lat": 46.5267744, "lon": 6.6027311, "tags": {"local_ref": "4", "name": "Prilly-Malley", "network": "Mobilis", "network:wikidata": "Q2394222", "operator": "SBB", "public_transport": "stop_position", "railway": "stop", "train": "yes", "uic_name": "Prilly-Malley", "uic_ref": "8518452"}}, {"type": "node", "id": 33307346, "lat": 46.5164209, "lon": 6.6284211, "tags": {"local_ref": "9", "name": "Lausanne", "network": "Mobilis", "network:wikidata": "Q2394222", "operator": "SBB", "public_transport": "stop_position", "railway": "stop", "train": "yes", "uic_name": "Lausanne", "uic_ref": "8501120"}}, {"type": "node", "id": 560922271, "lat": 46.5163794, "lon": 6.6290796, "tags": {"local_ref": "8", "name": "Lausanne", "network": "Mobilis", "network:wikidata": "Q2394222", "operator": "SBB", "public_transport": "stop_position", "railway": "stop", "train": "yes", "uic_name": "Lausanne", "uic_ref": "8501120"}}, {"type": "node", "id": 561156744, "lat": 46.5165036, "lon": 6.6291193, "tags": {"local_ref": "6", "name": "Lausanne", "network": "Mobilis", "network:wikidata": "Q2394222", "operator": "SBB", "public_transport": "stop_position", "railway": "stop", "train": "yes", "uic_name": "Lausanne", "uic_ref": "8501120"}}, {"type": "node", "id": 561156748, "lat": 46.5166051, "lon": 6.6291518, "tags": {"local_ref": "5", "name": "Lausanne", "network": "Mobilis", "network:wikidata": "Q2394222", "operator": "SBB", "public_transport": "stop_position", "railway": "stop", "train": "yes", "uic_name": "Lausanne", "uic_ref": "8501120"}}, {"type": "node", "id": 561156749, "lat": 46.5166412, "lon": 6.6291633, "tags": {"local_ref": "4", "name": "Lausanne", "network": "Mobilis", "network:wikidata": "Q2394222", "operator": "SBB", "public_transport": "stop_position", "railway": "stop", "train": "yes", "uic_name": "Lausanne", "uic_ref": "8501120"}}, {"type": "node", "id": 564276566, "lat": 46.5164678, "lon": 6.6291079, "tags": {"local_ref": "7", "name": "Lausanne", "network": "Mobilis", "network:wikidata": "Q2394222", "operator": "SBB", "public_transport": "stop_position", "railway": "stop", "train": "yes", "uic_name": "Lausanne", "uic_ref": "8501120"}}, {"type": "node", "id": 564276579, "lat": 46.516811, "lon": 6.6292176, "tags": {"local_ref": "1", "name": "Lausanne", "network": "Mobilis", "network:wikidata": "Q2394222", "operator": "SBB", "public_transport": "stop_position", "railway": "stop", "train": "yes", "uic_name": "Lausanne", "uic_ref": "8501120"}}, {"type": "node", "id": 564276583, "lat": 46.5167346, "lon": 6.6291932, "tags": {"local_ref": "3", "name": "Lausanne", "network": "Mobilis", "network:wikidata": "Q2394222", "operator": "SBB", "public_transport": "stop_position", "railway": "stop", "train": "yes", "uic_name": "Lausanne", "uic_ref": "8501120"}}, {"type": "node", "id": 1800313662, "lat": 46.5170017, "lon": 6.6291687, "tags": {"ele": "447", "internet_access": "wlan", "internet_access:fee": "no", "internet_access:operator": "SBB", "name": "Lausanne", "operator": "SBB", "public_transport": "station", "railway": "station", "railway:ref": "LS", "station": "rail", "toilets:wheelchair": "yes", "uic_name": "Lausanne", "uic_ref": "8501120", "wheelchair": "yes"}}, {"type": "node", "id": 7297178876, "lat": 46.5166744, "lon": 6.6308205, "tags": {"local_ref": "70", "name": "Lausanne Voie 70", "network": "Mobilis", "network:wikidata": "Q2394222", "operator": "SBB", "public_transport": "stop_position", "railway": "stop", "train": "yes", "uic_name": "Lausanne", "uic_ref": "8501120"}}, {"type": "node", "id": 7297184485, "lat": 46.5147247, "lon": 6.6580273, "tags": {"local_ref": "1", "name": "Pully-Nord", "network": "Mobilis", "network:wikidata": "Q2394222", "operator": "SBB", "public_transport": "stop_position", "railway": "stop", "train": "yes", "uic_name": "Pully-Nord", "uic_ref": "8504000"}}, {"type": "node", "id": 7297184486, "lat": 46.5147552, "lon": 6.658026, "tags": {"local_ref": "2", "name": "Pully-Nord", "network": "Mobilis", "network:wikidata": "Q2394222", "operator": "SBB", "public_transport": "stop_position", "railway": "stop", "train": "yes", "uic_name": "Pully-Nord", "uic_ref": "8504000"}}, {"type": "node", "id": 281661017, "lat": 46.5109435, "lon": 6.6591465, "tags": {"local_ref": "1", "name": "Pully", "network": "Mobilis", "network:wikidata": "Q2394222", "operator": "SBB", "public_transport": "stop_position", "railway": "stop", "train": "yes", "uic_name": "Pully", "uic_ref": "8501121"}}, {"type": "node", "id": 1032231886, "lat": 46.5109776, "lon": 6.6591563, "tags": {"local_ref": "2", "name": "Pully", "network": "Mobilis", "network:wikidata": "Q2394222", "operator": "SBB", "public_transport": "stop_position", "railway": "stop", "train": "yes", "uic_name": "Pully", "uic_ref": "8501121"}}, {"type": "node", "id": 2052186417, "lat": 46.5130539, "lon": 6.6781943, "tags": {"ele": "501", "name": "La Conversion", "operator": "SBB", "public_transport": "station", "railway": "station", "railway:ref": "CVN", "uic_name": "La Conversion", "uic_ref": "8504010", "wikidata": "Q15964161"}}, {"type": "node", "id": 7297156683, "lat": 46.5128741, "lon": 6.6784833, "tags": {"local_ref": "1", "name": "La Conversion", "network": "Mobilis", "network:wikidata": "Q2394222", "operator": "SBB", "public_transport": "stop_position", "railway": "stop", "train": "yes", "uic_name": "La Conversion", "uic_ref": "8504010"}}, {"type": "node", "id": 7297156684, "lat": 46.5128435, "lon": 6.678447, "tags": {"local_ref": "2", "name": "La Conversion", "network": "Mobilis", "network:wikidata": "Q2394222", "operator": "SBB", "public_transport": "stop_position", "railway": "stop", "train": "yes", "uic_name": "La Conversion", "uic_ref": "8504010"}}, {"type": "node", "id": 281661022, "lat": 46.5039546, "lon": 6.6903488, "tags": {"local_ref": "1", "name": "Lutry", "network": "Mobilis", "network:wikidata": "Q2394222", "operator": "SBB", "public_transport": "stop_position", "railway": "stop", "train": "yes", "uic_name": "Lutry", "uic_ref": "8501122"}}, {"type": "node", "id": 1032232028, "lat": 46.5039775, "lon": 6.6903665, "tags": {"local_ref": "2", "name": "Lutry", "network": "Mobilis", "network:wikidata": "Q2394222", "operator": "SBB", "public_transport": "stop_position", "railway": "stop", "train": "yes", "uic_name": "Lutry", "uic_ref": "8501122"}}, {"type": "node", "id": 7297156672, "lat": 46.4955931, "lon": 6.7070644, "tags": {"local_ref": "1", "name": "Villette VD", "network": "Mobilis", "network:wikidata": "Q2394222", "operator": "SBB", "public_transport": "stop_position", "railway": "stop", "train": "yes", "uic_name": "Villette VD", "uic_ref": "8501123"}}, {"type": "node", "id": 7297156673, "lat": 46.4955854, "lon": 6.7071593, "tags": {"local_ref": "2", "name": "Villette VD", "network": "Mobilis", "network:wikidata": "Q2394222", "operator": "SBB", "public_transport": "stop_position", "railway": "stop", "train": "yes", "uic_name": "Villette VD", "uic_ref": "8501123"}}, {"type": "node", "id": 1838786164, "lat": 46.5096969, "lon": 6.6992017, "tags": {"local_ref": "2", "name": "Bossi\u00e8re", "network": "Mobilis", "network:wikidata": "Q2394222", "operator": "SBB", "public_transport": "stop_position", "railway": "stop", "train": "yes", "uic_name": "Bossi\u00e8re", "uic_ref": "8504003"}}, {"type": "node", "id": 1838786165, "lat": 46.5097148, "lon": 6.6992452, "tags": {"local_ref": "1", "name": "Bossi\u00e8re", "network": "Mobilis", "network:wikidata": "Q2394222", "operator": "SBB", "public_transport": "stop_position", "railway": "stop", "train": "yes", "uic_name": "Bossi\u00e8re", "uic_ref": "8504003"}}, {"type": "node", "id": 2774680774, "lat": 46.5860361, "lon": 6.2143342, "tags": {"ele": "1022", "name": "Le Brassus", "operator": "TRAVYS", "public_transport": "station", "railway": "station", "railway:ref": "BRA", "uic_name": "Brassus, Le", "uic_ref": "8501159", "wikidata": "Q33443523"}}, {"type": "node", "id": 2774680779, "lat": 46.6057229, "lon": 6.2310522, "tags": {"ele": "1013", "name": "Sentier-Orient", "operator": "TRAVYS", "public_transport": "station", "railway": "station", "railway:ref": "SEN", "uic_name": "Sentier-Orient", "uic_ref": "8501157", "wikidata": "Q33443497"}}, {"type": "node", "id": 2774680775, "lat": 46.646889, "lon": 6.2832587, "tags": {"ele": "1050", "name": "Le Lieu", "operator": "TRAVYS", "railway": "station", "railway:ref": "LIEU", "uic_name": "Lieu, Le", "uic_ref": "8501153", "wikidata": "Q33443401"}}, {"type": "node", "id": 3019483999, "lat": 46.5963222, "lon": 6.3932344, "tags": {"ele": "676", "name": "Montricher", "operator": "MBC", "railway": "station", "uic_name": "Montricher", "uic_ref": "8501098", "wikidata": "Q33442520"}}, {"type": "node", "id": 2770485920, "lat": 46.6686875, "lon": 6.3247888, "tags": {"ele": "1008", "name": "Le Pont", "operator": "SBB", "railway": "station", "railway:ref": "PT", "uic_name": "Pont, Le", "uic_ref": "8501100", "wikidata": "Q33443007"}}, {"type": "node", "id": 3019484000, "lat": 46.5770903, "lon": 6.4321281, "tags": {"ele": "628", "name": "Pampigny-S\u00e9very", "operator": "MBC", "public_transport": "station", "railway": "station", "railway:ref": "PASE", "uic_name": "Pampigny-S\u00e9very", "uic_ref": "8501097", "wikidata": "Q33442497"}}, {"type": "node", "id": 983788188, "lat": 46.617269, "lon": 6.411182, "tags": {"ele": "666", "name": "L'Isle", "operator": "MBC", "railway": "station", "railway:ref": "ISLE", "source": "Bundesamt f\u00fcr Verkehr (BAV), DIDOK 2009", "uic_name": "L'Isle-Mont-la-Ville", "uic_ref": "8501099", "wikidata": "Q3098113"}}, {"type": "node", "id": 52208883, "lat": 46.7123473, "lon": 6.3705896, "tags": {"ele": "807", "name": "Vallorbe", "operator": "SBB", "public_transport": "station", "railway": "station", "railway:ref": "VAL", "uic_name": "Vallorbe", "uic_ref": "8501103", "wikidata": "Q3097934"}}, {"type": "node", "id": 2219152838, "lat": 46.7127354, "lon": 6.3709024, "tags": {"local_ref": "3", "name": "Vallorbe", "network": "Mobilis", "network:wikidata": "Q2394222", "operator": "SBB", "public_transport": "stop_position", "railway": "stop", "train": "yes", "uic_name": "Vallorbe", "uic_ref": "8501103"}}, {"type": "node", "id": 2219152848, "lat": 46.7129021, "lon": 6.3707851, "tags": {"local_ref": "4", "name": "Vallorbe", "network": "Mobilis", "network:wikidata": "Q2394222", "operator": "SBB", "public_transport": "stop_position", "railway": "stop", "train": "yes", "uic_name": "Vallorbe", "uic_ref": "8501103"}}, {"type": "node", "id": 7297184487, "lat": 46.7130507, "lon": 6.3706461, "tags": {"local_ref": "5", "name": "Vallorbe", "network": "Mobilis", "network:wikidata": "Q2394222", "operator": "SBB", "public_transport": "stop_position", "railway": "stop", "train": "yes", "uic_name": "Vallorbe", "uic_ref": "8501103"}}, {"type": "node", "id": 7297184488, "lat": 46.7125708, "lon": 6.3707386, "tags": {"local_ref": "1", "name": "Vallorbe", "network": "Mobilis", "network:wikidata": "Q2394222", "operator": "SBB", "public_transport": "stop_position", "railway": "stop", "train": "yes", "uic_name": "Vallorbe", "uic_ref": "8501103"}}, {"type": "node", "id": 52220985, "lat": 46.7172543, "lon": 6.4007001, "tags": {"ele": "787", "name": "Le Day", "operator": "SBB", "public_transport": "station", "railway": "station", "railway:ref": "DAY", "train": "yes", "uic_name": "Day, Le", "uic_ref": "8501104", "wikidata": "Q31444435"}}, {"type": "node", "id": 7297184489, "lat": 46.7175442, "lon": 6.4004643, "tags": {"local_ref": "3", "name": "Le Day", "network": "Mobilis", "network:wikidata": "Q2394222", "operator": "SBB", "public_transport": "stop_position", "railway": "stop", "train": "yes", "uic_name": "Le Day", "uic_ref": "8501104"}}, {"type": "node", "id": 7297184490, "lat": 46.7175029, "lon": 6.400776, "tags": {"local_ref": "1", "name": "Le Day", "network": "Mobilis", "network:wikidata": "Q2394222", "operator": "SBB", "public_transport": "stop_position", "railway": "stop", "train": "yes", "uic_name": "Le Day", "uic_ref": "8501104"}}, {"type": "node", "id": 7297184491, "lat": 46.7175488, "lon": 6.4008777, "tags": {"local_ref": "2", "name": "Le Day", "network": "Mobilis", "network:wikidata": "Q2394222", "operator": "SBB", "public_transport": "stop_position", "railway": "stop", "train": "yes", "uic_name": "Le Day", "uic_ref": "8501104"}}, {"type": "node", "id": 2732142816, "lat": 46.6966919, "lon": 6.4780878, "tags": {"ele": "642", "name": "Croy-Romainm\u00f4tier", "operator": "SBB", "public_transport": "station", "railway": "station", "railway:ref": "CR", "uic_name": "Croy-Romainm\u00f4tier", "uic_ref": "8501106", "wikidata": "Q15964103"}}, {"type": "node", "id": 7297178837, "lat": 46.6967163, "lon": 6.4782229, "tags": {"local_ref": "1", "name": "Croy-Romainm\u00f4tier", "network": "Mobilis", "network:wikidata": "Q2394222", "operator": "SBB", "public_transport": "stop_position", "railway": "stop", "train": "yes", "uic_name": "Croy-Romainm\u00f4tier", "uic_ref": "8501106"}}, {"type": "node", "id": 7297184492, "lat": 46.6967285, "lon": 6.478269, "tags": {"local_ref": "2", "name": "Croy-Romainm\u00f4tier", "network": "Mobilis", "network:wikidata": "Q2394222", "operator": "SBB", "public_transport": "stop_position", "railway": "stop", "train": "yes", "uic_name": "Croy-Romainm\u00f4tier", "uic_ref": "8501106"}}, {"type": "node", "id": 419536888, "lat": 46.7151537, "lon": 6.4746592, "tags": {"local_ref": "1", "name": "Bretonni\u00e8res", "network": "Mobilis", "network:wikidata": "Q2394222", "operator": "SBB", "public_transport": "stop_position", "railway": "stop", "train": "yes", "uic_name": "Bretonni\u00e8res", "uic_ref": "8501105"}}, {"type": "node", "id": 2388585923, "lat": 46.7151478, "lon": 6.4746079, "tags": {"local_ref": "2", "name": "Bretonni\u00e8res", "network": "Mobilis", "network:wikidata": "Q2394222", "operator": "SBB", "public_transport": "stop_position", "railway": "stop", "train": "yes", "uic_name": "Bretonni\u00e8res", "uic_ref": "8501105"}}, {"type": "node", "id": 2732142802, "lat": 46.7150417, "lon": 6.4747283, "tags": {"ele": "673", "name": "Bretonni\u00e8res", "operator": "SBB", "public_transport": "station", "railway": "station", "railway:ref": "BRT", "uic_name": "Bretonni\u00e8res", "uic_ref": "8501105", "wikidata": "Q15964082"}}, {"type": "node", "id": 2772060002, "lat": 46.5762216, "lon": 6.5308091, "tags": {"ele": "406", "name": "Vufflens-la-Ville", "operator": "SBB", "public_transport": "station", "railway": "station", "railway:ref": "VU", "uic_name": "Vufflens-la-Ville", "uic_ref": "8501116", "url": "http://www.sbb.ch/fr/", "wheelchair": "no", "wikidata": "Q15964273"}}, {"type": "node", "id": 7297178869, "lat": 46.5759896, "lon": 6.5306474, "tags": {"local_ref": "2", "name": "Vufflens-la-Ville", "network": "Mobilis", "network:wikidata": "Q2394222", "operator": "SBB", "public_transport": "stop_position", "railway": "stop", "train": "yes", "uic_name": "Vufflens-la-Ville", "uic_ref": "8501116"}}, {"type": "node", "id": 7297178870, "lat": 46.5759883, "lon": 6.5306963, "tags": {"local_ref": "1", "name": "Vufflens-la-Ville", "network": "Mobilis", "network:wikidata": "Q2394222", "operator": "SBB", "public_transport": "stop_position", "railway": "stop", "train": "yes", "uic_name": "Vufflens-la-Ville", "uic_ref": "8501116"}}, {"type": "node", "id": 2732685244, "lat": 46.6119908, "lon": 6.5099403, "tags": {"ele": "565", "name": "Cossonay-Ville", "operator": "MBC", "railway": "station", "railway:ref": "COSS01", "uic_name": "Cossonay-Ville", "uic_ref": "8530003"}}, {"type": "node", "id": 278239413, "lat": 46.6062395, "lon": 6.5237161, "tags": {"local_ref": "1", "name": "Cossonay-Penthalaz", "network": "Mobilis", "network:wikidata": "Q2394222", "operator": "SBB", "public_transport": "stop_position", "railway": "stop", "train": "yes", "uic_name": "Cossonay-Penthalaz", "uic_ref": "8501115"}}, {"type": "node", "id": 2388447187, "lat": 46.606248, "lon": 6.5237758, "tags": {"local_ref": "2", "name": "Cossonay-Penthalaz", "network": "Mobilis", "network:wikidata": "Q2394222", "operator": "SBB", "public_transport": "stop_position", "railway": "stop", "train": "yes", "uic_name": "Cossonay-Penthalaz", "uic_ref": "8501115"}}, {"type": "node", "id": 2732654252, "lat": 46.606011, "lon": 6.5236223, "tags": {"ele": "428", "name": "Cossonay-Penthalaz", "operator": "SBB", "public_transport": "station", "railway": "station", "railway:ref": "COS", "uic_name": "Cossonay-Penthalaz", "uic_ref": "8501115", "url": "http://www.sbb.ch/fr/", "wheelchair": "no", "wikidata": "Q15964081"}}, {"type": "node", "id": 2732654285, "lat": 46.6062744, "lon": 6.5239613, "tags": {"local_ref": "3", "name": "Cossonay-Penthalaz", "network": "Mobilis", "network:wikidata": "Q2394222", "operator": "SBB", "public_transport": "stop_position", "railway": "stop", "train": "yes", "uic_name": "Cossonay-Penthalaz", "uic_ref": "8501115"}}, {"type": "node", "id": 279778682, "lat": 46.6588536, "lon": 6.5174765, "tags": {"local_ref": "2", "name": "La Sarraz", "network": "Mobilis", "network:wikidata": "Q2394222", "operator": "SBB", "public_transport": "stop_position", "railway": "stop", "train": "yes", "uic_name": "La Sarraz", "uic_ref": "8501108"}}, {"type": "node", "id": 2388585068, "lat": 46.6588244, "lon": 6.5174388, "tags": {"local_ref": "1", "name": "La Sarraz", "network": "Mobilis", "network:wikidata": "Q2394222", "operator": "SBB", "public_transport": "stop_position", "railway": "stop", "train": "yes", "uic_name": "La Sarraz", "uic_ref": "8501108"}}, {"type": "node", "id": 253238168, "lat": 46.6571696, "lon": 6.5523811, "tags": {"ele": "455", "name": "Ecl\u00e9pens", "operator": "SBB", "public_transport": "station", "railway": "station", "railway:ref": "ECL", "uic_name": "Ecl\u00e9pens", "uic_ref": "8501114", "wikidata": "Q12174796"}}, {"type": "node", "id": 2095022085, "lat": 46.6572014, "lon": 6.5525234, "tags": {"local_ref": "1", "name": "Ecl\u00e9pens", "network": "Mobilis", "network:wikidata": "Q2394222", "operator": "SBB", "public_transport": "stop_position", "railway": "stop", "train": "yes", "uic_name": "Ecl\u00e9pens", "uic_ref": "8501114"}}, {"type": "node", "id": 2095022087, "lat": 46.6572117, "lon": 6.5525781, "tags": {"local_ref": "2", "name": "Ecl\u00e9pens", "network": "Mobilis", "network:wikidata": "Q2394222", "operator": "SBB", "public_transport": "stop_position", "railway": "stop", "train": "yes", "uic_name": "Ecl\u00e9pens", "uic_ref": "8501114"}}, {"type": "node", "id": 429922117, "lat": 46.6981845, "lon": 6.5189495, "tags": {"local_ref": "1", "name": "Arnex", "network": "Mobilis", "network:wikidata": "Q2394222", "operator": "SBB", "public_transport": "stop_position", "railway": "stop", "train": "yes", "uic_name": "Arnex", "uic_ref": "8501107"}}, {"type": "node", "id": 2388585694, "lat": 46.6982068, "lon": 6.5189172, "tags": {"local_ref": "2", "name": "Arnex", "network": "Mobilis", "network:wikidata": "Q2394222", "operator": "SBB", "public_transport": "stop_position", "railway": "stop", "train": "yes", "uic_name": "Arnex", "uic_ref": "8501107"}}, {"type": "node", "id": 510781002, "lat": 46.7205581, "lon": 6.5321018, "tags": {"name": "St-Eloi", "network": "Mobilis", "network:wikidata": "Q2394222", "operator": "TRAVYS-oc", "public_transport": "stop_position", "railway": "stop", "train": "yes", "uic_name": "St-Eloi", "uic_ref": "8530262"}}, {"type": "node", "id": 2708957739, "lat": 46.7242252, "lon": 6.5302417, "tags": {"ele": "473", "name": "Orbe", "operator": "TRAVYS", "railway": "station", "uic_name": "Orbe", "uic_ref": "8501191", "wikidata": "Q16507967"}}, {"type": "node", "id": 7297178852, "lat": 46.7245239, "lon": 6.5301448, "tags": {"name": "Orbe", "network": "Mobilis", "network:wikidata": "Q2394222", "operator": "TRAVYS-oc", "public_transport": "stop_position", "railway": "stop", "train": "yes", "uic_name": "Orbe", "uic_ref": "8501191"}}, {"type": "node", "id": 7297178853, "lat": 46.7209628, "lon": 6.5413924, "tags": {"name": "Les Granges (Orbe)", "network": "Mobilis", "network:wikidata": "Q2394222", "operator": "TRAVYS-oc", "public_transport": "stop_position", "railway": "stop", "train": "yes", "uic_name": "Les Granges (Orbe)", "uic_ref": "8501194"}}, {"type": "node", "id": 259611511, "lat": 46.6875416, "lon": 6.5593574, "tags": {"ele": "441", "local_ref": "1", "name": "Bavois", "network": "Mobilis", "network:wikidata": "Q2394222", "operator": "SBB", "public_transport": "stop_position", "railway": "stop", "train": "yes", "uic_name": "Bavois", "uic_ref": "8501113"}}, {"type": "node", "id": 2388447147, "lat": 46.6875335, "lon": 6.5594016, "tags": {"ele": "441", "local_ref": "2", "name": "Bavois", "network": "Mobilis", "network:wikidata": "Q2394222", "operator": "SBB", "public_transport": "stop_position", "railway": "stop", "train": "yes", "uic_name": "Bavois", "uic_ref": "8501113"}}, {"type": "node", "id": 3081154359, "lat": 46.710093, "lon": 6.568127, "tags": {"ele": "447", "name": "Chavornay", "operator": "SBB", "public_transport": "station", "railway": "station", "railway:ref": "CHV", "uic_name": "Chavornay", "uic_ref": "8501112", "wikidata": "Q12174787"}}, {"type": "node", "id": 7297178851, "lat": 46.7097897, "lon": 6.5678936, "tags": {"name": "Chavornay", "network": "Mobilis", "network:wikidata": "Q2394222", "operator": "SBB", "public_transport": "stop_position", "railway": "stop", "train": "yes", "uic_name": "Chavornay", "uic_ref": "8501112"}}, {"type": "node", "id": 7297178863, "lat": 46.7098989, "lon": 6.568411, "tags": {"local_ref": "3", "name": "Chavornay", "network": "Mobilis", "network:wikidata": "Q2394222", "operator": "SBB", "public_transport": "stop_position", "railway": "stop", "train": "yes", "uic_name": "Chavornay", "uic_ref": "8501112"}}, {"type": "node", "id": 7297178864, "lat": 46.7099256, "lon": 6.568268, "tags": {"local_ref": "2", "name": "Chavornay", "network": "Mobilis", "network:wikidata": "Q2394222", "operator": "SBB", "public_transport": "stop_position", "railway": "stop", "train": "yes", "uic_name": "Chavornay", "uic_ref": "8501112"}}, {"type": "node", "id": 7297178861, "lat": 46.7278529, "lon": 6.5807961, "tags": {"local_ref": "1", "name": "Essert-Pittet", "network": "Mobilis", "network:wikidata": "Q2394222", "operator": "SBB", "public_transport": "stop_position", "railway": "stop", "train": "yes", "uic_name": "Essert-Pittet", "uic_ref": "8501111"}}, {"type": "node", "id": 7297178862, "lat": 46.7278792, "lon": 6.5807607, "tags": {"local_ref": "2", "name": "Essert-Pittet", "network": "Mobilis", "network:wikidata": "Q2394222", "operator": "SBB", "public_transport": "stop_position", "railway": "stop", "train": "yes", "uic_name": "Essert-Pittet", "uic_ref": "8501111"}}, {"type": "node", "id": 3214117289, "lat": 46.692948, "lon": 6.7037286, "tags": {"name": "Bercher", "operator": "LEB", "public_transport": "station", "railway": "station", "railway:ref": "BERC", "source": "Bundesamt f\u00fcr Verkehr (BAV), DIDOK 2009", "uic_name": "Bercher", "uic_ref": "8501177", "wikidata": "Q3095963"}}, {"type": "node", "id": 3081154371, "lat": 46.7463418, "lon": 6.6076392, "tags": {"ele": "440", "name": "Ependes", "operator": "SBB", "public_transport": "station", "railway": "station", "railway:ref": "EP", "uic_name": "Ependes", "uic_ref": "8501110", "wikidata": "Q12174797"}}, {"type": "node", "id": 7297178859, "lat": 46.7463838, "lon": 6.607272, "tags": {"local_ref": "2", "name": "Ependes", "network": "Mobilis", "network:wikidata": "Q2394222", "operator": "SBB", "public_transport": "stop_position", "railway": "stop", "train": "yes", "uic_name": "Ependes", "uic_ref": "8501110"}}, {"type": "node", "id": 7297178860, "lat": 46.7463447, "lon": 6.6073108, "tags": {"local_ref": "1", "name": "Ependes", "network": "Mobilis", "network:wikidata": "Q2394222", "operator": "SBB", "public_transport": "stop_position", "railway": "stop", "train": "yes", "uic_name": "Ependes", "uic_ref": "8501110"}}, {"type": "node", "id": 2388447357, "lat": 46.7815666, "lon": 6.6409998, "tags": {"local_ref": "1", "name": "Yverdon-les-Bains", "network": "Mobilis", "network:wikidata": "Q2394222", "operator": "SBB", "public_transport": "stop_position", "railway": "stop", "train": "yes", "uic_name": "Yverdon-les-Bains", "uic_ref": "8504200"}}, {"type": "node", "id": 2388447358, "lat": 46.7816107, "lon": 6.6410172, "tags": {"local_ref": "2", "name": "Yverdon-les-Bains", "network": "Mobilis", "network:wikidata": "Q2394222", "operator": "SBB", "public_transport": "stop_position", "railway": "stop", "train": "yes", "uic_name": "Yverdon-les-Bains", "uic_ref": "8504200"}}, {"type": "node", "id": 2388447359, "lat": 46.7817335, "lon": 6.6410656, "tags": {"local_ref": "3", "name": "Yverdon-les-Bains", "network": "Mobilis", "network:wikidata": "Q2394222", "operator": "SBB", "public_transport": "stop_position", "railway": "stop", "train": "yes", "uic_name": "Yverdon-les-Bains", "uic_ref": "8504200"}}, {"type": "node", "id": 3081154457, "lat": 46.7814422, "lon": 6.6409615, "tags": {"ele": "435", "internet_access": "wlan", "internet_access:fee": "no", "internet_access:operator": "SBB", "name": "Yverdon-les-Bains", "operator": "SBB", "public_transport": "station", "railway": "station", "railway:ref": "YV", "uic_name": "Yverdon-les-Bains", "uic_ref": "8504200", "wheelchair": "yes", "wikidata": "Q12174841"}}, {"type": "node", "id": 5246633086, "lat": 46.7817158, "lon": 6.6397655, "tags": {"name": "Gare Yverdon-les-Bains, YSC", "railway": "station", "wheelchair": "yes"}}, {"type": "node", "id": 213882172, "lat": 46.7821172, "lon": 6.6622164, "tags": {"local_ref": "1", "name": "Yverdon-Champ Pittet", "network": "Mobilis", "network:wikidata": "Q2394222", "operator": "SBB", "public_transport": "stop_position", "train": "yes", "uic_name": "Yverdon-Champ Pittet", "uic_ref": "8504144"}}, {"type": "node", "id": 3019503522, "lat": 46.819548, "lon": 6.5006419, "tags": {"ele": "1066", "name": "Sainte-Croix", "operator": "TRAVYS", "railway": "station", "railway:ref": "STCR", "uic_name": "Ste-Croix", "uic_ref": "8504298", "wikidata": "Q33465347"}}, {"type": "node", "id": 3019544675, "lat": 46.7887894, "lon": 6.5241906, "tags": {"ele": "631", "name": "Baulmes", "operator": "TRAVYS", "railway": "station", "railway:ref": "BAU", "uic_name": "Baulmes", "uic_ref": "8504295", "wheelchair": "limited", "wikidata": "Q33465272"}}, {"type": "node", "id": 3019544677, "lat": 46.8003758, "lon": 6.5320086, "tags": {"ele": "907", "name": "Trois-Villes", "operator": "TRAVYS", "railway": "station", "railway:ref": "TRVI", "uic_name": "Trois-Villes", "uic_ref": "8504297", "wikidata": "Q33465324"}}, {"type": "node", "id": 292533984, "lat": 46.8038169, "lon": 6.553598, "tags": {"ele": "589", "name": "Vuiteboeuf", "operator": "TRAVYS", "railway": "station", "railway:ref": "VUIB", "uic_name": "Vuiteboeuf", "uic_ref": "8504294", "wikidata": "Q33465250"}}, {"type": "node", "id": 3019555389, "lat": 46.7952288, "lon": 6.5795285, "tags": {"ele": "507", "name": "Essert-Sous-Champvent", "operator": "TRAVYS", "public_transport": "station", "railway": "station", "railway:ref": "ESSC", "uic_name": "Essert-sous-Champvent", "uic_ref": "8504293", "wikidata": "Q33465229"}}, {"type": "node", "id": 3081154377, "lat": 46.8063263, "lon": 6.641844, "tags": {"ele": "436", "name": "Grandson", "operator": "SBB", "public_transport": "station", "railway": "station", "railway:ref": "GRS", "uic_name": "Grandson", "uic_ref": "8504201", "wikidata": "Q15964137"}}, {"type": "node", "id": 7297178856, "lat": 46.8059703, "lon": 6.6415143, "tags": {"local_ref": "3", "name": "Grandson", "network": "Mobilis", "network:wikidata": "Q2394222", "operator": "SBB", "public_transport": "stop_position", "railway": "stop", "train": "yes", "uic_name": "Grandson", "uic_ref": "8504201"}}, {"type": "node", "id": 7297178857, "lat": 46.8060423, "lon": 6.6414575, "tags": {"local_ref": "2", "name": "Grandson", "network": "Mobilis", "network:wikidata": "Q2394222", "operator": "SBB", "public_transport": "stop_position", "railway": "stop", "train": "yes", "uic_name": "Grandson", "uic_ref": "8504201"}}, {"type": "node", "id": 7297178858, "lat": 46.8060754, "lon": 6.6414315, "tags": {"local_ref": "1", "name": "Grandson", "network": "Mobilis", "network:wikidata": "Q2394222", "operator": "SBB", "public_transport": "stop_position", "railway": "stop", "train": "yes", "uic_name": "Grandson", "uic_ref": "8504201"}}, {"type": "node", "id": 639276682, "lat": 46.888324, "lon": 6.553202, "tags": {"ele": "769", "name": "Buttes", "operator": "TRN", "railway": "station", "railway:ref": "BT", "uic_name": "Buttes", "uic_ref": "8504288", "wikidata": "Q33465164"}}, {"type": "node", "id": 254374885, "lat": 46.9047007, "lon": 6.5814477, "tags": {"ele": "742", "name": "Fleurier", "operator": "TRN", "public_transport": "station", "railway": "station", "railway:ref": "FLE", "uic_name": "Fleurier", "uic_ref": "8504287", "wikidata": "Q33465144"}}, {"type": "node", "id": 307412745, "lat": 46.911932, "lon": 6.610251, "tags": {"ele": "735", "name": "M\u00f4tiers", "operator": "TRN", "railway": "station", "railway:ref": "MOT", "uic_name": "M\u00f4tiers", "uic_ref": "8504286", "wikidata": "Q33465116"}}, {"type": "node", "id": 307412768, "lat": 46.923366, "lon": 6.635705, "tags": {"ele": "734", "name": "Couvet", "operator": "TRN", "railway": "station", "railway:ref": "CVTR", "uic_name": "Couvet", "uic_ref": "8504285", "wikidata": "Q33465099"}}, {"type": "node", "id": 1944846875, "lat": 46.9423283, "lon": 6.6763533, "tags": {"ele": "748", "name": "Travers", "operator": "SBB", "railway": "station", "railway:ref": "TR", "uic_name": "Travers", "uic_ref": "8504215", "wikidata": "Q31451724"}}, {"type": "node", "id": 3081154400, "lat": 47.0671017, "lon": 6.7072991, "tags": {"disused:railway": "station", "ele": "876", "name": "Les Brenets", "operator": "TRN", "public_transport": "station", "railway": "station", "railway:ref": "BREN", "uic_name": "Brenets, Les", "uic_ref": "8504392", "wikidata": "Q33466019"}}, {"type": "node", "id": 7613278192, "lat": 47.0670869, "lon": 6.7074423, "tags": {"public_transport": "stop_position", "railway": "stop", "train": "yes"}}, {"type": "node", "id": 807669447, "lat": 46.0619567, "lon": 6.9426373, "tags": {"name": "Station d'Angle", "operator": "Verticalp Emosson", "public_transport": "stop_position", "railway": "halt", "train": "yes"}}, {"type": "node", "id": 2491493190, "lat": 46.0658922, "lon": 6.9351136, "tags": {"ele": "1812", "name": "Pied du Barrage", "old_name": "\u00c9mosson", "operator": "Verticalp Emosson", "public_transport": "stop_position", "railway": "stop", "train": "yes", "uic_name": "Pied du barrage", "uic_ref": "8530832"}}, {"type": "node", "id": 3723006067, "lat": 46.0678181, "lon": 6.9354771, "tags": {"name": "Lac d'\u00c9mosson", "operator": "Verticalp Emosson", "public_transport": "stop_position", "railway": "stop", "train": "yes"}}, {"type": "node", "id": 3723006068, "lat": 46.0678227, "lon": 6.9354367, "tags": {"name": "Lac d'\u00c9mosson", "operator": "Verticalp Emosson", "public_transport": "stop_position", "railway": "stop", "train": "yes"}}, {"type": "node", "id": 3723006070, "lat": 46.0659017, "lon": 6.9352574, "tags": {"ele": "1812", "name": "Pied du Barrage", "old_name": "\u00c9mosson", "operator": "Verticalp Emosson", "public_transport": "stop_position", "railway": "stop", "train": "yes", "uic_name": "Pied du barrage", "uic_ref": "8530832"}}, {"type": "node", "id": 3723006071, "lat": 46.0659032, "lon": 6.935299, "tags": {"ele": "1812", "name": "Pied du Barrage", "old_name": "\u00c9mosson", "operator": "Verticalp Emosson", "public_transport": "stop_position", "railway": "stop", "train": "yes", "uic_name": "Pied du barrage", "uic_ref": "8530832"}}, {"type": "node", "id": 3723301670, "lat": 46.0659873, "lon": 6.9464582, "tags": {"ele": "1821", "name": "Les Montuires", "operator": "Verticalp Emosson", "public_transport": "stop_position", "railway": "stop", "train": "yes", "uic_name": "Les Montuires", "uic_ref": "8501552"}}, {"type": "node", "id": 261667946, "lat": 46.0533512, "lon": 6.9499868, "tags": {"ele": "1116", "name": "Le Ch\u00e2telard - Fronti\u00e8re", "operator": "TMR", "public_transport": "stop_position", "railway": "stop", "train": "yes", "uic_name": "Ch\u00e2telard-Fronti\u00e8re, Le", "uic_ref": "8501568"}}, {"type": "node", "id": 2635715839, "lat": 46.0533217, "lon": 6.9500191, "tags": {"ele": "1116", "name": "Le Ch\u00e2telard - Fronti\u00e8re", "operator": "TMR", "public_transport": "stop_position", "railway": "stop", "train": "yes", "uic_name": "Ch\u00e2telard-Fronti\u00e8re, Le", "uic_ref": "8501568"}}, {"type": "node", "id": 2635715841, "lat": 46.0534114, "lon": 6.9499227, "tags": {"ele": "1116", "name": "Le Ch\u00e2telard - Fronti\u00e8re", "operator": "TMR", "public_transport": "stop_position", "railway": "stop", "train": "yes", "uic_name": "Ch\u00e2telard-Fronti\u00e8re, Le", "uic_ref": "8501568"}}, {"type": "node", "id": 2611436168, "lat": 46.0604714, "lon": 6.9580159, "tags": {"ele": "1129", "name": "Le Ch\u00e2telard Village", "network": "CFF", "operator": "TMR", "public_transport": "stop_position", "railway": "stop", "train": "yes", "uic_name": "Ch\u00e2telard VS, Le", "uic_ref": "8501566"}}, {"type": "node", "id": 455618201, "lat": 46.0823458, "lon": 6.9764224, "tags": {"ele": "1228", "name": "Finhaut", "name_old": "Finhaut-Gi\u00e9troz", "network": "CFF", "operator": "TMR", "public_transport": "stop_position", "railway": "stop", "train": "yes", "uic_name": "Finhaut", "uic_ref": "8501565"}}, {"type": "node", "id": 817844763, "lat": 46.0822862, "lon": 6.9763695, "tags": {"ele": "1228", "name": "Finhaut", "name_old": "Finhaut-Gi\u00e9troz", "network": "CFF", "operator": "TMR", "public_transport": "stop_position", "railway": "stop", "train": "yes", "uic_name": "Finhaut", "uic_ref": "8501565"}}, {"type": "node", "id": 983828539, "lat": 46.1021037, "lon": 6.9975668, "tags": {"ele": "1062", "name": "Le Tr\u00e9tien", "operator": "TMR", "public_transport": "stop_position", "railway": "stop", "source": "Bundesamt f\u00fcr Verkehr (BAV), DIDOK 2009", "train": "yes", "uic_name": "Tr\u00e9tien, Le", "uic_ref": "8501564"}}, {"type": "node", "id": 3727812957, "lat": 46.1021235, "lon": 6.9974869, "tags": {"ele": "1062", "name": "Le Tr\u00e9tien", "operator": "TMR", "public_transport": "stop_position", "railway": "stop", "source": "Bundesamt f\u00fcr Verkehr (BAV), DIDOK 2009", "train": "yes", "uic_name": "Tr\u00e9tien, Le", "uic_ref": "8501564"}}, {"type": "node", "id": 261669206, "lat": 46.1122396, "lon": 7.0116097, "tags": {"ele": "1032", "name": "Les Mar\u00e9cottes", "operator": "TMR", "public_transport": "stop_position", "railway": "stop", "train": "yes", "uic_name": "Mar\u00e9cottes, Les", "uic_ref": "8501563"}}, {"type": "node", "id": 1402753182, "lat": 46.1089009, "lon": 7.007893, "tags": {"ele": "1040", "name": "La M\u00e9dettaz", "operator": "TMR-mc", "public_transport": "stop_position", "railway": "stop", "source": "Bundesamt f\u00fcr Verkehr (BAV), DIDOK 2015", "train": "yes", "uic_name": "La M\u00e9dettaz", "uic_ref": "8530334"}}, {"type": "node", "id": 3727812959, "lat": 46.1122126, "lon": 7.0116223, "tags": {"ele": "1032", "name": "Les Mar\u00e9cottes", "operator": "TMR", "public_transport": "stop_position", "railway": "stop", "train": "yes", "uic_name": "Mar\u00e9cottes, Les", "uic_ref": "8501563"}}, {"type": "node", "id": 261669231, "lat": 46.1216249, "lon": 7.0210798, "tags": {"ele": "934", "name": "Salvan", "operator": "TMR", "public_transport": "stop_position", "railway": "stop", "train": "yes", "uic_name": "Salvan", "uic_ref": "8501562"}}, {"type": "node", "id": 722551715, "lat": 46.1216756, "lon": 7.020994, "tags": {"ele": "934", "name": "Salvan", "operator": "TMR", "public_transport": "stop_position", "railway": "stop", "train": "yes", "uic_name": "Salvan", "uic_ref": "8501562"}}, {"type": "node", "id": 8238801882, "lat": 46.0866132, "lon": 7.0586077, "tags": {"public_transport": "stop_position", "railway": "stop", "train": "yes"}}, {"type": "node", "id": 2886970163, "lat": 46.0933388, "lon": 7.0701071, "tags": {"ele": "484", "name": "Martigny-Bourg", "operator": "TMR", "railway": "station", "uic_name": "Martigny-Bourg", "uic_ref": "8501572", "wikidata": "Q1891056"}}, {"type": "node", "id": 286543703, "lat": 46.0785366, "lon": 7.0821408, "tags": {"ele": "613", "name": "Bovernier", "operator": "TMR", "railway": "station", "uic_name": "Bovernier", "uic_ref": "8501575", "wikidata": "Q3366042"}}, {"type": "node", "id": 2887061709, "lat": 46.1100996, "lon": 7.0645694, "tags": {"name": "Les Fumeaux", "public_transport": "stop_position", "train": "yes"}}, {"type": "node", "id": 3727812961, "lat": 46.1059375, "lon": 7.0777722, "tags": {"name": "Martigny", "name:de": "Martinach", "public_transport": "stop_position", "ref": "40", "train": "yes"}}, {"type": "node", "id": 261669417, "lat": 46.1302359, "lon": 7.0449144, "tags": {"public_transport": "stop_position", "train": "yes"}}, {"type": "node", "id": 2411295488, "lat": 46.1302207, "lon": 7.0448586, "tags": {"public_transport": "stop_position", "railway": "stop", "train": "yes"}}, {"type": "node", "id": 5155602702, "lat": 46.1305115, "lon": 7.044651, "tags": {"ele": "461", "name": "Vernayaz MC", "operator": "TMR", "public_transport": "station", "railway": "station", "uic_name": "Vernayaz MC", "uic_ref": "8501561", "wikidata": "Q33449646"}}, {"type": "node", "id": 261669563, "lat": 46.1059677, "lon": 7.0789328, "tags": {"ele": "467", "internet_access": "wlan", "internet_access:fee": "no", "internet_access:operator": "SBB", "name": "Martigny", "name:de": "Martinach", "operator": "SBB", "public_transport": "stop_position", "railway": "stop", "railway:ref": "MA", "ref": "1", "train": "yes", "uic_name": "Martigny", "uic_ref": "8501500", "wheelchair": "yes"}}, {"type": "node", "id": 1616113942, "lat": 46.106009, "lon": 7.0789446, "tags": {"ele": "467", "internet_access": "wlan", "internet_access:fee": "no", "internet_access:operator": "SBB", "name": "Martigny", "name:de": "Martinach", "operator": "SBB", "public_transport": "stop_position", "railway": "stop", "railway:ref": "MA", "ref": "2", "train": "yes", "uic_name": "Martigny", "uic_ref": "8501500", "wheelchair": "yes"}}, {"type": "node", "id": 3727812960, "lat": 46.1058836, "lon": 7.0801806, "tags": {"ele": "467", "internet_access": "wlan", "internet_access:fee": "no", "internet_access:operator": "SBB", "name": "Martigny", "name:de": "Martinach", "operator": "SBB", "public_transport": "stop_position", "railway": "stop", "railway:ref": "MA", "ref": "50", "train": "yes", "uic_name": "Martigny", "uic_ref": "8501500", "wheelchair": "yes"}}, {"type": "node", "id": 5155410595, "lat": 46.105799, "lon": 7.0791346, "tags": {"ele": "467", "internet_access": "wlan", "internet_access:fee": "no", "internet_access:operator": "SBB", "name": "Martigny", "name:de": "Martinach", "operator": "SBB", "public_transport": "station", "railway": "station", "railway:ref": "MA", "uic_name": "Martigny", "uic_ref": "8501500", "wheelchair": "yes", "wikidata": "Q3096986"}}, {"type": "node", "id": 2886808634, "lat": 46.1267865, "lon": 7.1264885, "tags": {"ele": "461", "name": "Charrat-Fully", "operator": "SBB", "railway": "station", "railway:ref": "CHAR", "uic_name": "Charrat-Fully", "uic_ref": "8501501", "wikidata": "Q12174790"}}, {"type": "node", "id": 476021965, "lat": 46.027916, "lon": 7.143613, "tags": {"ele": "902", "name": "Orsi\u00e8res", "operator": "TMR", "public_transport": "station", "railway": "station", "uic_name": "Orsi\u00e8res", "uic_ref": "8501578", "wikidata": "Q1968217"}}, {"type": "node", "id": 983828546, "lat": 46.052606, "lon": 7.1487826, "tags": {"ele": "818", "name": "La Douay", "operator": "TMR", "railway": "station", "source": "Bundesamt f\u00fcr Verkehr (BAV), DIDOK 2009", "uic_name": "Douay, La", "uic_ref": "8501577", "wikidata": "Q2365843"}}, {"type": "node", "id": 2886990784, "lat": 46.0770921, "lon": 7.146225, "tags": {"addr:city": "Sembrancher", "addr:postcode": "1933", "addr:street": "Avenue de la Gare", "ele": "717", "internet_access": "yes", "name": "Sembrancher", "network": "TMR", "operator": "TMR", "public_transport": "station", "railway": "station", "uic_name": "Sembrancher", "uic_ref": "8501576", "wheelchair": "yes", "wikidata": "Q2354413"}}, {"type": "node", "id": 286543553, "lat": 46.0828081, "lon": 7.1626476, "tags": {"ele": "756", "name": "Etiez", "operator": "TMR", "public_transport": "station", "railway": "station", "uic_name": "Etiez", "uic_ref": "8501580", "wheelchair": "yes", "wikidata": "Q2110844"}}, {"type": "node", "id": 2874250804, "lat": 46.1493475, "lon": 7.1734561, "tags": {"ele": "465", "name": "Saxon", "operator": "SBB", "railway": "station", "railway:ref": "SAX", "uic_name": "Saxon", "uic_ref": "8501502", "wikidata": "Q12174829"}}, {"type": "node", "id": 339478753, "lat": 46.1750525, "lon": 6.8713714, "tags": {"ele": "1035", "name": "Champ\u00e9ry", "operator": "TPC", "public_transport": "station", "railway": "station", "uic_name": "Champ\u00e9ry", "uic_ref": "8501448", "wikidata": "Q33446894"}}, {"type": "node", "id": 3619958672, "lat": 46.203862, "lon": 6.8931022, "tags": {"name": "Val-d'Illiez", "network": "AOMC", "operator": "TPC", "public_transport": "station", "railway": "station", "uic_name": "Val-d'Illiez", "uic_ref": "8501465", "wikidata": "Q33447281"}}, {"type": "node", "id": 1651345786, "lat": 46.2281276, "lon": 6.9157857, "tags": {"ele": "770", "name": "Troistorrents", "operator": "TPC", "operator:wikidata": "Q429547", "public_transport": "station", "railway": "station", "uic_name": "Troistorrents", "uic_ref": "8501464", "website": "https://tpc.ch", "wikidata": "Q33447253"}}, {"type": "node", "id": 2893482975, "lat": 46.3369434, "lon": 6.8979518, "tags": {"ele": "381", "name": "Vouvry", "operator": "SBB", "public_transport": "station", "railway": "station", "railway:ref": "VOU", "uic_name": "Vouvry", "uic_ref": "8501424", "wikidata": "Q12174839"}}, {"type": "node", "id": 983835725, "lat": 46.2435864, "lon": 6.930038, "tags": {"ele": "687", "name": "Chemex", "operator": "TPC", "operator:wikidata": "Q429547", "public_transport": "station", "railway": "station", "source": "Bundesamt f\u00fcr Verkehr (BAV), DIDOK 2009", "uic_name": "Chemex", "uic_ref": "8501456", "website": "https://tpc.ch", "wikidata": "Q33447003"}}, {"type": "node", "id": 1685688885, "lat": 46.2539089, "lon": 6.9475652, "tags": {"ele": "420", "name": "Monthey-Ville", "operator": "TPC", "operator:wikidata": "Q429547", "public_transport": "station", "railway": "station", "uic_name": "Monthey-Ville", "uic_ref": "8501463", "website": "https://tpc.ch", "wikidata": "Q33447227"}}, {"type": "node", "id": 2893199502, "lat": 46.2556315, "lon": 6.955147, "tags": {"ele": "406", "name": "Monthey", "operator": "SBB", "public_transport": "station", "railway": "station", "railway:ref": "MTH", "uic_name": "Monthey", "uic_ref": "8501421", "wikidata": "Q12174813"}}, {"type": "node", "id": 2892027628, "lat": 46.2163912, "lon": 7.0021426, "tags": {"ele": "422", "name": "Saint-Maurice", "operator": "SBB", "public_transport": "station", "railway": "station", "railway:ref": "SM", "uic_name": "St-Maurice", "uic_ref": "8501403", "wikidata": "Q10951368"}}, {"type": "node", "id": 8319877274, "lat": 46.2163856, "lon": 7.0019317, "tags": {"public_transport": "stop_position", "railway": "stop", "train": "yes", "uic_ref": "8501403"}}, {"type": "node", "id": 8319877275, "lat": 46.2163866, "lon": 7.0018714, "tags": {"public_transport": "stop_position", "railway": "stop", "train": "yes", "uic_ref": "8501403"}}, {"type": "node", "id": 8319877276, "lat": 46.2163884, "lon": 7.001683, "tags": {"public_transport": "stop_position", "railway": "stop", "train": "yes", "uic_ref": "8501403"}}, {"type": "node", "id": 8319877277, "lat": 46.2163874, "lon": 7.0016331, "tags": {"public_transport": "stop_position", "railway": "stop", "train": "yes", "uic_ref": "8501403"}}, {"type": "node", "id": 8319877278, "lat": 46.2163875, "lon": 7.0015091, "tags": {"public_transport": "stop_position", "railway": "stop", "train": "yes", "uic_ref": "8501403"}}, {"type": "node", "id": 2892181160, "lat": 46.2412484, "lon": 6.9855456, "tags": {"ele": "399", "name": "Massongex", "operator": "SBB", "railway": "station", "railway:ref": "MAS", "uic_name": "Massongex", "uic_ref": "8501420", "wikidata": "Q12174808"}}, {"type": "node", "id": 2892181159, "lat": 46.2514432, "lon": 7.0007618, "tags": {"ele": "411", "name": "Bex", "operator": "SBB", "public_transport": "station", "railway": "station", "railway:ref": "BEX", "uic_name": "Bex", "uic_ref": "8501402", "wikidata": "Q12174783"}}, {"type": "node", "id": 2888990902, "lat": 46.1692451, "lon": 7.0254823, "tags": {"ele": "449", "name": "Evionnaz", "operator": "SBB", "railway": "station", "railway:ref": "EV", "uic_name": "Evionnaz", "uic_ref": "8501404", "wikidata": "Q10948282"}}, {"type": "node", "id": 2892995678, "lat": 46.2787902, "lon": 6.9719705, "tags": {"ele": "405", "name": "St. Triphon", "operator": "SBB", "railway": "station", "railway:ref": "ST", "uic_name": "St-Triphon", "uic_ref": "8501401"}}, {"type": "node", "id": 316019802, "lat": 46.2868736, "lon": 6.9944385, "tags": {"name": "Villy", "network": "AOMC (Aigle-Ollon-Monthey-Champ\u00e9ry)", "operator": "TPC", "operator:wikidata": "Q429547", "public_transport": "stop_position", "railway": "stop", "ref": "Villy", "train": "yes", "uic_name": "Villy", "uic_ref": "8501458", "website": "https://tpc.ch", "wikidata": "Q33447059"}}, {"type": "node", "id": 316019885, "lat": 46.2967909, "lon": 6.9932718, "tags": {"ele": "468", "name": "Ollon", "operator": "TPC", "operator:wikidata": "Q429547", "railway": "station", "uic_name": "Ollon", "uic_ref": "8501461", "website": "https://tpc.ch", "wikidata": "Q33447146"}}, {"type": "node", "id": 2893316867, "lat": 46.3168421, "lon": 6.9637697, "tags": {"ele": "415", "internet_access": "wlan", "internet_access:fee": "no", "internet_access:operator": "SBB", "name": "Aigle", "operator": "SBB", "public_transport": "station", "railway": "station", "railway:ref": "AIG", "uic_name": "Aigle", "uic_ref": "8501400", "wheelchair": "yes", "wikidata": "Q5845601"}}, {"type": "node", "id": 365018294, "lat": 46.3182786, "lon": 6.9754535, "tags": {"ele": "430", "name": "Aigle-D\u00e9p\u00f4t", "operator": "TPC", "operator:wikidata": "Q429547", "railway": "station", "uic_name": "Aigle-D\u00e9p\u00f4t", "uic_ref": "8501484", "website": "https://tpc.ch", "wikidata": "Q33447740"}}, {"type": "node", "id": 603714630, "lat": 46.3391938, "lon": 7.0060435, "tags": {"ele": "1268", "name": "Leysin-Village", "operator": "TPC", "operator:wikidata": "Q429547", "railway": "station", "uic_name": "Leysin-Village", "uic_ref": "8501481", "website": "https://tpc.ch", "wikidata": "Q33447665"}}, {"type": "node", "id": 333789840, "lat": 46.3456312, "lon": 7.0067198, "tags": {"amenity": "bus_station", "ele": "1450", "name": "Leysin-Grand-H\u00f4tel", "operator": "TPC", "operator:wikidata": "Q429547", "railway": "station", "uic_name": "Leysin-Grand-H\u00f4tel", "uic_ref": "8501483", "website": "https://tpc.ch", "wikidata": "Q33447714"}}, {"type": "node", "id": 1100949260, "lat": 46.3446344, "lon": 7.0085879, "tags": {"ele": "1398", "name": "Leysin Feydey", "operator": "TPC", "operator:wikidata": "Q429547", "railway": "station", "uic_name": "Leysin-Feydey", "uic_ref": "8501482", "website": "https://tpc.ch", "wikidata": "Q33447690"}}, {"type": "node", "id": 2631132529, "lat": 46.2592439, "lon": 7.0309698, "tags": {"ele": "483", "name": "B\u00e9vieux", "operator": "TPC", "operator:wikidata": "Q429547", "railway": "station", "uic_name": "B\u00e9vieux", "uic_ref": "8501488", "website": "https://tpc.ch", "wikidata": "Q33447820"}}, {"type": "node", "id": 701206300, "lat": 46.2676419, "lon": 7.0561167, "tags": {"ele": "809", "name": "Fontannaz-Seulaz", "operator": "TPC", "operator:wikidata": "Q429547", "railway": "station", "uic_name": "Fontannaz-Seulaz", "uic_ref": "8501490", "website": "https://tpc.ch", "wikidata": "Q33447845"}}, {"type": "node", "id": 701192319, "lat": 46.2737211, "lon": 7.0602493, "tags": {"ele": "1131", "name": "Gryon", "operator": "TPC", "operator:wikidata": "Q429547", "railway": "station", "uic_name": "Gryon", "uic_ref": "8501492", "website": "https://tpc.ch", "wikidata": "Q33447900"}}, {"type": "node", "id": 1458694906, "lat": 46.2829011, "lon": 7.0705365, "tags": {"ele": "1210", "name": "Barboleusaz", "operator": "TPC", "operator:wikidata": "Q429547", "public_transport": "station", "railway": "station", "train": "yes", "uic_name": "Barboleuse, La", "uic_ref": "8501493", "website": "https://tpc.ch", "wheelchair": "yes", "wikidata": "Q33447927"}}, {"type": "node", "id": 983835733, "lat": 46.291299, "lon": 7.0628163, "tags": {"ele": "1231", "name": "Arveyes", "operator": "TPC", "operator:wikidata": "Q429547", "railway": "station", "source": "Bundesamt f\u00fcr Verkehr (BAV), DIDOK 2009", "uic_name": "Arveyes", "uic_ref": "8501494", "website": "https://tpc.ch", "wikidata": "Q33447953"}}, {"type": "node", "id": 5019596958, "lat": 46.2959019, "lon": 7.0562609, "tags": {"ele": "1252", "name": "Villars-sur-Ollon", "operator": "TPC", "operator:wikidata": "Q429547", "public_transport": "station", "railway": "station", "uic_name": "Villars-sur-Ollon", "uic_ref": "8501495", "website": "https://tpc.ch", "wikidata": "Q33447979"}}, {"type": "node", "id": 281282248, "lat": 46.2937374, "lon": 7.0610756, "tags": {"ele": "1302", "name": "Roche Grise", "operator": "TPC", "operator:wikidata": "Q429547", "railway": "station", "uic_name": "Roches Grises", "uic_ref": "8501447", "website": "https://tpc.ch", "wikidata": "Q33446866"}}, {"type": "node", "id": 281285800, "lat": 46.3049262, "lon": 7.069536, "tags": {"ele": "1524", "name": "Col de Soud", "operator": "TPC", "operator:wikidata": "Q429547", "railway": "station", "uic_name": "Col-de-Soud", "uic_ref": "8501497", "website": "https://tpc.ch", "wikidata": "Q33448007"}}, {"type": "node", "id": 717842510, "lat": 46.3370738, "lon": 7.0385393, "tags": {"ele": "863", "name": "Exergillod", "operator": "TPC", "operator:wikidata": "Q429547", "railway": "station", "uic_name": "Exergillod", "uic_ref": "8501472", "website": "https://tpc.ch", "wikidata": "Q33447447"}}, {"type": "node", "id": 281282993, "lat": 46.3165294, "lon": 7.0721942, "tags": {"ele": "1758", "name": "Les Bouquetins", "operator": "TPC", "operator:wikidata": "Q429547", "railway": "station", "uic_name": "Bouquetins", "uic_ref": "8501498", "website": "https://tpc.ch", "wikidata": "Q33448035"}}, {"type": "node", "id": 4325099118, "lat": 46.3218865, "lon": 7.073167, "tags": {"ele": "1813", "name": "Col de Bretaye", "operator": "TPC", "operator:wikidata": "Q429547", "railway": "station", "uic_name": "Col-de-Bretaye", "uic_ref": "8501499", "website": "https://tpc.ch", "wikidata": "Q33448062"}}, {"type": "node", "id": 5929437856, "lat": 46.3613852, "lon": 7.0521465, "tags": {"ele": "975", "name": "Le S\u00e9pey", "operator": "TPC", "operator:wikidata": "Q429547", "public_transport": "station", "railway": "station", "train": "yes", "uic_name": "Le S\u00e9pey", "uic_ref": "8501474", "website": "https://tpc.ch", "wikidata": "Q33447502"}}, {"type": "node", "id": 286905667, "lat": 46.3529741, "lon": 7.1133232, "tags": {"ele": "1091", "name": "Les Aviolats", "operator": "TPC", "operator:wikidata": "Q429547", "railway": "station", "uic_name": "Les Aviolats", "uic_ref": "8501476", "website": "https://tpc.ch", "wikidata": "Q33447554"}}, {"type": "node", "id": 306495012, "lat": 46.392371, "lon": 6.805815, "tags": {"ele": "390", "name": "Saint-Gingolph", "operator": "CFF", "public_transport": "stop_position", "railway": "stop", "train": "yes", "uic_name": "St-Gingolph (Suisse)", "uic_ref": "8501428"}}, {"type": "node", "id": 3081154430, "lat": 46.3922258, "lon": 6.8058748, "tags": {"ele": "390", "name": "Saint-Gingolph (Suisse)", "operator": "SBB", "public_transport": "station", "railway": "station", "railway:ref": "STGI", "uic_name": "St-Gingolph (Suisse)", "uic_ref": "8501428", "wikidata": "Q12174821"}}, {"type": "node", "id": 2684892624, "lat": 46.3858293, "lon": 6.8534995, "tags": {"ele": "374", "name": "Le Bouveret", "operator": "CFF", "public_transport": "stop_position", "railway": "stop", "train": "yes", "uic_name": "Bouveret", "uic_ref": "8501426"}}, {"type": "node", "id": 2684892625, "lat": 46.3858871, "lon": 6.8535741, "tags": {"ele": "374", "name": "Le Bouveret", "operator": "CFF", "public_transport": "stop_position", "railway": "stop", "train": "yes", "uic_name": "Bouveret", "uic_ref": "8501426"}}, {"type": "node", "id": 2893470286, "lat": 46.3857382, "lon": 6.8532861, "tags": {"ele": "374", "name": "Le Bouveret", "operator": "SBB", "public_transport": "station", "railway": "station", "railway:ref": "BOU", "uic_name": "Bouveret", "uic_ref": "8501426", "wikidata": "Q12174805"}}, {"type": "node", "id": 412723581, "lat": 46.4681533, "lon": 6.8355745, "tags": {"local_ref": "1", "name": "Vevey-Funi", "network": "Mobilis", "network:wikidata": "Q2394222", "operator": "SBB", "public_transport": "stop_position", "railway": "stop", "train": "yes", "uic_name": "Vevey-Funi", "uic_ref": "8504015"}}, {"type": "node", "id": 2793245894, "lat": 46.4629482, "lon": 6.843389, "tags": {"ele": "386", "name": "Vevey", "operator": "SBB", "public_transport": "station", "railway": "station", "railway:ref": "VV", "uic_name": "Vevey", "uic_ref": "8501200", "wheelchair": "yes", "wikidata": "Q569784"}}, {"type": "node", "id": 7297156658, "lat": 46.4632625, "lon": 6.8436327, "tags": {"local_ref": "5", "name": "Vevey", "network": "Mobilis", "network:wikidata": "Q2394222", "operator": "SBB", "public_transport": "stop_position", "railway": "stop", "train": "yes", "uic_name": "Vevey", "uic_ref": "8501200"}}, {"type": "node", "id": 7297156659, "lat": 46.4632305, "lon": 6.8435976, "tags": {"name": "Vevey", "network": "Mobilis", "network:wikidata": "Q2394222", "operator": "SBB", "public_transport": "stop_position", "railway": "stop", "train": "yes", "uic_name": "Vevey", "uic_ref": "8501200"}}, {"type": "node", "id": 7297156660, "lat": 46.4631519, "lon": 6.8435114, "tags": {"local_ref": "2", "name": "Vevey", "network": "Mobilis", "network:wikidata": "Q2394222", "operator": "SBB", "public_transport": "stop_position", "railway": "stop", "train": "yes", "uic_name": "Vevey", "uic_ref": "8501200"}}, {"type": "node", "id": 7297156661, "lat": 46.4630907, "lon": 6.8434443, "tags": {"local_ref": "1", "name": "Vevey", "network": "Mobilis", "network:wikidata": "Q2394222", "operator": "SBB", "public_transport": "stop_position", "railway": "stop", "train": "yes", "uic_name": "Vevey", "uic_ref": "8501200"}}, {"type": "node", "id": 7297156644, "lat": 46.4554251, "lon": 6.8597643, "tags": {"local_ref": "2", "name": "La Tour-de-Peilz", "network": "Mobilis", "network:wikidata": "Q2394222", "operator": "SBB", "public_transport": "stop_position", "railway": "stop", "train": "yes", "uic_name": "La Tour-de-Peilz", "uic_ref": "8501201"}}, {"type": "node", "id": 7297156645, "lat": 46.4554011, "lon": 6.8597281, "tags": {"local_ref": "1", "name": "La Tour-de-Peilz", "network": "Mobilis", "network:wikidata": "Q2394222", "operator": "SBB", "public_transport": "stop_position", "railway": "stop", "train": "yes", "uic_name": "La Tour-de-Peilz", "uic_ref": "8501201"}}, {"type": "node", "id": 2793870896, "lat": 46.4358452, "lon": 6.9103799, "tags": {"ele": "395", "internet_access": "wlan", "internet_access:fee": "no", "internet_access:operator": "SBB", "name": "Montreux", "operator": "SBB", "public_transport": "station", "railway": "station", "railway:ref": "MX", "uic_name": "Montreux", "uic_ref": "8501300", "wheelchair": "yes", "wikidata": "Q680986"}}, {"type": "node", "id": 7297173584, "lat": 46.4360322, "lon": 6.9105992, "tags": {"local_ref": "3", "name": "Montreux", "network": "Mobilis", "network:wikidata": "Q2394222", "operator": "SBB", "public_transport": "stop_position", "railway": "stop", "train": "yes", "uic_name": "Montreux", "uic_ref": "8501300"}}, {"type": "node", "id": 7297184385, "lat": 46.4360212, "lon": 6.9105511, "tags": {"local_ref": "1", "name": "Montreux", "network": "Mobilis", "network:wikidata": "Q2394222", "operator": "SBB", "public_transport": "stop_position", "railway": "stop", "train": "yes", "uic_name": "Montreux", "uic_ref": "8501300"}}, {"type": "node", "id": 7297156643, "lat": 46.4479835, "lon": 6.877067, "tags": {"local_ref": "1", "name": "Burier", "network": "Mobilis", "network:wikidata": "Q2394222", "operator": "SBB", "public_transport": "stop_position", "railway": "stop", "train": "yes", "uic_name": "Burier", "uic_ref": "8501202"}}, {"type": "node", "id": 7297184388, "lat": 46.4480213, "lon": 6.8770789, "tags": {"local_ref": "2", "name": "Burier", "network": "Mobilis", "network:wikidata": "Q2394222", "operator": "SBB", "public_transport": "stop_position", "railway": "stop", "train": "yes", "uic_name": "Burier", "uic_ref": "8501202"}}, {"type": "node", "id": 2793811935, "lat": 46.4427827, "lon": 6.8954938, "tags": {"ele": "400", "name": "Clarens", "operator": "SBB", "public_transport": "station", "railway": "station", "railway:ref": "CL", "uic_name": "Clarens", "uic_ref": "8501203", "wikidata": "Q10948043"}}, {"type": "node", "id": 7297184386, "lat": 46.4429324, "lon": 6.8954491, "tags": {"local_ref": "2", "name": "Clarens", "network": "Mobilis", "network:wikidata": "Q2394222", "operator": "SBB", "public_transport": "stop_position", "train": "yes", "uic_name": "Clarens", "uic_ref": "8501203"}}, {"type": "node", "id": 7297184387, "lat": 46.4428936, "lon": 6.895437, "tags": {"local_ref": "1", "name": "Clarens", "network": "Mobilis", "network:wikidata": "Q2394222", "operator": "SBB", "public_transport": "stop_position", "train": "yes", "uic_name": "Clarens", "uic_ref": "8501203"}}, {"type": "node", "id": 2797750712, "lat": 46.4463875, "lon": 6.9095315, "tags": {"ele": "600", "name": "Chernex", "operator": "MOB", "railway": "station", "uic_name": "Chernex", "uic_ref": "8501375", "wikidata": "Q33445951"}}, {"type": "node", "id": 2797758582, "lat": 46.4493253, "lon": 6.9135309, "tags": {"ele": "736", "name": "Chamby", "operator": "MOB", "railway": "station", "uic_name": "Chamby", "uic_ref": "8501376", "wikidata": "Q33445978"}}, {"type": "node", "id": 5167518198, "lat": 46.4537588, "lon": 6.9122994, "tags": {"ele": "725", "name": "Chamby-Mus\u00e9e", "operator": "MVR", "railway": "station", "uic_name": "Chamby-Mus\u00e9e", "uic_ref": "8501306", "wikidata": "Q33445894"}}, {"type": "node", "id": 2827690369, "lat": 46.4657103, "lon": 6.8957781, "tags": {"ele": "620", "name": "Blonay", "operator": "MVR", "railway": "station", "uic_name": "Blonay", "uic_ref": "8501281", "wikidata": "Q33445622"}}, {"type": "node", "id": 2790344845, "lat": 46.4886072, "lon": 6.7271541, "tags": {"ele": "391", "name": "Cully", "operator": "SBB", "public_transport": "station", "railway": "station", "railway:ref": "CU", "uic_name": "Cully", "uic_ref": "8501124", "wikidata": "Q10948129"}}, {"type": "node", "id": 7297156669, "lat": 46.4883629, "lon": 6.7271457, "tags": {"local_ref": "3", "name": "Cully", "network": "Mobilis", "network:wikidata": "Q2394222", "operator": "SBB", "public_transport": "stop_position", "railway": "stop", "train": "yes", "uic_name": "Cully", "uic_ref": "8501124"}}, {"type": "node", "id": 7297156670, "lat": 46.4884371, "lon": 6.727078, "tags": {"local_ref": "2", "name": "Cully", "network": "Mobilis", "network:wikidata": "Q2394222", "operator": "SBB", "public_transport": "stop_position", "railway": "stop", "train": "yes", "uic_name": "Cully", "uic_ref": "8501124"}}, {"type": "node", "id": 7297156671, "lat": 46.488471, "lon": 6.7270471, "tags": {"local_ref": "1", "name": "Cully", "network": "Mobilis", "network:wikidata": "Q2394222", "operator": "SBB", "public_transport": "stop_position", "railway": "stop", "train": "yes", "uic_name": "Cully", "uic_ref": "8501124"}}, {"type": "node", "id": 7297156667, "lat": 46.4891785, "lon": 6.7453709, "tags": {"name": "Epesses", "network": "Mobilis", "network:wikidata": "Q2394222", "operator": "SBB", "public_transport": "stop_position", "railway": "stop", "train": "yes", "uic_name": "Epesses", "uic_ref": "8501125"}}, {"type": "node", "id": 7297156668, "lat": 46.4892199, "lon": 6.7453589, "tags": {"name": "Epesses", "network": "Mobilis", "network:wikidata": "Q2394222", "operator": "SBB", "public_transport": "stop_position", "railway": "stop", "train": "yes", "uic_name": "Epesses", "uic_ref": "8501125"}}, {"type": "node", "id": 2790204448, "lat": 46.4969518, "lon": 6.7226831, "tags": {"ele": "565", "name": "Grandvaux", "operator": "SBB", "public_transport": "station", "railway": "station", "railway:ref": "GRV", "uic_name": "Grandvaux", "uic_ref": "8504011", "wikidata": "Q15964134"}}, {"type": "node", "id": 7297156681, "lat": 46.4967863, "lon": 6.7223817, "tags": {"local_ref": "3", "name": "Grandvaux", "network": "Mobilis", "network:wikidata": "Q2394222", "operator": "SBB", "public_transport": "stop_position", "railway": "stop", "train": "yes", "uic_name": "Grandvaux", "uic_ref": "8504011"}}, {"type": "node", "id": 7297156682, "lat": 46.4968279, "lon": 6.7223676, "tags": {"local_ref": "2", "name": "Grandvaux", "network": "Mobilis", "network:wikidata": "Q2394222", "operator": "SBB", "public_transport": "stop_position", "railway": "stop", "train": "yes", "uic_name": "Grandvaux", "uic_ref": "8504011"}}, {"type": "node", "id": 7297156665, "lat": 46.4741063, "lon": 6.7845624, "tags": {"local_ref": "2", "name": "Rivaz", "network": "Mobilis", "network:wikidata": "Q2394222", "operator": "SBB", "public_transport": "stop_position", "railway": "stop", "train": "yes", "uic_name": "Rivaz", "uic_ref": "8501126"}}, {"type": "node", "id": 7297156666, "lat": 46.4741441, "lon": 6.7845536, "tags": {"local_ref": "1", "name": "Rivaz", "network": "Mobilis", "network:wikidata": "Q2394222", "operator": "SBB", "public_transport": "stop_position", "railway": "stop", "train": "yes", "uic_name": "Rivaz", "uic_ref": "8501126"}}, {"type": "node", "id": 295989098, "lat": 46.4810337, "lon": 6.7783732, "tags": {"local_ref": "1", "name": "Chexbres-Village", "network": "Mobilis", "network:wikidata": "Q2394222", "operator": "SBB", "public_transport": "stop_position", "train": "yes", "uic_name": "Chexbres-Village", "uic_ref": "8504013"}}, {"type": "node", "id": 2813798087, "lat": 46.4938875, "lon": 6.7656133, "tags": {"ele": "618", "name": "Puidoux", "old_name": "Puidoux-Chexbres", "operator": "SBB", "public_transport": "station", "railway": "station", "railway:ref": "PUI", "uic_name": "Puidoux", "uic_ref": "8504012", "wikidata": "Q15964203"}}, {"type": "node", "id": 7297156674, "lat": 46.4935408, "lon": 6.7657888, "tags": {"local_ref": "3", "name": "Puidoux", "network": "Mobilis", "network:wikidata": "Q2394222", "old_name": "Puidoux-Chexbres", "operator": "SBB", "public_transport": "stop_position", "railway": "stop", "train": "yes", "uic_name": "Puidoux", "uic_ref": "8504012"}}, {"type": "node", "id": 7297156675, "lat": 46.4935961, "lon": 6.7656901, "tags": {"local_ref": "2", "name": "Puidoux", "network": "Mobilis", "network:wikidata": "Q2394222", "old_name": "Puidoux-Chexbres", "operator": "SBB", "public_transport": "stop_position", "railway": "stop", "train": "yes", "uic_name": "Puidoux", "uic_ref": "8504012"}}, {"type": "node", "id": 7297156676, "lat": 46.4936236, "lon": 6.7656408, "tags": {"local_ref": "1", "name": "Puidoux", "network": "Mobilis", "network:wikidata": "Q2394222", "old_name": "Puidoux-Chexbres", "operator": "SBB", "public_transport": "stop_position", "railway": "stop", "train": "yes", "uic_name": "Puidoux", "uic_ref": "8504012"}}, {"type": "node", "id": 7297156663, "lat": 46.4724632, "lon": 6.7969792, "tags": {"local_ref": "2", "name": "St-Saphorin", "network": "Mobilis", "network:wikidata": "Q2394222", "operator": "SBB", "public_transport": "stop_position", "railway": "stop", "train": "yes", "uic_name": "St-Saphorin", "uic_ref": "8501127"}}, {"type": "node", "id": 7297156664, "lat": 46.472487, "lon": 6.7969878, "tags": {"local_ref": "1", "name": "St-Saphorin", "network": "Mobilis", "network:wikidata": "Q2394222", "operator": "SBB", "public_transport": "stop_position", "railway": "stop", "train": "yes", "uic_name": "St-Saphorin", "uic_ref": "8501127"}}, {"type": "node", "id": 206927339, "lat": 46.5086324, "lon": 6.7857958, "tags": {"local_ref": "2", "name": "Moreillon", "network": "Mobilis", "network:wikidata": "Q2394222", "operator": "SBB", "public_transport": "stop_position", "railway": "stop", "train": "yes", "uic_name": "Moreillon", "uic_ref": "8504007"}}, {"type": "node", "id": 2390023799, "lat": 46.5086238, "lon": 6.7858397, "tags": {"local_ref": "1", "name": "Moreillon", "network": "Mobilis", "network:wikidata": "Q2394222", "operator": "SBB", "public_transport": "stop_position", "railway": "stop", "train": "yes", "uic_name": "Moreillon", "uic_ref": "8504007"}}, {"type": "node", "id": 2390023800, "lat": 46.5086272, "lon": 6.785916, "tags": {"ele": "657", "name": "Moreillon", "operator": "SBB", "public_transport": "station", "railway": "station", "railway:ref": "MRL", "uic_name": "Moreillon", "uic_ref": "8504007", "wikidata": "Q15964185"}}, {"type": "node", "id": 5097597874, "lat": 46.5705052, "lon": 6.8154603, "tags": {"ele": "602", "name": "Ch\u00e2tillens", "operator": "CFF", "public_transport": "station", "railway": "station", "uic_name": "Ch\u00e2tillens", "uic_ref": "8504017", "wikidata": "Q3096236"}}, {"type": "node", "id": 7297173558, "lat": 46.5706904, "lon": 6.8152924, "tags": {"local_ref": "1", "name": "Ch\u00e2tillens", "network": "Mobilis", "network:wikidata": "Q2394222", "operator": "SBB", "public_transport": "stop_position", "railway": "stop", "train": "yes", "uic_name": "Ch\u00e2tillens", "uic_ref": "8504017"}}, {"type": "node", "id": 7297156662, "lat": 46.4707377, "lon": 6.8242159, "tags": {"local_ref": "1", "name": "Corseaux-Cornalles", "network": "Mobilis", "network:wikidata": "Q2394222", "operator": "SBB", "public_transport": "stop_position", "railway": "stop", "train": "yes", "uic_name": "Corseaux-Cornalles", "uic_ref": "8504040"}}, {"type": "node", "id": 506196777, "lat": 46.4708162, "lon": 6.872168, "tags": {"ele": "533", "name": "Saint-L\u00e9gier Gare", "operator": "MVR", "railway": "station", "uic_name": "St-L\u00e9gier-Gare", "uic_ref": "8501280", "wikidata": "Q33445596"}}, {"type": "node", "id": 7647531154, "lat": 46.4732051, "lon": 6.913944, "tags": {"name": "Ondallaz-L'Alliaz", "operator": "MVR", "public_transport": "stop_position", "railway": "stop", "train": "yes", "uic_name": "Ondallaz-L'Alliaz", "uic_ref": "8501286", "wikidata": "Q33445748"}}, {"type": "node", "id": 3161728535, "lat": 46.4833339, "lon": 6.9099352, "tags": {"ele": "1348", "name": "Les Pl\u00e9iades", "operator": "MVR", "railway": "station", "uic_name": "Pl\u00e9iades, Les", "uic_ref": "8501288", "wikidata": "Q33445798"}}, {"type": "node", "id": 206927429, "lat": 46.5428143, "lon": 6.8377395, "tags": {"local_ref": "2", "name": "Pal\u00e9zieux", "network": "Mobilis", "network:wikidata": "Q2394222", "operator": "SBB", "public_transport": "stop_position", "railway": "stop", "train": "yes", "uic_name": "Pal\u00e9zieux", "uic_ref": "8504014"}}, {"type": "node", "id": 1461776664, "lat": 46.542801, "lon": 6.8377872, "tags": {"local_ref": "1", "name": "Pal\u00e9zieux", "network": "Mobilis", "network:wikidata": "Q2394222", "operator": "SBB", "public_transport": "stop_position", "railway": "stop", "train": "yes", "uic_name": "Pal\u00e9zieux", "uic_ref": "8504014"}}, {"type": "node", "id": 1461776669, "lat": 46.5428551, "lon": 6.8376188, "tags": {"local_ref": "3", "name": "Pal\u00e9zieux", "network": "Mobilis", "network:wikidata": "Q2394222", "operator": "SBB", "public_transport": "stop_position", "railway": "stop", "train": "yes", "uic_name": "Pal\u00e9zieux", "uic_ref": "8504014"}}, {"type": "node", "id": 2815709554, "lat": 46.5427623, "lon": 6.8379342, "tags": {"ele": "669", "name": "Pal\u00e9zieux", "operator": "SBB", "public_transport": "station", "railway": "station", "railway:ref": "PAL", "uic_name": "Pal\u00e9zieux", "uic_ref": "8504014", "wikidata": "Q5552050"}}, {"type": "node", "id": 7297173559, "lat": 46.5571624, "lon": 6.8289083, "tags": {"name": "Pal\u00e9zieux-Village", "network": "Mobilis", "network:wikidata": "Q2394222", "operator": "SBB", "public_transport": "stop_position", "railway": "stop", "train": "yes", "uic_name": "Pal\u00e9zieux-Village", "uic_ref": "8504016"}}, {"type": "node", "id": 206935971, "lat": 46.5725419, "lon": 6.8372166, "tags": {"alt_name": "Oron-le-Ch\u00e2tel", "local_ref": "1", "name": "Oron", "network": "Mobilis", "network:wikidata": "Q2394222", "operator": "SBB", "public_transport": "stop_position", "railway": "stop", "train": "yes", "uic_name": "Oron", "uic_ref": "8504020"}}, {"type": "node", "id": 2390023803, "lat": 46.5725305, "lon": 6.8372684, "tags": {"alt_name": "Oron-le-Ch\u00e2tel", "local_ref": "2", "name": "Oron", "network": "Mobilis", "network:wikidata": "Q2394222", "operator": "SBB", "public_transport": "stop_position", "railway": "stop", "train": "yes", "uic_name": "Oron", "uic_ref": "8504020"}}, {"type": "node", "id": 2816125955, "lat": 46.5725777, "lon": 6.8370539, "tags": {"ele": "700", "name": "Oron", "operator": "SBB", "railway": "station", "railway:ref": "OR", "uic_name": "Oron", "uic_ref": "8504020", "wikidata": "Q15964205"}}, {"type": "node", "id": 313818273, "lat": 46.5277508, "lon": 6.8957489, "tags": {"ele": "807", "name": "Ch\u00e2tel-Saint-Denis", "operator": "TPF", "public_transport": "station", "railway": "station", "uic_name": "Ch\u00e2tel-St-Denis", "uic_ref": "8504062", "wikidata": "Q33462476"}},