{"version": 0.6, "generator": "Overpass API 0.7.56.8 7d656e78", "osm3s": {"timestamp_osm_base": "2021-03-02T19:27:22Z", "timestamp_areas_base": "2021-03-02T19:18:11Z", "copyright": "The data included in this document is from www.openstreetmap.org. The data is made available under ODbL."}, "elements": [{"type": "node", "id": 1448737876, "lat": 46.0283614, "lon": 17.3422495, "tags": {"name": "Bab\u00f3csa", "railway": "station", "ref:mav": "225"}}, {"type": "node", "id": 94722982, "lat": 46.1015275, "lon": 17.2392621, "tags": {"name": "V\u00edzv\u00e1r", "railway": "station", "ref:mav": "224"}}, {"type": "node", "id": 1448733468, "lat": 45.9517329, "lon": 17.4466876, "tags": {"alt_name": "Barcs, vas\u00fat\u00e1llom\u00e1s", "name": "Barcs", "name:de": "Bartsch", "name:hr": "Bar\u010d", "name:ru": "\u0411\u0430\u0440\u0447", "name:sl": "Bar\u010d", "name:sr": "\u0411\u0430\u0440\u0447", "old_name:de": "Draustadt", "railway": "station", "ref:mav": "228", "wheelchair": "limited"}}, {"type": "node", "id": 94730713, "lat": 45.9705317, "lon": 17.5247092, "tags": {"name": "K\u00f6z\u00e9prig\u00f3c", "railway": "station", "ref:mav": "230"}}, {"type": "node", "id": 94730718, "lat": 45.9922343, "lon": 17.5982893, "tags": {"name": "Dar\u00e1ny", "name:ru": "\u0414\u0430\u0440\u0430\u043d\u044c", "railway": "station", "ref:mav": "231"}}, {"type": "node", "id": 94301821, "lat": 46.2491089, "lon": 16.9551447, "tags": {"name": "Gy\u00e9k\u00e9nyes", "railway": "station", "ref:mav": "3836"}}, {"type": "node", "id": 94301795, "lat": 46.2977897, "lon": 16.8875655, "tags": {"name": "\u0150rtilos", "railway": "station", "ref:mav": "219"}}, {"type": "node", "id": 94722975, "lat": 46.2011975, "lon": 17.143579, "tags": {"name": "Berzence", "name:ru": "\u0411\u0435\u0440\u0437\u0435\u043d\u0446\u0435", "public_transport": "stop_position", "railway": "stop", "train": "yes"}}, {"type": "node", "id": 4945221400, "lat": 46.2012652, "lon": 17.14387, "tags": {"name": "Berzence", "name:ru": "\u0411\u0435\u0440\u0437\u0435\u043d\u0446\u0435", "public_transport": "station", "railway": "station", "ref:mav": "221", "train": "yes"}}, {"type": "node", "id": 94743609, "lat": 46.2616551, "lon": 17.0917873, "tags": {"name": "Csurg\u00f3", "public_transport": "station", "railway": "station", "ref:mav": "3834"}}, {"type": "node", "id": 94743602, "lat": 46.2736722, "lon": 17.1808273, "tags": {"name": "Szenta", "name:ru": "\u0421\u0435\u043d\u0442\u0430", "network": "M\u00c1V", "operator": "M\u00c1V", "public_transport": "station", "railway": "station", "ref:mav": "3832", "train:route": "307"}}, {"type": "node", "id": 1437481403, "lat": 46.2737883, "lon": 17.1811786, "tags": {"name": "Szenta", "operator": "KEV", "railway": "station"}}, {"type": "node", "id": 344909742, "lat": 46.364194, "lon": 16.8782504, "tags": {"name": "Murakereszt\u00far", "railway": "station", "ref:mav": "3624"}}, {"type": "node", "id": 94290634, "lat": 46.5193303, "lon": 16.9799562, "tags": {"name": "\u00dajudvar", "operator": "M\u00c1V", "public_transport": "station", "railway": "station", "railway:name:M\u00c1V": "\u00dajudvar", "ref:mav": "213", "train": "yes", "uic_ref": "5505488"}}, {"type": "node", "id": 94290630, "lat": 46.4406865, "lon": 16.987217, "tags": {"name": "Nagykanizsa", "operator": "M\u00c1V", "railway": "station", "railway:name:M\u00c1V": "Nagykanizsa", "ref:mav": "3622", "uic_ref": "5503624", "website": "http://www.vasutallomasok.hu/allomas.php?az=ngkn"}}, {"type": "node", "id": 467097189, "lat": 46.4637521, "lon": 17.0434467, "tags": {"name": "Nagyr\u00e9cse", "railway": "station", "ref:mav": "3621"}}, {"type": "node", "id": 467097188, "lat": 46.4913441, "lon": 17.1352677, "tags": {"name": "Zalaszentjakab", "railway": "station", "ref:mav": "3620"}}, {"type": "node", "id": 94939411, "lat": 46.5298633, "lon": 17.1879051, "tags": {"name": "Zalakom\u00e1r", "railway": "station", "ref:mav": "3625"}}, {"type": "node", "id": 338000585, "lat": 46.2264875, "lon": 17.3542785, "tags": {"name": "Nagyat\u00e1d", "public_transport": "station", "railway": "station", "ref:mav": "260"}}, {"type": "node", "id": 1437481401, "lat": 46.3172863, "lon": 17.2204114, "tags": {"name": "Kasz\u00f3", "railway": "station"}}, {"type": "node", "id": 94743595, "lat": 46.289052, "lon": 17.3067484, "tags": {"name": "Somogyszob", "name:ru": "\u0428\u043e\u043c\u043e\u0434\u044c\u0441\u043e\u0431", "railway": "station", "ref:mav": "3830"}}, {"type": "node", "id": 94743620, "lat": 46.3167788, "lon": 17.4208763, "tags": {"name": "Beleg", "name:ru": "\u0411\u0435\u043b\u0435\u0433", "railway": "station", "ref:mav": "3828"}}, {"type": "node", "id": 94743562, "lat": 46.3446904, "lon": 17.5551156, "tags": {"name": "J\u00e1k\u00f3-Nagybajom", "railway": "station", "ref:mav": "3826"}}, {"type": "node", "id": 94743561, "lat": 46.3620628, "lon": 17.6077193, "tags": {"name": "Kiskorp\u00e1d", "railway": "station", "ref:mav": "3825"}}, {"type": "node", "id": 1437544220, "lat": 46.5074977, "lon": 17.433568, "tags": {"name": "Mesztegny\u0151 kisvas\u00fat v\u00e1.", "operator": "SEFAG Zrt.", "railway": "station", "website": "http://sefag.hu/kozjolet/mesztegnyoi-erdei-vasut"}}, {"type": "node", "id": 4821991067, "lat": 45.8874841, "lon": 17.751884, "tags": {"name": "Dr\u00e1vafok", "railway": "station"}}, {"type": "node", "id": 409004984, "lat": 45.8731904, "lon": 17.8591505, "tags": {"name": "Sellye", "name:de": "Schelle", "name:hr": "\u0160eljin", "railway": "station", "ref:mav": "4993"}}, {"type": "node", "id": 409557413, "lat": 45.8844629, "lon": 17.9096654, "tags": {"name": "Cs\u00e1nyoszr\u00f3", "railway": "station"}}, {"type": "node", "id": 4817066840, "lat": 45.8617926, "lon": 17.9885452, "tags": {"name": "Vajszl\u00f3", "railway": "station"}}, {"type": "node", "id": 94730730, "lat": 46.0429982, "lon": 17.8023004, "tags": {"name": "Szigetv\u00e1r", "name:de": "Inselburg", "name:hr": "Siget", "railway": "station", "ref:mav": "235"}}, {"type": "node", "id": 1061100152, "lat": 45.9606204, "lon": 17.911898, "tags": {"name": "Sumony", "railway": "station", "ref:mav": "4971"}}, {"type": "node", "id": 335404400, "lat": 46.0330993, "lon": 17.9906863, "tags": {"name": "Szentl\u0151rinc", "railway": "station", "ref:mav": "4950"}}, {"type": "node", "id": 343658483, "lat": 46.1130621, "lon": 17.9997005, "tags": {"name": "B\u00fckk\u00f6sd", "railway": "station", "ref:mav": "4948"}}, {"type": "node", "id": 1063783516, "lat": 45.9358864, "lon": 18.3070355, "tags": {"name": "\u00c1ta", "railway": "station", "ref:mav": "4958"}}, {"type": "node", "id": 344972517, "lat": 45.8773029, "lon": 18.4515631, "tags": {"name": "Vill\u00e1ny", "railway": "station", "ref:mav": "4963"}}, {"type": "node", "id": 342155899, "lat": 46.0409744, "lon": 18.0539127, "tags": {"name": "Bics\u00e9rd", "railway": "station", "ref:mav": "4951"}}, {"type": "node", "id": 7504061809, "lat": 46.1283042, "lon": 18.0451757, "tags": {"name": "Hetvehely", "public_transport": "stop_position", "railway": "stop", "ref:mav": "4947", "source": "turistautak.hu", "train": "yes", "url": "http://turistautak.hu/poi.php?id=10530"}}, {"type": "node", "id": 343659248, "lat": 46.1526476, "lon": 18.0749423, "tags": {"name": "Abaliget", "railway": "station", "ref:mav": "4946"}}, {"type": "node", "id": 342152127, "lat": 46.0602316, "lon": 18.1519161, "tags": {"name": "Mecsekalja-Cserk\u00fat", "railway": "station", "ref:mav": "4952"}}, {"type": "node", "id": 25546152, "lat": 46.0664531, "lon": 18.225298, "tags": {"name": "P\u00e9cs", "name:cs": "P\u011btikostel\u00ed", "name:de": "F\u00fcnfkirchen", "name:hr": "Pe\u010duh", "name:la": "Quinque Ecclesiae", "name:ru": "\u041f\u0435\u0447", "name:sk": "P\u00e4\u0165kostolie", "name:sr": "\u041f\u0435\u0447\u0443\u0458", "name:uk": "\u041f\u0435\u0447", "old_name:la": "Sopianae", "operator": "M\u00c1V", "railway": "station", "railway:ref": "PS", "ref:mav": "4953"}}, {"type": "node", "id": 340413312, "lat": 46.0717346, "lon": 18.2402321, "tags": {"name": "P\u00e9cs-K\u00fclv\u00e1ros", "railway": "station", "ref:mav": "4954"}}, {"type": "node", "id": 94528727, "lat": 46.3526409, "lon": 17.7948725, "tags": {"alt_name:de": "Ruppertsberg;Ruppertsburg", "name": "Kaposv\u00e1r", "name:de": "Kopisch", "name:ru": "\u041a\u0430\u043f\u043e\u0448\u0432\u0430\u0440", "name:sr": "\u041a\u0430\u043f\u043e\u0448\u0432\u0430\u0440", "operator": "M\u00c1V", "public_transport": "station", "railway": "station", "railway:ref": "KA", "ref:mav": "3821", "train": "yes", "wikidata": "Q12814852"}}, {"type": "node", "id": 1141836627, "lat": 46.1677203, "lon": 17.8892525, "tags": {"name": "Almamell\u00e9k", "public_transport": "station", "railway": "station"}}, {"type": "node", "id": 1141836666, "lat": 46.2047852, "lon": 17.8898624, "tags": {"name": "Sasr\u00e9t", "railway": "station"}}, {"type": "node", "id": 1065130840, "lat": 46.3557942, "lon": 17.9610432, "tags": {"name": "Bat\u00e9", "railway": "station", "ref:mav": "3817"}}, {"type": "node", "id": 94528674, "lat": 46.3655204, "lon": 17.6994858, "tags": {"name": "Kaposm\u00e9r\u0151", "railway": "station", "ref:mav": "3823"}}, {"type": "node", "id": 412454445, "lat": 46.4145855, "lon": 17.7591273, "tags": {"name": "Kaposf\u00fcred", "public_transport": "station", "railway": "station", "ref:mav": "6076", "train": "yes", "wikidata": "Q22132184"}}, {"type": "node", "id": 8445702970, "lat": 46.4596645, "lon": 17.7266605, "tags": {"name": "V\u00e1rda", "network": "36-os vonal", "operator": "M\u00c1V", "public_transport": "stop_position", "railway": "stop", "train": "yes"}}, {"type": "node", "id": 412453997, "lat": 46.5144855, "lon": 17.6570512, "tags": {"name": "Osztop\u00e1n", "public_transport": "station", "railway": "station", "ref:mav": "6079", "train": "yes"}}, {"type": "node", "id": 412454417, "lat": 46.4916095, "lon": 17.6944844, "tags": {"name": "Somogyj\u00e1d", "public_transport": "station", "railway": "station", "ref:mav": "6078", "train": "yes"}}, {"type": "node", "id": 95043970, "lat": 46.5606266, "lon": 17.8212632, "tags": {"name": "Fels\u0151mocsol\u00e1d", "railway": "station", "ref:mav": "5009"}}, {"type": "node", "id": 1065129977, "lat": 46.3634677, "lon": 17.8938707, "tags": {"name": "Tasz\u00e1r", "railway": "station", "ref:mav": "3819"}}, {"type": "node", "id": 95043975, "lat": 46.5095421, "lon": 17.8321914, "tags": {"name": "Mernye", "railway": "station", "ref:mav": "5008"}}, {"type": "node", "id": 354578892, "lat": 46.2233061, "lon": 18.1046737, "tags": {"name": "Godisa", "railway": "station", "ref:mav": "4945"}}, {"type": "node", "id": 92829746, "lat": 46.2572582, "lon": 18.1044834, "tags": {"name": "S\u00e1sd", "name:de": "Schaschd", "name:hr": "\u0160a\u0161", "old_name:de": "Ried", "public_transport": "station", "railway": "station", "ref:mav": "4944", "train": "yes"}}, {"type": "node", "id": 1260939556, "lat": 46.2101911, "lon": 18.1861178, "tags": {"name": "Magyarsz\u00e9k", "railway": "station", "ref:mav": "4966"}}, {"type": "node", "id": 1260939554, "lat": 46.2164962, "lon": 18.241862, "tags": {"name": "Mecsekj\u00e1nosi", "railway": "station", "ref:mav": "4968"}}, {"type": "node", "id": 355209315, "lat": 46.3102244, "lon": 18.138684, "tags": {"name": "V\u00e1s\u00e1rosdomb\u00f3", "public_transport": "station", "railway": "station", "ref:mav": "4731", "train": "yes"}}, {"type": "node", "id": 354597184, "lat": 46.3070001, "lon": 18.2237073, "tags": {"name": "M\u00e1gocs-Als\u00f3mocsol\u00e1d", "railway": "station", "ref:mav": "3875"}}, {"type": "node", "id": 355873876, "lat": 46.1891425, "lon": 18.2646266, "tags": {"name": "Koml\u00f3", "name:de": "Kumlau", "railway": "station", "ref:mav": "4969"}}, {"type": "node", "id": 409646085, "lat": 46.2790568, "lon": 18.4090496, "tags": {"name": "M\u00e1za-Sz\u00e1szv\u00e1r", "railway": "station", "ref:mav": "3878"}}, {"type": "node", "id": 1065129623, "lat": 46.3663465, "lon": 18.0447614, "tags": {"name": "Csoma-Szabadi", "railway": "station", "ref:mav": "2403"}}, {"type": "node", "id": 2533005517, "lat": 46.3663904, "lon": 18.0447161, "tags": {"name": "Csoma-Szabadi", "railway": "station", "ref:mav": "2403"}}, {"type": "node", "id": 336099929, "lat": 46.3637356, "lon": 18.1340735, "tags": {"name": "Domb\u00f3v\u00e1r als\u00f3", "operator": "M\u00c1V", "railway": "station", "railway:ref": "DM", "ref:mav": "1760"}}, {"type": "node", "id": 6656051319, "lat": 46.3699064, "lon": 18.1496155, "tags": {"name": "Domb\u00f3v\u00e1r", "name:de": "Dombowa", "operator": "M\u00c1V", "public_transport": "stop_position", "railway": "station", "railway:ref": "UD", "ref:mav": "1759", "train": "yes"}}, {"type": "node", "id": 619127249, "lat": 46.4158798, "lon": 18.2527873, "tags": {"name": "D\u00f6br\u00f6k\u00f6z", "public_transport": "stop_position", "railway": "station", "ref:mav": "1758", "train": "yes"}}, {"type": "node", "id": 619127253, "lat": 46.4497138, "lon": 18.3188205, "tags": {"name": "Kurd", "public_transport": "stop_position", "railway": "station", "ref:mav": "1757", "train": "yes"}}, {"type": "node", "id": 619127258, "lat": 46.466195, "lon": 18.3352983, "tags": {"name": "Csibr\u00e1k", "public_transport": "stop_position", "railway": "halt", "ref:mav": "1756", "train": "yes"}}, {"type": "node", "id": 92829291, "lat": 46.4940328, "lon": 18.3772846, "tags": {"name": "D\u00fazs", "public_transport": "stop_position", "railway": "halt", "ref:mav": "1755", "train": "yes"}}, {"type": "node", "id": 619127259, "lat": 46.5238718, "lon": 18.3891931, "tags": {"name": "Szak\u00e1ly-H\u0151gy\u00e9sz", "public_transport": "stop_position", "railway": "station", "ref:mav": "1754", "train": "yes"}}, {"type": "node", "id": 619127262, "lat": 46.5685483, "lon": 18.3954882, "tags": {"name": "Reg\u00f6ly", "public_transport": "stop_position", "railway": "halt", "ref:mav": "1753", "train": "yes"}}, {"type": "node", "id": 344972535, "lat": 45.8340929, "lon": 18.4920304, "tags": {"name": "Magyarb\u00f3ly", "railway": "station", "ref:mav": "4964"}}, {"type": "node", "id": 335898854, "lat": 45.9375817, "lon": 18.538347, "tags": {"name": "B\u00f3ly", "railway": "station", "ref:mav": "4985"}}, {"type": "node", "id": 335898836, "lat": 46.0025163, "lon": 18.683689, "tags": {"name": "Moh\u00e1cs", "railway": "station", "ref:mav": "4986"}}, {"type": "node", "id": 1065129356, "lat": 46.1501803, "lon": 19.0637098, "tags": {"name": "M\u00e1t\u00e9h\u00e1zapuszta", "railway": "station"}}, {"type": "node", "id": 408869286, "lat": 46.1155569, "lon": 19.1594005, "tags": {"name": "B\u00e1csbokod-B\u00e1csbors\u00f3d", "railway": "station", "ref:mav": "1133"}}, {"type": "node", "id": 409643296, "lat": 46.2692833, "lon": 18.5230123, "tags": {"name": "Hidas-Bonyh\u00e1d", "railway": "station", "ref:mav": "3881"}}, {"type": "node", "id": 344464908, "lat": 46.2025708, "lon": 18.7153619, "tags": {"name": "B\u00e1tasz\u00e9k", "railway": "station", "ref:mav": "3884"}}, {"type": "node", "id": 408872396, "lat": 46.1990774, "lon": 18.8284651, "tags": {"name": "P\u00f6rb\u00f6ly", "railway": "station", "ref:mav": "3885"}}, {"type": "node", "id": 1435965392, "lat": 46.2001726, "lon": 18.8256534, "tags": {"public_transport": "stop_position", "railway": "stop"}}, {"type": "node", "id": 1435965393, "lat": 46.2001971, "lon": 18.8256851, "tags": {"public_transport": "stop_position", "railway": "stop"}}, {"type": "node", "id": 5463144596, "lat": 46.2001848, "lon": 18.8256694, "tags": {"name": "P\u00f6rb\u00f6ly", "operator": "Gemenci \u00c1llami Erdei Vas\u00fat", "railway": "station", "website": "http://www.gemenczrt.hu/index.php?apps=content&c_id=22"}}, {"type": "node", "id": 344464892, "lat": 46.2838339, "lon": 18.7559064, "tags": {"name": "Decs", "railway": "station", "ref:mav": "3865"}}, {"type": "node", "id": 445818127, "lat": 46.3496057, "lon": 18.7126833, "tags": {"name": "Szeksz\u00e1rd", "operator": "M\u00c1V", "railway": "station", "ref:mav": "3863"}}, {"type": "node", "id": 445818128, "lat": 46.4152336, "lon": 18.7501823, "tags": {"name": "Tolna-M\u00f6zs", "railway": "station", "ref:mav": "3861"}}, {"type": "node", "id": 408870015, "lat": 46.1870051, "lon": 18.9574444, "tags": {"name": "Baja", "name:de": "Frankenstadt", "railway": "station", "ref:mav": "1136"}}, {"type": "node", "id": 1435965366, "lat": 46.3208501, "lon": 18.9078109, "tags": {"public_transport": "stop_position", "railway": "stop"}}, {"type": "node", "id": 1435965370, "lat": 46.3209276, "lon": 18.9079499, "tags": {"public_transport": "stop_position", "railway": "stop"}}, {"type": "node", "id": 411752399, "lat": 46.5349287, "lon": 18.9946049, "tags": {"name": "Kalocsa", "name:de": "Kollotschau", "name:hr": "Kalo\u010da", "name:sr": "\u041a\u0430\u043b\u043e\u0447\u0430", "name:sr-Latn": "Kalo\u010da", "note": "Out of public use.", "public_transport": "station", "railway": "station"}}, {"type": "node", "id": 411752395, "lat": 46.5236414, "lon": 19.1177386, "tags": {"name": "\u00d6regcsert\u0151", "railway": "station"}}, {"type": "node", "id": 411753255, "lat": 46.5524974, "lon": 19.241809, "tags": {"name": "Kecel", "railway": "station"}}, {"type": "node", "id": 2757199959, "lat": 46.1176759, "lon": 19.3467014, "tags": {"name": "B\u00e1csalm\u00e1s", "railway": "station", "ref:mav": "1130"}}, {"type": "node", "id": 408865238, "lat": 46.2128635, "lon": 19.3704542, "tags": {"name": "M\u00e9lyk\u00fat", "railway": "station", "ref:mav": "1129"}}, {"type": "node", "id": 408863987, "lat": 46.292901, "lon": 19.3307258, "tags": {"name": "J\u00e1noshalma", "railway": "station", "ref:mav": "1128"}}, {"type": "node", "id": 408857870, "lat": 46.3560563, "lon": 19.416784, "tags": {"name": "Kunfeh\u00e9rt\u00f3", "railway": "station", "ref:mav": "1126"}}, {"type": "node", "id": 1065129586, "lat": 46.2334972, "lon": 19.5771948, "tags": {"name": "Tompa", "public_transport": "stop_position", "railway": "stop", "ref:mav": "474", "train": "yes"}}, {"type": "node", "id": 476898043, "lat": 46.1948628, "lon": 19.610159, "tags": {"name": "Kelebia", "public_transport": "stop_position", "railway": "stop", "ref:mav": "475", "train": "yes"}}, {"type": "node", "id": 8371157150, "lat": 46.194754, "lon": 19.6102501, "tags": {"name": "Kelebia", "operator": "M\u00c1V", "railway": "station", "train": "yes"}}, {"type": "node", "id": 1065130159, "lat": 46.278717, "lon": 19.538756, "tags": {"name": "Kissz\u00e1ll\u00e1s", "public_transport": "stop_position", "railway": "stop", "ref:mav": "473", "train": "yes"}}, {"type": "node", "id": 411796765, "lat": 46.3492441, "lon": 19.53292, "tags": {"name": "Balotasz\u00e1ll\u00e1s", "public_transport": "stop_position", "railway": "stop", "ref:mav": "472", "train": "yes"}}, {"type": "node", "id": 295489366, "lat": 46.4335494, "lon": 19.4940388, "tags": {"name": "Kiskunhalas", "name:de": "Hallasch", "name:hr": "Ola\u0161", "public_transport": "stop_position", "railway": "stop", "ref:mav": "471", "train": "yes"}}, {"type": "node", "id": 1061100159, "lat": 46.569708, "lon": 19.3954199, "tags": {"name": "Soltvadkert", "public_transport": "stop_position", "railway": "stop", "ref:mav": "468", "train": "yes"}}, {"type": "node", "id": 673213132, "lat": 46.4989053, "lon": 19.4500896, "tags": {"name": "Pirt\u00f3", "public_transport": "stop_position", "railway": "stop", "ref:mav": "470", "train": "yes"}}, {"type": "node", "id": 1063783575, "lat": 46.521323, "lon": 19.4343372, "tags": {"name": "Pirt\u00f3i sz\u0151l\u0151k", "public_transport": "stop_position", "railway": "stop", "ref:mav": "469", "train": "yes"}}, {"type": "node", "id": 409020131, "lat": 46.4585786, "lon": 19.6020258, "tags": {"name": "Harkak\u00f6t\u00f6ny", "railway": "station", "ref:mav": "1137"}}, {"type": "node", "id": 1065130282, "lat": 46.4725129, "lon": 19.6502067, "tags": {"name": "Taj\u00f3", "railway": "station", "ref:mav": "1138"}}, {"type": "node", "id": 292816809, "lat": 46.1940064, "lon": 20.0329107, "tags": {"name": "R\u00f6szke", "public_transport": "stop_position", "railway": "stop", "train": "yes"}}, {"type": "node", "id": 1065130564, "lat": 46.2714432, "lon": 20.0910873, "tags": {"name": "Kiskundorozsma", "railway": "station", "ref:mav": "6109"}}, {"type": "node", "id": 929923092, "lat": 46.2663784, "lon": 20.1250874, "tags": {"name": "Szeged-R\u00f3kus", "operator": "M\u00c1V", "railway": "station", "railway:ref": "RO", "ref:mav": "7258"}}, {"type": "node", "id": 1061100166, "lat": 46.3457113, "lon": 20.0441102, "tags": {"name": "Szatymaz", "operator": "M\u00c1V", "public_transport": "stop_position", "railway": "station", "railway:ref": "SY", "ref:mav": "6108", "train": "yes"}}, {"type": "node", "id": 1065129354, "lat": 46.5017902, "lon": 19.7276133, "tags": {"name": "Kiskunmajsa", "railway": "station", "ref:mav": "1139"}}, {"type": "node", "id": 7431917792, "lat": 46.5659721, "lon": 19.7535604, "tags": {"name": "J\u00e1szszentl\u00e1szl\u00f3", "railway": "station", "ref:mav": "1140"}}, {"type": "node", "id": 1065130498, "lat": 46.53828, "lon": 19.9092133, "tags": {"name": "Csengele", "railway": "station", "ref:mav": "6105"}}, {"type": "node", "id": 1259198885, "lat": 46.4136872, "lon": 20.0012615, "tags": {"name": "Bal\u00e1stya", "railway": "station", "ref:mav": "6107"}}, {"type": "node", "id": 507900259, "lat": 46.4674505, "lon": 19.9665463, "tags": {"name": "Kistelek", "railway": "station", "ref:mav": "6106", "source": "GPS"}}, {"type": "node", "id": 5530281286, "lat": 46.9573953, "lon": 16.2635094, "tags": {"name": "Szentgotth\u00e1rd", "name:de": "St. Gotthard", "name:hu": "Szentgotth\u00e1rd", "name:sl": "Mono\u0161ter", "name:sr": "\u0421\u0435\u043d\u0442\u0433\u043e\u0442\u0430\u0440\u0434", "operator": "GySEV", "public_transport": "station", "railway": "station", "railway:position": "168.9", "railway:ref": "GH", "railway:ref:\u00f6bb": "Gh", "ref:mav": "53587", "uic_name": "Szentgotthard", "uic_ref": "5500029"}}, {"type": "node", "id": 1212434580, "lat": 46.6180692, "lon": 16.4715257, "tags": {"name": "R\u00e9dics", "railway": "station", "ref:mav": "2516"}}, {"type": "node", "id": 386789459, "lat": 46.6211987, "lon": 16.5295494, "tags": {"name": "Lenti", "name:de": "Nempthy", "name:hr": "Lentiba", "railway": "station", "ref:mav": "2515"}}, {"type": "node", "id": 1065130559, "lat": 46.6078268, "lon": 16.6418659, "tags": {"name": "Cs\u00f6m\u00f6d\u00e9r-P\u00e1ka", "railway": "station", "ref:mav": "2513"}}, {"type": "node", "id": 1212434623, "lat": 46.6468772, "lon": 16.7395721, "tags": {"name": "Gutorf\u00f6lde", "railway": "station", "ref:mav": "2512"}}, {"type": "node", "id": 619127247, "lat": 46.8290789, "lon": 16.4162228, "tags": {"name": "\u0150riszentp\u00e9ter", "name:de": "St. Peter", "name:sl": "\u0160entpeter", "railway": "station", "ref:mav": "187", "wikidata": "Q22115939"}}, {"type": "node", "id": 1212435091, "lat": 46.9642795, "lon": 16.3782407, "tags": {"name": "Als\u00f3r\u00f6n\u00f6k", "public_transport": "station", "railway": "station", "ref:mav": "65391"}}, {"type": "node", "id": 1212434385, "lat": 46.9783692, "lon": 16.4996288, "tags": {"name": "Cs\u00e1k\u00e1nydoroszl\u00f3", "public_transport": "stop_position", "railway": "stop", "ref:mav": "65521", "train": "yes"}}, {"type": "node", "id": 8131906323, "lat": 46.9784226, "lon": 16.4999649, "tags": {"name": "Cs\u00e1k\u00e1nydoroszl\u00f3", "public_transport": "station", "railway": "station"}}, {"type": "node", "id": 412818756, "lat": 46.8454686, "lon": 16.5773591, "tags": {"name": "Zalal\u00f6v\u0151", "railway": "station", "ref:mav": "2519"}}, {"type": "node", "id": 1065129970, "lat": 46.8578701, "lon": 16.6614399, "tags": {"name": "Zalacs\u00e9b-Salomv\u00e1r", "railway": "station", "ref:mav": "2524"}}, {"type": "node", "id": 8197311166, "lat": 47.0160941, "lon": 16.5973455, "tags": {"name": "K\u00f6rmend", "operator": "M\u00c1V", "public_transport": "station", "railway": "station", "train": "yes"}}, {"type": "node", "id": 268196808, "lat": 47.0908583, "lon": 16.6197067, "tags": {"name": "Egyh\u00e1zasr\u00e1d\u00f3c", "railway": "station", "ref:mav": "65390"}}, {"type": "node", "id": 94074460, "lat": 47.0849334, "lon": 16.7685562, "tags": {"name": "P\u00fcsp\u00f6kmoln\u00e1ri", "railway": "station", "ref:mav": "65398"}}, {"type": "node", "id": 1065129602, "lat": 47.1613303, "lon": 16.6303098, "tags": {"addr:city": "Balogunyom", "addr:postcode": "9771", "addr:street": "Vas\u00fat utca", "name": "J\u00e1k-Balogunyom", "network": "GySEV", "operator": "GySEV", "railway": "station", "ref:mav": "65394"}}, {"type": "node", "id": 5008124072, "lat": 47.3817648, "lon": 16.5567475, "tags": {"name": "K\u0151szeg", "name:de": "G\u00fcns", "name:hr": "Kiseg", "name:sk": "Kysek", "old_name": "Kiseg", "operator": "GySEV", "public_transport": "station", "railway": "station", "ref:mav": "65399", "source": "guess", "train": "yes"}}, {"type": "node", "id": 93800956, "lat": 47.2373728, "lon": 16.6328209, "tags": {"name": "Szombathely", "name:de": "Steinamanger", "name:hr": "Sambotel", "name:la": "Savaria", "name:ru": "\u0421\u043e\u043c\u0431\u0430\u0442\u0445\u0435\u0439", "name:sr": "\u0421\u043e\u043c\u0431\u0430\u0442\u0445\u0435\u0459", "old_name:de": "Stein am Anger", "operator": "GySEV", "public_transport": "station", "railway": "station", "railway:ref": "SM", "ref:mav": "53589"}}, {"type": "node", "id": 8197311167, "lat": 47.2377552, "lon": 16.6324384, "tags": {"name": "Szombathely", "public_transport": "station", "railway": "stop", "train": "yes"}}, {"type": "node", "id": 93548712, "lat": 47.2360368, "lon": 16.7269689, "tags": {"name": "V\u00e9p", "railway": "station", "ref:mav": "65415"}}, {"type": "node", "id": 618346248, "lat": 47.3081641, "lon": 16.7345496, "tags": {"name": "Acs\u00e1d", "operator": "GySEV", "railway": "station", "ref:mav": "2534"}}, {"type": "node", "id": 1065129608, "lat": 47.3886927, "lon": 16.7523205, "tags": {"name": "B\u00fck", "railway": "station", "ref:mav": "2533"}}, {"type": "node", "id": 324567423, "lat": 47.6013585, "lon": 16.6894127, "tags": {"alt_name:de": "Zinkendorf", "name": "Nagycenk", "name:de": "Gro\u00dfzinkendorf", "name:hr": "Cinka", "railway": "station", "ref:mav": "2527"}}, {"type": "node", "id": 685038262, "lat": 47.6157503, "lon": 16.689675, "tags": {"name": "Bar\u00e1ts\u00e1g", "railway": "station"}}, {"type": "node", "id": 685038306, "lat": 47.6108985, "lon": 16.705433, "tags": {"alt_name": "Kast\u00e9ly (Nagycenk)", "name": "Kast\u00e9ly", "railway": "station"}}, {"type": "node", "id": 1212434093, "lat": 47.6002609, "lon": 16.7683588, "tags": {"name": "Pinnye", "railway": "station", "ref:mav": "801"}}, {"type": "node", "id": 4530022025, "lat": 47.6416351, "lon": 16.6190202, "tags": {"addr:city": "Harka", "name": "Harka", "name:de": "Harkau", "name:hr": "Horka", "public_transport": "station", "railway": "station", "station": "disused"}}, {"type": "node", "id": 1045450075, "lat": 47.6776781, "lon": 16.5869089, "tags": {"name": "Sopron", "name:de": "\u00d6denburg", "public_transport": "stop_position", "railway": "stop", "train": "yes", "wheelchair": "no"}}, {"type": "node", "id": 5050446206, "lat": 47.6777923, "lon": 16.5870638, "tags": {"name": "Sopron", "name:de": "\u00d6denburg", "public_transport": "stop_position", "railway": "stop", "train": "yes", "wheelchair": "no"}}, {"type": "node", "id": 5050446207, "lat": 47.6777608, "lon": 16.5870218, "tags": {"name": "Sopron", "name:de": "\u00d6denburg", "public_transport": "stop_position", "railway": "stop", "train": "yes", "wheelchair": "no"}}, {"type": "node", "id": 5050446208, "lat": 47.6775728, "lon": 16.5867125, "tags": {"name": "Sopron", "name:de": "\u00d6denburg", "public_transport": "stop_position", "railway": "stop", "train": "yes", "wheelchair": "no"}}, {"type": "node", "id": 5050446209, "lat": 47.6776115, "lon": 16.5868382, "tags": {"name": "Sopron", "name:de": "\u00d6denburg", "public_transport": "stop_position", "railway": "stop", "train": "yes", "wheelchair": "no"}}, {"type": "node", "id": 5050446210, "lat": 47.6776464, "lon": 16.5868738, "tags": {"alt_name": "Sopron-GYSEV pu.", "name": "Sopron", "name:cs": "\u0160opro\u0148", "name:de": "\u00d6denburg", "name:he": "\u05e9\u05d5\u05e4\u05e8\u05d5\u05df", "name:hr": "\u0160opron", "name:it": "Odenburgo", "name:ja": "\u30b7\u30e7\u30d7\u30ed\u30f3", "name:la": "Scarbantia", "name:ru": "\u0428\u043e\u043f\u0440\u043e\u043d", "name:sk": "\u0160opron", "name:sr": "\u0428\u043e\u043f\u0440\u043e\u043d", "operator": "GySEV", "public_transport": "station", "railway": "station", "railway:ref": "SP", "railway:ref:\u00f6bb": "Sop", "ref:mav": "804", "train": "yes", "uic_ref": "5501494", "wheelchair": "no"}}, {"type": "node", "id": 600743591, "lat": 47.6250417, "lon": 16.6915281, "tags": {"name": "Fert\u0151boz", "railway": "station", "ref:mav": "802"}}, {"type": "node", "id": 685038296, "lat": 47.6245874, "lon": 16.6921099, "tags": {"name": "Fert\u0151boz", "railway": "station"}}, {"type": "node", "id": 94290645, "lat": 46.6002182, "lon": 16.9825813, "tags": {"name": "Gelse", "operator": "M\u00c1V", "public_transport": "station", "railway": "station", "railway:name:M\u00c1V": "Gelse", "ref:mav": "211", "uic_ref": "5505454"}}, {"type": "node", "id": 4768581405, "lat": 46.5998589, "lon": 16.9826762, "tags": {"name": "Gelse", "public_transport": "stop_position", "railway": "stop", "ref:mav": "211", "train": "yes"}}, {"type": "node", "id": 94290568, "lat": 46.6671786, "lon": 16.9826863, "tags": {"name": "Fels\u0151rajk", "railway": "station", "ref:mav": "209"}}, {"type": "node", "id": 1065130578, "lat": 46.7319779, "lon": 16.8490232, "tags": {"name": "Bak", "railway": "station", "ref:mav": "2510"}}, {"type": "node", "id": 7728901592, "lat": 46.6818897, "lon": 16.9581445, "tags": {"name": "P\u00f6tr\u00e9te", "public_transport": "stop_position", "railway": "stop", "ref:mav": "208", "train": "yes"}}, {"type": "node", "id": 94290650, "lat": 46.7232791, "lon": 16.9518313, "tags": {"name": "Zalaszentmih\u00e1ly-Pacsa", "railway": "station", "ref:mav": "207"}}, {"type": "node", "id": 275275246, "lat": 46.8332444, "lon": 16.8483156, "tags": {"name": "Zalaegerszeg", "operator": "M\u00c1V", "public_transport": "station", "railway": "station", "railway:ref": "ZE", "ref:mav": "2507"}}, {"type": "node", "id": 2720648845, "lat": 46.8630479, "lon": 16.7794602, "tags": {"name": "Andr\u00e1shida", "railway": "station", "ref:mav": "2521"}}, {"type": "node", "id": 4768462881, "lat": 46.792141, "lon": 16.9328219, "tags": {"internet_access": "no", "name": "B\u00facs\u00faszentl\u00e1szl\u00f3", "network": "Szombathely\u2013Nagykanizsa", "operator": "M\u00c1V", "public_transport": "station", "railway": "station", "ref:mav": "70"}}, {"type": "node", "id": 94290654, "lat": 46.8321624, "lon": 16.9349507, "tags": {"name": "Nagykapornak", "public_transport": "station", "railway": "station", "ref:mav": "2546"}}, {"type": "node", "id": 7596689103, "lat": 46.8322471, "lon": 16.9352212, "tags": {"name": "Nagykapornak", "public_transport": "stop_position", "railway": "stop", "ref:mav": "2546", "train": "yes"}}, {"type": "node", "id": 4983049198, "lat": 46.8874705, "lon": 16.9111031, "tags": {"addr:city": "Zalaszentiv\u00e1n", "addr:postcode": "8921", "name": "Zalaszentiv\u00e1n", "operator": "M\u00c1V", "public_transport": "station", "railway": "station", "ref:mav": "2544"}}, {"type": "node", "id": 94074423, "lat": 46.9418644, "lon": 16.8620891, "tags": {"name": "Egerv\u00e1r-Vasboldogasszony", "public_transport": "station", "railway": "station", "ref:mav": "65442"}}, {"type": "node", "id": 506539163, "lat": 46.9243273, "lon": 16.9720361, "tags": {"name": "P\u00f3kaszepetk", "railway": "station", "ref:mav": "2505"}}, {"type": "node", "id": 506539304, "lat": 46.9511571, "lon": 17.0820702, "tags": {"name": "Zalaszentgr\u00f3t", "public_transport": "stop_position", "train": "yes"}}, {"type": "node", "id": 5943418693, "lat": 46.9511219, "lon": 17.082096, "tags": {"name": "Zalaszentgr\u00f3t", "railway": "station"}}, {"type": "node", "id": 506539232, "lat": 46.9829629, "lon": 17.0407878, "tags": {"name": "Zalab\u00e9r-Batyk", "railway": "station", "ref:mav": "2503", "source": "guess"}}, {"type": "node", "id": 2910038687, "lat": 46.9699737, "lon": 17.0775047, "tags": {"name": "T\u00fcskeszentp\u00e9ter", "railway": "station"}}, {"type": "node", "id": 467097187, "lat": 46.6093181, "lon": 17.2353168, "tags": {"name": "S\u00e1voly", "railway": "station", "ref:mav": "3619"}}, {"type": "node", "id": 33122622, "lat": 46.692403, "lon": 17.2887861, "tags": {"name": "Balatonszentgy\u00f6rgy", "public_transport": "stop_position", "railway": "station", "ref:mav": "3617", "train": "yes"}}, {"type": "node", "id": 2397493396, "lat": 46.6927207, "lon": 17.2889461, "tags": {"name": "Balatonszentgy\u00f6rgy", "railway": "station", "ref:mav": "3617"}}, {"type": "node", "id": 92752136, "lat": 46.7578511, "lon": 17.2474489, "tags": {"name": "Keszthely", "name:de": "Kesthell", "public_transport": "station", "railway": "station", "ref:mav": "2493", "train": "yes"}}, {"type": "node", "id": 33122966, "lat": 46.7136524, "lon": 17.3167109, "tags": {"name": "Balatonber\u00e9ny", "public_transport": "stop_position", "railway": "halt", "ref:mav": "3616", "train": "yes"}}, {"type": "node", "id": 8431960205, "lat": 46.7038009, "lon": 17.3684776, "tags": {"name": "Balatonkereszt\u00far", "operator": "M\u00c1V", "public_transport": "station", "railway": "station", "train": "yes", "uic_ref": "5508615"}}, {"type": "node", "id": 2386686242, "lat": 46.704093, "lon": 17.3764838, "tags": {"name": "Balatonm\u00e1riaf\u00fcrd\u0151", "public_transport": "stop_position", "railway": "stop", "ref:mav": "3615", "train": "yes"}}, {"type": "node", "id": 3543646128, "lat": 46.704335, "lon": 17.3746237, "tags": {"name": "Balatonm\u00e1riaf\u00fcrd\u0151", "public_transport": "stop_position", "railway": "stop", "ref:mav": "3615", "train": "yes"}}, {"type": "node", "id": 8371157147, "lat": 46.7042665, "lon": 17.3747327, "tags": {"name": "Balatonm\u00e1riaf\u00fcrd\u0151", "operator": "M\u00c1V", "public_transport": "station", "railway": "station", "train": "yes", "uic_ref": "5503541"}}, {"type": "node", "id": 92752232, "lat": 46.7551496, "lon": 17.3180657, "tags": {"name": "Vonyarcvashegy", "railway": "station", "ref:mav": "2496", "wheelchair": "yes"}}, {"type": "node", "id": 92752269, "lat": 46.7518677, "lon": 17.3542121, "tags": {"name": "Balatongy\u00f6r\u00f6k", "railway": "station", "ref:mav": "2497"}}, {"type": "node", "id": 1587550615, "lat": 46.5811769, "lon": 17.4208253, "tags": {"name": "Marcali", "name:de": "Martzal", "name:hr": "Marcalin", "operator": "M\u00c1V", "public_transport": "station", "railway": "station", "train": "yes"}}, {"type": "node", "id": 2386604512, "lat": 46.6454141, "lon": 17.4116528, "tags": {"name": "K\u00e9thely", "operator": "M\u00c1V", "public_transport": "station", "railway": "station", "train": "yes"}}, {"type": "node", "id": 1065130077, "lat": 46.6496378, "lon": 17.4714728, "tags": {"name": "Somogyszentp\u00e1l fels\u0151", "railway": "station", "ref:mav": "998"}}, {"type": "node", "id": 1065129955, "lat": 46.6391584, "lon": 17.4784554, "tags": {"name": "Somogyszentp\u00e1l", "railway": "station", "ref:mav": "999"}}, {"type": "node", "id": 412453433, "lat": 46.6606777, "lon": 17.6132993, "tags": {"name": "Lengyelt\u00f3ti", "old_name": "Lengyelt\u00f3ti (Buzs\u00e1k)", "public_transport": "station", "railway": "station", "ref:mav": "6084", "train": "yes"}}, {"type": "node", "id": 6908568698, "lat": 46.7045392, "lon": 17.4327286, "tags": {"name": "M\u00e1riahull\u00e1mtelep", "operator": "M\u00c1V", "public_transport": "stop_position", "railway": "halt", "ref:mav": "3614", "train": "yes"}}, {"type": "node", "id": 822132943, "lat": 46.7081968, "lon": 17.4537652, "tags": {"name": "Balatonfenyves als\u00f3", "operator": "M\u00c1V", "public_transport": "stop_position", "railway": "halt", "ref:mav": "3609", "train": "yes", "wheelchair": "yes"}}, {"type": "node", "id": 33123126, "lat": 46.7134339, "lon": 17.4827951, "tags": {"local_ref": "3", "name": "Balatonfenyves", "public_transport": "stop_position", "railway": "stop", "ref:mav": "3613", "train": "yes"}}, {"type": "node", "id": 477828393, "lat": 46.7124572, "lon": 17.4793088, "tags": {"alt_name": "Balatonfenyves", "name": "Balatonfenyves GV", "railway": "station", "ref:mav": "988"}}, {"type": "node", "id": 8403327552, "lat": 46.7135348, "lon": 17.4827571, "tags": {"local_ref": "1", "name": "Balatonfenyves", "public_transport": "stop_position", "railway": "stop", "ref:mav": "3613", "train": "yes"}}, {"type": "node", "id": 8403327553, "lat": 46.7135088, "lon": 17.4827668, "tags": {"local_ref": "2", "name": "Balatonfenyves", "public_transport": "stop_position", "railway": "stop", "ref:mav": "3613", "train": "yes"}}, {"type": "node", "id": 8403327556, "lat": 46.7134804, "lon": 17.4829012, "tags": {"name": "Balatonfenyves", "railway": "station", "ref:mav": "3613", "train": "yes"}}, {"type": "node", "id": 1065129417, "lat": 46.7241454, "lon": 17.5163159, "tags": {"name": "Als\u00f3b\u00e9latelep", "public_transport": "stop_position", "railway": "halt", "ref:mav": "3612", "train": "yes"}}, {"type": "node", "id": 1065130568, "lat": 46.7373375, "lon": 17.5346136, "tags": {"name": "B\u00e9latelep", "public_transport": "stop_position", "railway": "halt", "ref:mav": "3611", "train": "yes"}}, {"type": "node", "id": 33123162, "lat": 46.7502909, "lon": 17.5588078, "tags": {"name": "Fony\u00f3d", "name:de": "Fonjod", "public_transport": "station", "railway": "station", "ref:mav": "3610", "train": "yes"}}, {"type": "node", "id": 3017105867, "lat": 46.7502111, "lon": 17.559074, "tags": {"local_ref": "1", "name": "Fony\u00f3d", "name:de": "Fonjod", "public_transport": "stop_position", "railway": "stop", "train": "yes"}}, {"type": "node", "id": 3017105868, "lat": 46.7502636, "lon": 17.5590442, "tags": {"local_ref": "2", "name": "Fony\u00f3d", "name:de": "Fonjod", "public_transport": "stop_position", "railway": "stop", "train": "yes"}}, {"type": "node", "id": 3017105869, "lat": 46.7503557, "lon": 17.5589986, "tags": {"local_ref": "3", "name": "Fony\u00f3d", "name:de": "Fonjod", "public_transport": "stop_position", "railway": "stop", "train": "yes"}}, {"type": "node", "id": 3017105870, "lat": 46.7503934, "lon": 17.5589786, "tags": {"local_ref": "4", "name": "Fony\u00f3d", "name:de": "Fonjod", "public_transport": "stop_position", "railway": "stop", "train": "yes"}}, {"type": "node", "id": 3017105871, "lat": 46.7504654, "lon": 17.5589402, "tags": {"local_ref": "5", "name": "Fony\u00f3d", "name:de": "Fonjod", "public_transport": "stop_position", "railway": "stop", "train": "yes"}}, {"type": "node", "id": 1065130097, "lat": 46.7591402, "lon": 17.5923919, "tags": {"name": "Fony\u00f3dliget", "public_transport": "stop_position", "railway": "stop", "ref:mav": "3607", "train": "yes"}}, {"type": "node", "id": 92752370, "lat": 46.802627, "lon": 17.3851274, "tags": {"name": "Balatonederics", "railway": "station", "ref:mav": "2499"}}, {"type": "node", "id": 73838764, "lat": 46.9523846, "lon": 17.2925192, "tags": {"name": "S\u00fcmegi Bazaltb\u00e1nya", "railway": "station", "ref:mav": "2485"}}, {"type": "node", "id": 73838746, "lat": 46.9809595, "lon": 17.2707665, "tags": {"name": "S\u00fcmeg", "railway": "station", "ref:mav": "2486"}}, {"type": "node", "id": 73838803, "lat": 46.9203004, "lon": 17.33156, "tags": {"name": "Uzsa", "railway": "station", "ref:mav": "2484"}}, {"type": "node", "id": 80221098, "lat": 46.7885773, "lon": 17.5066404, "tags": {"name": "Badacsony", "operator": "M\u00c1V", "railway": "station", "ref:mav": "2477"}}, {"type": "node", "id": 80221090, "lat": 46.8099095, "lon": 17.4689981, "tags": {"name": "Badacsonyt\u00f6rdemic-Szigliget", "old_name": "Nemest\u00f6rdemic; Nemest\u00f6rdemic-Szigliget", "operator": "M\u00c1V", "railway": "station", "ref:mav": "2479"}}, {"type": "node", "id": 2079502878, "lat": 46.8770123, "lon": 17.42885, "tags": {"name": "Tapolca", "operator": "M\u00c1V", "railway": "station", "ref:mav": "2481", "website": "https://www.mavcsoport.hu/"}}, {"type": "node", "id": 80221102, "lat": 46.8046567, "lon": 17.5182914, "tags": {"name": "Badacsonytomaj", "operator": "M\u00c1V", "platforms": "3", "railway": "station", "railway:ref": "T", "ref:mav": "2476"}}, {"type": "node", "id": 94074463, "lat": 47.0096781, "lon": 16.8334734, "tags": {"name": "P\u00e1csony", "railway": "station", "ref:mav": "65440"}}, {"type": "node", "id": 94074329, "lat": 47.057112, "lon": 16.8000178, "tags": {"name": "Vasv\u00e1r", "public_transport": "station", "railway": "station", "ref:mav": "65395"}}, {"type": "node", "id": 73838664, "lat": 47.0407264, "lon": 17.1962493, "tags": {"name": "Ukk", "railway": "station", "ref:mav": "2488"}}, {"type": "node", "id": 73838548, "lat": 47.093614, "lon": 17.1837752, "tags": {"name": "Nemeskereszt\u00far", "railway": "station", "ref:mav": "2489"}}, {"type": "node", "id": 73838931, "lat": 47.1155131, "lon": 17.1718446, "tags": {"name": "J\u00e1nosh\u00e1za", "railway": "station", "ref:mav": "2490"}}, {"type": "node", "id": 73838428, "lat": 47.1827729, "lon": 17.1914333, "tags": {"name": "Boba", "railway": "station", "ref:mav": "1651"}}, {"type": "node", "id": 93800951, "lat": 47.238795, "lon": 16.8331959, "tags": {"name": "Porp\u00e1c", "railway": "station", "ref:mav": "2888"}}, {"type": "node", "id": 93800949, "lat": 47.3004378, "lon": 16.8432544, "tags": {"name": "\u00d6lb\u0151-Als\u00f3szeleste", "public_transport": "station", "railway": "station", "ref:mav": "65430"}}, {"type": "node", "id": 780946519, "lat": 47.2590283, "lon": 16.9294418, "tags": {"alt_name:de": "Rotenturm an der Raab", "name": "S\u00e1rv\u00e1r", "name:de": "Kotenburg", "railway": "station", "ref:mav": "2887"}}, {"type": "node", "id": 93800945, "lat": 47.3579897, "lon": 16.8988099, "tags": {"name": "Hegyfalu", "public_transport": "station", "railway": "station", "ref:mav": "65428"}}, {"type": "node", "id": 268196140, "lat": 47.2839657, "lon": 17.0241916, "tags": {"name": "Ostffyasszonyfa", "railway": "station", "ref:mav": "2886"}}, {"type": "node", "id": 4696599905, "lat": 47.2612127, "lon": 17.1526088, "tags": {"name": "Celld\u00f6m\u00f6lk", "name:de": "Kleinmariazell", "name:hr": "Demlak", "public_transport": "station", "railway": "station", "ref:mav": "2883", "train": "yes"}}, {"type": "node", "id": 1065129544, "lat": 47.1513823, "lon": 17.2383764, "tags": {"name": "Kerta", "railway": "station", "ref:mav": "1650"}}, {"type": "node", "id": 1065130191, "lat": 47.1286186, "lon": 17.3318956, "tags": {"name": "T\u00fcskev\u00e1r", "railway": "station", "ref:mav": "1648"}}, {"type": "node", "id": 1065129390, "lat": 47.1244747, "lon": 17.3685204, "tags": {"name": "Soml\u00f3v\u00e1s\u00e1rhely", "railway": "station", "ref:mav": "1647"}}, {"type": "node", "id": 80231939, "lat": 47.1124957, "lon": 17.4347371, "tags": {"name": "Devecser", "name:de": "Dewetscher", "railway": "station", "ref:mav": "1646"}}, {"type": "node", "id": 71526236, "lat": 47.1059403, "lon": 17.5728618, "tags": {"name": "Ajka", "name:de": "Eikau", "operator": "M\u00c1V", "railway": "station", "railway:name:M\u00c1V": "Ajka", "ref:mav": "1643", "uic_ref": "5503996"}}, {"type": "node", "id": 1063783657, "lat": 47.2800983, "lon": 17.2217295, "tags": {"name": "K\u00fcls\u0151vat", "railway": "station", "ref:mav": "2882"}}, {"type": "node", "id": 276517078, "lat": 47.3056986, "lon": 17.2824422, "tags": {"name": "Vin\u00e1r", "railway": "station", "ref:mav": "2881"}}, {"type": "node", "id": 2971262119, "lat": 47.3236577, "lon": 17.3644206, "tags": {"name": "Mez\u0151lak", "public_transport": "station", "railway": "station", "ref:mav": "2879"}}, {"type": "node", "id": 276516808, "lat": 47.3407254, "lon": 17.4593803, "tags": {"addr:city": "P\u00e1pa", "addr:housenumber": "2", "addr:postcode": "8500", "addr:street": "B\u00e9ke t\u00e9r", "name": "P\u00e1pa", "operator": "M\u00c1V", "public_transport": "station", "railway": "station", "railway:ref": "PA", "ref:mav": "2878", "toilets:wheelchair": "yes", "uic_ref": "5502121", "website": "https://www.mavcsoport.hu/mav-start/belfoldi-utazas/vasutallomas/papa", "wheelchair": "limited", "wheelchair:description": "Az \u00e1llom\u00e1s\u00e9p\u00fclet akad\u00e1lymentes, a peronokhoz nem tartozik lift, csak l\u00e9pcs\u0151felvon\u00f3", "wikidata": "Q21876801", "wikipedia": "hu:P\u00e1pa vas\u00fat\u00e1llom\u00e1s"}}, {"type": "node", "id": 1212435233, "lat": 47.4024569, "lon": 17.4962886, "tags": {"name": "Vaszar", "railway": "station", "ref:mav": "2877"}}, {"type": "node", "id": 412453954, "lat": 46.5805088, "lon": 17.6347518, "tags": {"name": "Somogyv\u00e1r", "public_transport": "station", "railway": "station", "ref:mav": "6081", "train": "yes"}}, {"type": "node", "id": 412453655, "lat": 46.6088798, "lon": 17.6325572, "tags": {"name": "\u00d6reglak", "public_transport": "station", "railway": "station", "ref:mav": "6082", "train": "yes"}}, {"type": "node", "id": 33123282, "lat": 46.7760797, "lon": 17.6471745, "tags": {"name": "Balatonbogl\u00e1r", "public_transport": "stop_position", "railway": "stop", "ref:mav": "3608", "train": "yes"}}, {"type": "node", "id": 2386848660, "lat": 46.7759196, "lon": 17.6462743, "tags": {"name": "Balatonbogl\u00e1r", "public_transport": "stop_position", "railway": "stop", "ref:mav": "3608", "train": "yes"}}, {"type": "node", "id": 8458075882, "lat": 46.7760449, "lon": 17.6468726, "tags": {"name": "Balatonbogl\u00e1r", "operator": "M\u00c1V", "public_transport": "station", "railway": "station", "railway:ref": "BG", "train": "yes", "uic_ref": "5503475"}}, {"type": "node", "id": 95043968, "lat": 46.6150348, "lon": 17.8670762, "tags": {"name": "Kisb\u00e1rap\u00e1ti", "railway": "station", "ref:mav": "5010"}}, {"type": "node", "id": 95043959, "lat": 46.7205087, "lon": 17.9209795, "tags": {"name": "Somogymeggyes", "railway": "station", "ref:mav": "5857"}}, {"type": "node", "id": 4955574766, "lat": 46.8291068, "lon": 17.6324456, "tags": {"name": "R\u00e9vf\u00fcl\u00f6p", "public_transport": "stop_position", "railway": "stop", "train": "yes"}}, {"type": "node", "id": 5333649459, "lat": 46.8292512, "lon": 17.6329096, "tags": {"name": "R\u00e9vf\u00fcl\u00f6p", "operator": "M\u00c1V", "railway": "station", "railway:ref": "V", "train": "yes"}}, {"type": "node", "id": 33123428, "lat": 46.7874032, "lon": 17.694259, "tags": {"name": "Balatonlelle", "public_transport": "stop_position", "railway": "stop", "ref:mav": "3606", "train": "yes"}}, {"type": "node", "id": 33123450, "lat": 46.7948759, "lon": 17.7205812, "tags": {"name": "Balatonlelle fels\u0151", "public_transport": "stop_position", "railway": "stop", "ref:mav": "3605", "train": "yes"}}, {"type": "node", "id": 80221121, "lat": 46.8728707, "lon": 17.6876406, "tags": {"name": "Z\u00e1nka-K\u00f6vesk\u00e1l", "public_transport": "stop_position", "train": "yes"}}, {"type": "node", "id": 5333649460, "lat": 46.8729162, "lon": 17.687821, "tags": {"name": "Z\u00e1nka-K\u00f6vesk\u00e1l", "operator": "M\u00c1V", "railway": "station", "train": "yes"}}, {"type": "node", "id": 8359012135, "lat": 46.7957593, "lon": 17.7238861, "tags": {"name": "Balatonlelle fels\u0151", "public_transport": "stop_position", "railway": "stop", "ref:mav": "3605", "train": "yes"}}, {"type": "node", "id": 8458047285, "lat": 46.795354, "lon": 17.7223659, "tags": {"name": "Balatonlelle fels\u0151", "operator": "M\u00c1V", "public_transport": "station", "railway": "station", "railway:ref": "LF", "ref:mav": "3605", "train": "yes", "uic_ref": "5503442", "wheelchair": "limited"}}, {"type": "node", "id": 33123460, "lat": 46.8121857, "lon": 17.7770725, "tags": {"local_ref": "2", "name": "Balatonszemes", "public_transport": "stop_position", "ref:mav": "3604", "train": "yes"}}, {"type": "node", "id": 3554648598, "lat": 46.8116021, "lon": 17.7751652, "tags": {"local_ref": "3", "name": "Balatonszemes", "public_transport": "stop_position", "ref:mav": "3604", "train": "yes"}}, {"type": "node", "id": 7041674499, "lat": 46.8124415, "lon": 17.7775948, "tags": {"name": "Balatonszemes", "operator": "M\u00c1V", "railway": "station", "ref:mav": "3604", "train": "yes"}}, {"type": "node", "id": 80221134, "lat": 46.8796704, "lon": 17.7478992, "tags": {"name": "Balatonakali-D\u00f6rgicse", "old_name": "D\u00f6rgicse-Akali", "railway": "station", "ref:mav": "1685", "wheelchair": "yes"}}, {"type": "node", "id": 33123468, "lat": 46.8321448, "lon": 17.8304252, "tags": {"local_ref": "2", "name": "Balatonsz\u00e1rsz\u00f3", "public_transport": "stop_position", "ref:mav": "3394", "train": "yes"}}, {"type": "node", "id": 7041664257, "lat": 46.8335023, "lon": 17.8341998, "tags": {"local_ref": "2", "name": "Balatonsz\u00e1rsz\u00f3", "public_transport": "stop_position", "ref:mav": "3394", "train": "yes"}}, {"type": "node", "id": 7041664258, "lat": 46.83338, "lon": 17.8338084, "tags": {"name": "Balatonsz\u00e1rsz\u00f3", "operator": "M\u00c1V", "railway": "station", "railway:ref": "SO"}}, {"type": "node", "id": 33123473, "lat": 46.8534022, "lon": 17.8799757, "tags": {"name": "Balatonf\u00f6ldv\u00e1r", "public_transport": "stop_position", "railway": "stop", "ref:mav": "3393", "train": "yes", "wheelchair": "no"}}, {"type": "node", "id": 1065130327, "lat": 46.8624015, "lon": 17.8997107, "tags": {"name": "Sz\u00e1nt\u00f3d", "old_name:-2020-12-12": "Sz\u00e1nt\u00f3d-K\u0151r\u00f6shegy", "operator": "M\u00c1V-Start", "public_transport": "stop_position", "railway": "stop", "train": "yes"}}, {"type": "node", "id": 3543646159, "lat": 46.8622807, "lon": 17.8991972, "tags": {"name": "Sz\u00e1nt\u00f3d", "old_name:-2020-12-12": "Sz\u00e1nt\u00f3d-K\u0151r\u00f6shegy", "operator": "M\u00c1V-Start", "public_transport": "stop_position", "railway": "stop", "train": "yes"}}, {"type": "node", "id": 6365328784, "lat": 46.8623903, "lon": 17.8995729, "tags": {"name": "Sz\u00e1nt\u00f3d", "old_name:-2020-12-12": "Sz\u00e1nt\u00f3d-K\u0151r\u00f6shegy", "operator": "M\u00c1V", "railway": "station", "railway:ref": "SZ", "uic_ref": "5503400"}}, {"type": "node", "id": 33123786, "lat": 46.886404, "lon": 17.9712392, "tags": {"name": "Zam\u00e1rdi fels\u0151", "operator": "M\u00c1V-Start", "public_transport": "stop_position", "railway": "stop", "ref:mav": "1627", "train": "yes"}}, {"type": "node", "id": 6365349743, "lat": 46.887389, "lon": 17.9754377, "tags": {"name": "Zam\u00e1rdi fels\u0151", "operator": "M\u00c1V-Start", "public_transport": "stop_position", "railway": "stop", "ref:mav": "1627", "train": "yes"}}, {"type": "node", "id": 6365349744, "lat": 46.8869278, "lon": 17.9734598, "tags": {"name": "Zam\u00e1rdi fels\u0151", "operator": "M\u00c1V", "railway": "station", "ref:mav": "1627"}}, {"type": "node", "id": 77882377, "lat": 46.925557, "lon": 17.8331286, "tags": {"name": "Asz\u00f3f\u0151,1. v\u00e1g\u00e1ny", "name:de": "Asz\u00f3f\u0151, Gleis 1", "public_transport": "stop_position", "train": "yes", "wheelchair": "no"}}, {"type": "node", "id": 80221159, "lat": 46.9252496, "lon": 17.83254, "tags": {"name": "Asz\u00f3f\u0151", "operator": "M\u00c1V", "railway": "station", "railway:ref": "AF", "ref:mav": "1681"}}, {"type": "node", "id": 3015527853, "lat": 46.9255207, "lon": 17.8331493, "tags": {"name": "Asz\u00f3f\u0151,2. v\u00e1g\u00e1ny", "name:de": "Asz\u00f3f\u0151, Gleis 2", "public_transport": "stop_position", "train": "yes", "wheelchair": "no"}}, {"type": "node", "id": 3015527854, "lat": 46.9254347, "lon": 17.8332074, "tags": {"name": "Asz\u00f3f\u0151,3. v\u00e1g\u00e1ny", "name:de": "Asz\u00f3f\u0151, Gleis 3", "public_transport": "stop_position", "train": "yes", "wheelchair": "no"}}, {"type": "node", "id": 80221174, "lat": 46.9563417, "lon": 17.8832266, "tags": {"name": "Balatonf\u00fcred", "name:de": "Bad Plattensee", "name:fa": "\u0628\u0627\u0644\u0627\u062a\u0646\u0641\u0648\u0631\u062f", "name:hr": "Balatonfured", "name:lt": "Balatonfiuredas", "name:ru": "\u0411\u0430\u043b\u0430\u0442\u043e\u043d\u0444\u044e\u0440\u0435\u0434", "name:sr": "\u0411\u0430\u043b\u0430\u0442\u043e\u043d\u0444\u0438\u0440\u0435\u0434", "name:zh": "\u5df4\u62c9\u9813\u83f2\u8cf4\u5fb7", "platforms": "5", "railway": "station", "ref:mav": "1680", "wheelchair": "yes"}}, {"type": "node", "id": 1065129553, "lat": 46.8912986, "lon": 17.9911178, "tags": {"name": "Balatonsz\u00e9plak als\u00f3", "operator": "M\u00c1V-Start", "public_transport": "stop_position", "railway": "stop", "ref:mav": "1626", "train": "yes"}}, {"type": "node", "id": 6354445898, "lat": 46.8917691, "lon": 17.9932142, "tags": {"name": "Balatonsz\u00e9plak als\u00f3", "operator": "M\u00c1V-Start", "public_transport": "stop_position", "railway": "stop", "ref:mav": "1626", "train": "yes"}}, {"type": "node", "id": 33123799, "lat": 46.8973096, "lon": 18.0156028, "tags": {"name": "Balatonsz\u00e9plak fels\u0151", "operator": "M\u00c1V-Start", "public_transport": "stop_position", "railway": "stop", "ref:mav": "1625", "train": "yes"}}, {"type": "node", "id": 6354450615, "lat": 46.8979082, "lon": 18.0181608, "tags": {"name": "Balatonsz\u00e9plak fels\u0151", "operator": "M\u00c1V-Start", "public_transport": "stop_position", "railway": "stop", "ref:mav": "1625", "train": "yes"}}, {"type": "node", "id": 80221191, "lat": 46.9849945, "lon": 17.9749699, "tags": {"name": "Als\u00f3\u00f6rs", "railway": "station", "ref:mav": "1677", "wheelchair": "no"}}, {"type": "node", "id": 33127897, "lat": 46.7340954, "lon": 18.0414685, "tags": {"addr:city": "Tab", "addr:housenumber": "1", "addr:postcode": "8660", "addr:street": "Kossuth Lajos utca", "name": "Tab", "railway": "station", "ref:mav": "6069"}}, {"type": "node", "id": 2404119307, "lat": 46.7461631, "lon": 18.1100718, "tags": {"name": "B\u00e1bonymegyer", "railway": "station", "ref:mav": "6070"}}, {"type": "node", "id": 2404118404, "lat": 46.7666543, "lon": 18.1468714, "tags": {"name": "Dar\u00e1nypuszta", "railway": "station", "ref:mav": "6071"}}, {"type": "node", "id": 551213795, "lat": 46.6289381, "lon": 18.2913872, "tags": {"name": "Tam\u00e1si", "name:de": "Tammasching", "railway": "station", "station": "disused"}}, {"type": "node", "id": 619127264, "lat": 46.5752949, "lon": 18.4202097, "tags": {"name": "Sz\u00e1razd", "public_transport": "stop_position", "railway": "halt", "ref:mav": "1752", "train": "yes"}}, {"type": "node", "id": 551213844, "lat": 46.5973877, "lon": 18.4263014, "tags": {"name": "Kesz\u0151hidegk\u00fat-Gy\u00f6nk", "public_transport": "stop_position", "railway": "station", "ref:mav": "1751", "train": "yes"}}, {"type": "node", "id": 619127266, "lat": 46.6395048, "lon": 18.4114203, "tags": {"name": "Belecska", "public_transport": "stop_position", "railway": "halt", "ref:mav": "1189", "train": "yes"}}, {"type": "node", "id": 411322676, "lat": 46.6812687, "lon": 18.4300492, "tags": {"name": "Pincehely", "name:ru": "\u041f\u0438\u043d\u0446\u0435\u0445\u0435\u0439", "public_transport": "stop_position", "railway": "station", "ref:mav": "1750", "train": "yes"}}, {"type": "node", "id": 2404118057, "lat": 46.8029547, "lon": 18.1493125, "tags": {"name": "Som-Nagyber\u00e9ny", "railway": "station", "ref:mav": "6072"}}, {"type": "node", "id": 95043905, "lat": 46.8541532, "lon": 18.141328, "tags": {"name": "\u00c1d\u00e1nd", "railway": "station", "ref:mav": "6073"}}, {"type": "node", "id": 33123807, "lat": 46.9078435, "lon": 18.0533904, "tags": {"local_ref": "3", "name": "Si\u00f3fok", "public_transport": "stop_position", "railway": "stop", "train": "yes", "wheelchair": "no"}}, {"type": "node", "id": 1770420737, "lat": 46.9081209, "lon": 18.054657, "tags": {"name": "Si\u00f3fok", "public_transport": "stop_position", "railway": "stop", "train": "yes", "wheelchair": "no"}}, {"type": "node", "id": 8410326621, "lat": 46.9078971, "lon": 18.054378, "tags": {"name": "Si\u00f3fok", "operator": "M\u00c1V", "platforms": "3", "public_transport": "station", "railway": "station", "railway:ref": "SI", "ref:mav": "1624", "train": "yes", "wheelchair": "no"}}, {"type": "node", "id": 95043903, "lat": 46.9112319, "lon": 18.0769527, "tags": {"name": "Si\u00f3v\u00f6lgy", "railway": "station", "ref:mav": "1051"}}, {"type": "node", "id": 371157928, "lat": 46.9244434, "lon": 18.1002769, "tags": {"name": "Szabadif\u00fcrd\u0151", "old_name": "Balatonszabadi", "public_transport": "stop_position", "railway": "stop", "ref:mav": "844", "train": "yes"}}, {"type": "node", "id": 6365361929, "lat": 46.9348973, "lon": 18.1202128, "tags": {"name": "Szabadis\u00f3st\u00f3", "operator": "M\u00c1V", "railway": "station", "ref:mav": "1623"}}, {"type": "node", "id": 6365361930, "lat": 46.9339612, "lon": 18.1184286, "tags": {"name": "Szabadis\u00f3st\u00f3", "operator": "M\u00c1V-Start", "public_transport": "stop_position", "railway": "stop", "ref:mav": "1623", "train": "yes"}}, {"type": "node", "id": 92311498, "lat": 46.9359064, "lon": 18.1221232, "tags": {"name": "Szabadis\u00f3st\u00f3", "operator": "M\u00c1V-Start", "public_transport": "stop_position", "railway": "stop", "ref:mav": "1623", "train": "yes"}}, {"type": "node", "id": 678436922, "lat": 46.9639554, "lon": 18.1577071, "tags": {"name": "Balatonvil\u00e1gos", "public_transport": "stop_position", "railway": "stop", "ref:mav": "843", "train": "yes", "wheelchair": "yes"}}, {"type": "node", "id": 92311451, "lat": 46.9844158, "lon": 18.1708754, "tags": {"local_ref": "2", "name": "Balatonaliga", "operator": "M\u00c1V", "public_transport": "stop_position", "railway": "stop", "ref:mav": "842", "train": "yes"}}, {"type": "node", "id": 8371157148, "lat": 46.9843079, "lon": 18.1706918, "tags": {"name": "Balatonaliga", "operator": "M\u00c1V", "public_transport": "station", "railway": "station", "train": "yes"}}, {"type": "node", "id": 92311503, "lat": 46.9861756, "lon": 18.2462804, "tags": {"name": "Leps\u00e9ny", "public_transport": "stop_position", "railway": "stop", "ref:mav": "841", "train": "yes"}}, {"type": "node", "id": 71526160, "lat": 47.1343841, "lon": 17.6318064, "tags": {"name": "V\u00e1rosl\u0151d-Kisl\u0151d", "operator": "M\u00c1V", "public_transport": "station", "railway": "station", "railway:name:M\u00c1V": "V\u00e1rosl\u0151d-Kisl\u0151d", "ref:mav": "1642", "uic_ref": "5503988"}}, {"type": "node", "id": 1065129364, "lat": 47.1363631, "lon": 17.707357, "tags": {"name": "Szentg\u00e1l", "operator": "M\u00c1V", "public_transport": "station", "railway": "station", "railway:name:M\u00c1V": "Szentg\u00e1l", "ref:mav": "1640", "train": "yes", "uic_ref": "5503962"}}, {"type": "node", "id": 1065129534, "lat": 47.1367731, "lon": 17.7604405, "tags": {"name": "Herend", "operator": "M\u00c1V", "railway": "station", "railway:name:M\u00c1V": "Herend", "ref:mav": "1639", "uic_ref": "5503954"}}, {"type": "node", "id": 80221200, "lat": 47.0282866, "lon": 18.0150774, "tags": {"name": "Balatonalm\u00e1di", "public_transport": "stop_position", "railway": "station", "ref": "2", "ref:mav": "1675", "train": "yes"}}, {"type": "node", "id": 3277701214, "lat": 47.0283255, "lon": 18.0157713, "tags": {"public_transport": "stop_position", "ref": "3", "train": "yes"}}, {"type": "node", "id": 71481373, "lat": 47.1188724, "lon": 17.9110155, "tags": {"name": "Veszpr\u00e9m", "name:de": "Wesprim", "name:ru": "\u0412\u0435\u0441\u043f\u0440\u0435\u043c", "name:sr": "\u0412\u0435\u0441\u043f\u0440\u0435\u043c", "old_name:de": "Wei\u00dfbrunn", "operator": "M\u00c1V", "public_transport": "station", "railway": "station", "railway:name:M\u00c1V": "Veszpr\u00e9m", "railway:ref": "J", "ref:mav": "1638", "train": "yes", "uic_ref": "5503947"}}, {"type": "node", "id": 1779756702, "lat": 47.1193376, "lon": 17.9118164, "tags": {"operator": "M\u00c1V", "public_transport": "stop_position", "railway": "stop", "train": "yes"}}, {"type": "node", "id": 321850118, "lat": 47.1927353, "lon": 17.9215915, "tags": {"name": "Epl\u00e9ny", "operator": "M\u00c1V", "public_transport": "station", "railway": "station", "railway:name:M\u00c1V": "Epl\u00e9ny", "ref:mav": "818", "train": "yes", "uic_ref": "5503038"}}, {"type": "node", "id": 80231932, "lat": 47.1409977, "lon": 18.0090856, "tags": {"name": "Hajm\u00e1sk\u00e9r", "operator": "M\u00c1V", "railway": "station", "railway:name:M\u00c1V": "Hajm\u00e1sk\u00e9r", "ref:mav": "1637", "uic_ref": "5503939"}}, {"type": "node", "id": 321886673, "lat": 47.3959898, "lon": 17.8177933, "tags": {"name": "Bakonyszentl\u00e1szl\u00f3", "operator": "M\u00c1V", "public_transport": "station", "railway": "station", "railway:name:M\u00c1V": "Bakonyszentl\u00e1szl\u00f3", "ref:mav": "815", "train": "yes", "uic_ref": "5502972"}}, {"type": "node", "id": 445818143, "lat": 47.2667256, "lon": 17.8780849, "tags": {"name": "Zirc", "operator": "M\u00c1V", "public_transport": "station", "railway": "station", "railway:name:M\u00c1V": "Zirc", "ref:mav": "817", "train": "yes", "uic_ref": "5502998"}}, {"type": "node", "id": 3350644827, "lat": 47.3269663, "lon": 17.8414031, "tags": {"name": "Porva-Csesznek", "operator": "M\u00c1V", "public_transport": "station", "railway": "station", "railway:name:M\u00c1V": "Porva-Csesznek", "ref:mav": "816", "train": "yes", "uic_ref": "5502980"}}, {"type": "node", "id": 80221206, "lat": 47.0323802, "lon": 18.1060228, "tags": {"name": "Balatonkenese", "public_transport": "station", "railway": "station", "ref:mav": "1673", "toilets:wheelchair": "yes", "train": "yes", "wheelchair": "limited"}}, {"type": "node", "id": 6458635225, "lat": 47.0597328, "lon": 18.0426031, "tags": {"name": "Balatonf\u0171zf\u0151", "operator": "M\u00c1V", "railway": "station", "ref:mav": "1674", "wheelchair": "no"}}, {"type": "node", "id": 61086286, "lat": 47.0336494, "lon": 18.1861279, "tags": {"name": "Csaj\u00e1g", "railway": "station", "ref:mav": "1670"}}, {"type": "node", "id": 80231925, "lat": 47.1671614, "lon": 18.1222266, "tags": {"name": "P\u00e9tf\u00fcrd\u0151", "operator": "M\u00c1V", "public_transport": "station", "railway": "station", "railway:name:M\u00c1V": "P\u00e9tf\u00fcrd\u0151", "ref:mav": "1636", "train": "yes", "uic_ref": "5503921"}}, {"type": "node", "id": 71481036, "lat": 47.1946346, "lon": 18.1488689, "tags": {"name": "V\u00e1rpalota", "name:de": "Burgschlo\u00df", "operator": "M\u00c1V", "public_transport": "station", "railway": "station", "railway:name:M\u00c1V": "V\u00e1rpalota", "ref:mav": "1635", "train": "yes", "uic_ref": "5503871"}}, {"type": "node", "id": 2696303372, "lat": 47.1739736, "lon": 18.2204922, "tags": {"name": "Cs\u00f3r-N\u00e1dasdlad\u00e1ny", "note": "Nem haszn\u00e1lt meg\u00e1ll\u00f3hely", "public_transport": "stop_position", "railway": "stop", "train": "yes"}}, {"type": "node", "id": 8446032161, "lat": 47.1740082, "lon": 18.2204145, "tags": {"disused:railway": "station", "name": "Cs\u00f3r-N\u00e1dasdlad\u00e1ny", "operator": "M\u00c1V", "public_transport": "station", "railway": "station", "railway:name:M\u00c1V": "Cs\u00f3r-N\u00e1dasdlad\u00e1ny", "train": "yes", "uic_ref": "5503855"}}, {"type": "node", "id": 1065130550, "lat": 47.0190483, "lon": 18.3008499, "tags": {"name": "Polg\u00e1rdi-Tekerespuszta", "public_transport": "stop_position", "railway": "stop", "ref:mav": "2737", "train": "yes"}}, {"type": "node", "id": 61086242, "lat": 47.0699508, "lon": 18.2843025, "tags": {"name": "Polg\u00e1rdi", "railway": "station", "ref:mav": "1667"}}, {"type": "node", "id": 61086232, "lat": 47.0791646, "lon": 18.3150251, "tags": {"name": "Polg\u00e1rdi-Ipartelepek", "railway": "station", "ref:mav": "1666"}}, {"type": "node", "id": 1065129667, "lat": 47.0480412, "lon": 18.3549811, "tags": {"name": "Kiscs\u00e9ripuszta", "public_transport": "stop_position", "railway": "stop", "ref:mav": "840", "train": "yes"}}, {"type": "node", "id": 61086193, "lat": 47.1054078, "lon": 18.3883521, "tags": {"name": "Szabadbatty\u00e1n", "railway": "station", "ref:mav": "839"}}, {"type": "node", "id": 2753681384, "lat": 47.1054218, "lon": 18.3881806, "tags": {"name": "Szabadbatty\u00e1n", "railway": "station", "ref:mav": "839"}}, {"type": "node", "id": 61086169, "lat": 47.1589451, "lon": 18.4064033, "tags": {"name": "Sz\u00e9kesfeh\u00e9rv\u00e1r-Rep\u00fcl\u0151t\u00e9r", "public_transport": "stop_position", "railway": "stop", "ref:mav": "1001", "train": "yes"}}, {"type": "node", "id": 4694446176, "lat": 47.1589528, "lon": 18.4065978, "tags": {"name": "Sz\u00e9kesfeh\u00e9rv\u00e1r-Rep\u00fcl\u0151t\u00e9r", "public_transport": "stop_position", "railway": "stop", "ref:mav": "1001", "train": "yes"}}, {"type": "node", "id": 4220298839, "lat": 47.1832342, "lon": 18.4248473, "tags": {"local_ref": "1", "name": "Sz\u00e9kesfeh\u00e9rv\u00e1r", "name:cs": "Stoli\u010dn\u00fd B\u011blehrad", "name:de": "Stuhlwei\u00dfenburg", "name:la": "Alba Regia Regina", "name:ru": "\u0421\u0435\u043a\u0435\u0448\u0444\u0435\u0445\u0435\u0440\u0432\u0430\u0440", "name:sk": "Stoli\u010dn\u00fd Belehrad", "name:sr": "\u0421\u0442\u043e\u043b\u043d\u0438 \u0411\u0435\u043e\u0433\u0440\u0430\u0434", "name:uk": "\u0421\u0435\u043a\u0435\u0448\u0444\u0435\u0433\u0435\u0440\u0432\u0430\u0440", "public_transport": "stop_position", "railway": "stop", "ref:mav": "838", "train": "yes", "wheelchair": "yes"}}, {"type": "node", "id": 4220298840, "lat": 47.1831969, "lon": 18.4248669, "tags": {"local_ref": "2", "name": "Sz\u00e9kesfeh\u00e9rv\u00e1r", "name:cs": "Stoli\u010dn\u00fd B\u011blehrad", "name:de": "Stuhlwei\u00dfenburg", "name:la": "Alba Regia Regina", "name:ru": "\u0421\u0435\u043a\u0435\u0448\u0444\u0435\u0445\u0435\u0440\u0432\u0430\u0440", "name:sk": "Stoli\u010dn\u00fd Belehrad", "name:sr": "\u0421\u0442\u043e\u043b\u043d\u0438 \u0411\u0435\u043e\u0433\u0440\u0430\u0434", "name:uk": "\u0421\u0435\u043a\u0435\u0448\u0444\u0435\u0433\u0435\u0440\u0432\u0430\u0440", "public_transport": "stop_position", "railway": "stop", "ref:mav": "838", "train": "yes", "wheelchair": "yes"}}, {"type": "node", "id": 4244712588, "lat": 47.1830888, "lon": 18.4249483, "tags": {"local_ref": "3", "name": "Sz\u00e9kesfeh\u00e9rv\u00e1r", "name:cs": "Stoli\u010dn\u00fd B\u011blehrad", "name:de": "Stuhlwei\u00dfenburg", "name:la": "Alba Regia Regina", "name:ru": "\u0421\u0435\u043a\u0435\u0448\u0444\u0435\u0445\u0435\u0440\u0432\u0430\u0440", "name:sk": "Stoli\u010dn\u00fd Belehrad", "name:sr": "\u0421\u0442\u043e\u043b\u043d\u0438 \u0411\u0435\u043e\u0433\u0440\u0430\u0434", "name:uk": "\u0421\u0435\u043a\u0435\u0448\u0444\u0435\u0433\u0435\u0440\u0432\u0430\u0440", "public_transport": "stop_position", "railway": "stop", "ref:mav": "838", "train": "yes", "wheelchair": "yes"}}, {"type": "node", "id": 4244712690, "lat": 47.1829395, "lon": 18.4250501, "tags": {"local_ref": "5", "name": "Sz\u00e9kesfeh\u00e9rv\u00e1r", "name:cs": "Stoli\u010dn\u00fd B\u011blehrad", "name:de": "Stuhlwei\u00dfenburg", "name:la": "Alba Regia Regina", "name:ru": "\u0421\u0435\u043a\u0435\u0448\u0444\u0435\u0445\u0435\u0440\u0432\u0430\u0440", "name:sk": "Stoli\u010dn\u00fd Belehrad", "name:sr": "\u0421\u0442\u043e\u043b\u043d\u0438 \u0411\u0435\u043e\u0433\u0440\u0430\u0434", "name:uk": "\u0421\u0435\u043a\u0435\u0448\u0444\u0435\u0433\u0435\u0440\u0432\u0430\u0440", "public_transport": "stop_position", "railway": "stop", "ref:mav": "838", "train": "yes", "wheelchair": "yes"}}, {"type": "node", "id": 4244712691, "lat": 47.1829056, "lon": 18.4250703, "tags": {"local_ref": "6", "name": "Sz\u00e9kesfeh\u00e9rv\u00e1r", "name:cs": "Stoli\u010dn\u00fd B\u011blehrad", "name:de": "Stuhlwei\u00dfenburg", "name:la": "Alba Regia Regina", "name:ru": "\u0421\u0435\u043a\u0435\u0448\u0444\u0435\u0445\u0435\u0440\u0432\u0430\u0440", "name:sk": "Stoli\u010dn\u00fd Belehrad", "name:sr": "\u0421\u0442\u043e\u043b\u043d\u0438 \u0411\u0435\u043e\u0433\u0440\u0430\u0434", "name:uk": "\u0421\u0435\u043a\u0435\u0448\u0444\u0435\u0433\u0435\u0440\u0432\u0430\u0440", "public_transport": "stop_position", "railway": "stop", "ref:mav": "838", "train": "yes", "wheelchair": "yes"}}, {"type": "node", "id": 6543738104, "lat": 47.1830479, "lon": 18.4249675, "tags": {"local_ref": "3", "name": "Sz\u00e9kesfeh\u00e9rv\u00e1r", "name:cs": "Stoli\u010dn\u00fd B\u011blehrad", "name:de": "Stuhlwei\u00dfenburg", "name:la": "Alba Regia Regina", "name:ru": "\u0421\u0435\u043a\u0435\u0448\u0444\u0435\u0445\u0435\u0440\u0432\u0430\u0440", "name:sk": "Stoli\u010dn\u00fd Belehrad", "name:sr": "\u0421\u0442\u043e\u043b\u043d\u0438 \u0411\u0435\u043e\u0433\u0440\u0430\u0434", "name:uk": "\u0421\u0435\u043a\u0435\u0448\u0444\u0435\u0433\u0435\u0440\u0432\u0430\u0440", "public_transport": "stop_position", "railway": "stop", "ref:mav": "838", "train": "yes", "wheelchair": "yes"}}, {"type": "node", "id": 7575662350, "lat": 47.1829992, "lon": 18.4250081, "tags": {"name": "Sz\u00e9kesfeh\u00e9rv\u00e1r", "name:cs": "Stoli\u010dn\u00fd B\u011blehrad", "name:de": "Stuhlwei\u00dfenburg", "name:la": "Alba Regia Regina", "name:ru": "\u0421\u0435\u043a\u0435\u0448\u0444\u0435\u0445\u0435\u0440\u0432\u0430\u0440", "name:sk": "Stoli\u010dn\u00fd Belehrad", "name:sr": "\u0421\u0442\u043e\u043b\u043d\u0438 \u0411\u0435\u043e\u0433\u0440\u0430\u0434", "name:uk": "\u0421\u0435\u043a\u0435\u0448\u0444\u0435\u0433\u0435\u0440\u0432\u0430\u0440", "operator": "M\u00c1V", "public_transport": "station", "railway": "station", "railway:name:M\u00c1V": "Sz\u00e9kesfeh\u00e9rv\u00e1r", "railway:ref": "SV", "ref:mav": "838", "train": "yes", "uic_ref": "5503269", "wheelchair": "yes"}}, {"type": "node", "id": 508042035, "lat": 47.2050001, "lon": 18.2213503, "tags": {"name": "Inota-Gy\u00e1rtelep", "railway": "station", "source": "guess"}}, {"type": "node", "id": 500910641, "lat": 47.3187597, "lon": 18.1489072, "tags": {"name": "Balinka", "railway": "station", "source": "guess"}}, {"type": "node", "id": 1065130834, "lat": 47.3298028, "lon": 18.2377174, "tags": {"name": "Cs\u00f3kak\u0151", "public_transport": "stop_position", "railway": "stop", "ref:mav": "3631", "train": "yes"}}, {"type": "node", "id": 7878193101, "lat": 47.3694409, "lon": 18.1886778, "tags": {"internet_access": "no", "name": "M\u00f3r", "name:de": "Moor", "operator": "M\u00c1V", "public_transport": "stop_position", "railway": "stop", "ref:mav": "3632", "train": "yes"}}, {"type": "node", "id": 8437526250, "lat": 47.3695041, "lon": 18.1888111, "tags": {"name": "M\u00f3r", "operator": "M\u00c1V", "public_transport": "station", "railway": "station", "railway:name:M\u00c1V": "M\u00f3r", "train": "yes", "uic_ref": "5503731"}}, {"type": "node", "id": 619723827, "lat": 47.2470985, "lon": 18.339622, "tags": {"name": "Moha", "operator": "M\u00c1V", "railway": "station", "railway:name:M\u00c1V": "Moha", "train": "yes", "uic_ref": "5503673"}}, {"type": "node", "id": 619723825, "lat": 47.2741113, "lon": 18.3063285, "tags": {"name": "Moha-Rakod\u00f3", "operator": "M\u00c1V", "public_transport": "station", "railway": "station", "railway:name:M\u00c1V": "Moha-Rakod\u00f3", "train": "yes", "uic_ref": "5503681"}}, {"type": "node", "id": 500910646, "lat": 47.3181226, "lon": 18.2520422, "tags": {"name": "Bodajk", "public_transport": "stop_position", "railway": "stop", "ref:mav": "3630", "train": "yes"}}, {"type": "node", "id": 8437526248, "lat": 47.3180555, "lon": 18.2520467, "tags": {"name": "Bodajk", "operator": "M\u00c1V", "public_transport": "station", "railway": "station", "railway:name:M\u00c1V": "Bodajk", "train": "yes", "uic_ref": "5503707"}}, {"type": "node", "id": 50825206, "lat": 47.5096145, "lon": 16.7773534, "tags": {"name": "L\u00f6v\u0151", "railway": "station", "ref:mav": "2530"}}, {"type": "node", "id": 1212434077, "lat": 47.6179016, "lon": 16.8507664, "tags": {"name": "Fert\u0151sz\u00e9plak-Fert\u0151d", "operator": "GYSEV", "public_transport": "stop_position", "railway": "halt", "ref:mav": "806", "train": "yes", "uic_ref": "5502857", "website": "https://www2.gysev.hu/gysev-szolgaltatasok/allomasok-penztarak/fertoszeplak-fertod-megallo", "wikidata": "Q21890523", "wikipedia": "hu:Fert\u0151sz\u00e9plak-Fert\u0151d meg\u00e1ll\u00f3hely"}}, {"type": "node", "id": 344302131, "lat": 47.5998095, "lon": 16.8600169, "tags": {"addr:city": "Fert\u0151szentmikl\u00f3s", "addr:housenumber": "11", "addr:postcode": "9444", "addr:street": "Gesztenye sor", "internet_access": "wlan", "name": "Fert\u0151szentmikl\u00f3s", "name:de": "Sankt Niklaus am Neusiedlersee", "name:hr": "Miklo\u0161", "name:hu": "Fert\u0151szentmikl\u00f3s", "operator": "GySEV", "public_transport": "station", "railway": "station", "railway:ref": "EM", "ref:mav": "800", "uic_ref": "5502667", "website": "https://www2.gysev.hu/gysev-szolgaltatasok/allomasok-penztarak/fertoszentmiklos-vasutallomas", "wikidata": "Q21876825", "wikipedia": "hu:Fert\u0151szentmikl\u00f3s vas\u00fat\u00e1llom\u00e1s"}}, {"type": "node", "id": 1212434034, "lat": 47.5956486, "lon": 16.8893818, "tags": {"name": "Pet\u0151h\u00e1za", "name:de": "P\u00f6ttelshausen", "name:hu": "Pet\u0151h\u00e1za", "railway": "station", "ref:mav": "799"}}, {"type": "node", "id": 93800938, "lat": 47.4190452, "lon": 17.0090068, "tags": {"name": "R\u00e9pcelak", "railway": "station", "ref:mav": "65396"}}, {"type": "node", "id": 93800933, "lat": 47.4666596, "lon": 17.0846233, "tags": {"name": "Beled", "railway": "station", "ref:mav": "65423"}}, {"type": "node", "id": 1065129663, "lat": 47.5819147, "lon": 17.0478068, "tags": {"name": "Kapuv\u00e1r", "name:de": "Kobrunn", "name:hr": "Kapuja", "operator": "GYSEV", "railway": "station", "ref:mav": "797"}}, {"type": "node", "id": 1212434825, "lat": 47.5928487, "lon": 17.1613319, "tags": {"name": "R\u00e1batam\u00e1si", "railway": "station", "ref:mav": "794"}}, {"type": "node", "id": 93800919, "lat": 47.7891069, "lon": 17.1376402, "tags": {"name": "J\u00e1nossomorja", "railway": "station", "ref:mav": "65417"}}, {"type": "node", "id": 1065130111, "lat": 47.4606405, "lon": 17.3152476, "tags": {"name": "Szany-R\u00e1baszentandr\u00e1s", "operator": "M\u00c1V", "public_transport": "station", "railway": "station", "railway:ref": "SN", "ref:mav": "820", "uic_ref": "5503079", "website": "https://www.mavcsoport.hu/mav-start/belfoldi-utazas/vasutallomas/szany-rabaszentandras", "wikidata": "Q22093548", "wikipedia": "hu:Szany-R\u00e1baszentandr\u00e1s vas\u00fat\u00e1llom\u00e1s"}}, {"type": "node", "id": 93548551, "lat": 47.5333512, "lon": 17.2096613, "tags": {"name": "Szil-Sopronn\u00e9meti", "operator": "GySEV", "public_transport": "station", "railway": "station", "railway:ref": "IL", "ref:mav": "65420"}}, {"type": "node", "id": 93800925, "lat": 47.601887, "lon": 17.2489622, "tags": {"name": "Csorna", "public_transport": "station", "railway": "stop", "train": "yes"}}, {"type": "node", "id": 4327586850, "lat": 47.6018061, "lon": 17.2490059, "tags": {"name": "Csorna", "public_transport": "station", "railway": "stop", "train": "yes"}}, {"type": "node", "id": 8431961831, "lat": 47.6019587, "lon": 17.248911, "tags": {"addr:city": "Csorna", "addr:housenumber": "1", "addr:postcode": "9300", "addr:street": "Aradi utca", "internet_access": "wlan", "name": "Csorna", "name:de": "Gschirnau", "operator": "GySEV", "public_transport": "station", "railway": "station", "railway:ref": "CS", "ref:mav": "1905", "train": "yes", "uic_ref": "5502576", "website": "https://www2.gysev.hu/gysev-szolgaltatasok/allomasok-penztarak/csorna-vasutallomas", "wheelchair": "limited", "wikidata": "Q21876823", "wikipedia": "hu:Csorna vas\u00fat\u00e1llom\u00e1s"}}, {"type": "node", "id": 500911441, "lat": 47.5218133, "lon": 17.3163893, "tags": {"name": "Egyed-R\u00e1bacsanak", "operator": "M\u00c1V", "public_transport": "station", "railway": "station", "railway:ref": "EC", "ref:mav": "821", "uic_ref": "5503087", "website": "https://www.mavcsoport.hu/mav-start/belfoldi-utazas/vasutallomas/egyed-rabacsanak", "wikidata": "Q22093547", "wikipedia": "hu:Egyed-R\u00e1bacsanak vas\u00fat\u00e1llom\u00e1s"}}, {"type": "node", "id": 5262529317, "lat": 47.4562019, "lon": 17.5149845, "tags": {"name": "Gecse-Gyarmat", "operator": "M\u00c1V", "railway": "station", "ref:mav": "2876"}}, {"type": "node", "id": 1065129572, "lat": 47.4852708, "lon": 17.5589005, "tags": {"name": "Gy\u00f6m\u00f6re", "operator": "M\u00c1V", "public_transport": "station", "railway": "station", "railway:ref": "GY", "ref:mav": "2874", "train": "yes", "uic_ref": "5502089"}}, {"type": "node", "id": 1350118932, "lat": 47.5016807, "lon": 17.5596047, "tags": {"name": "Gy\u00f6m\u00f6re-T\u00e9t", "railway": "station", "ref:mav": "2873"}}, {"type": "node", "id": 1065129599, "lat": 47.5671245, "lon": 17.5848052, "tags": {"name": "Gy\u0151rszemere", "operator": "M\u00c1V", "public_transport": "station", "railway": "station", "railway:ref": "SE", "ref:mav": "2871", "uic_ref": "5502055"}}, {"type": "node", "id": 93800924, "lat": 47.6854543, "lon": 17.2341386, "tags": {"name": "B\u0151s\u00e1rk\u00e1ny", "operator": "GYSEV", "railway": "station", "ref:mav": "65419"}}, {"type": "node", "id": 308760884, "lat": 47.6328442, "lon": 17.3595077, "tags": {"name": "K\u00f3ny", "railway": "station", "ref:mav": "790", "wheelchair": "yes"}}, {"type": "node", "id": 91711594, "lat": 47.8041361, "lon": 17.3421734, "tags": {"name": "Kimle-K\u00e1rolyh\u00e1za", "public_transport": "station", "railway": "station", "ref:mav": "3664", "train": "yes"}}, {"type": "node", "id": 1968165343, "lat": 47.6439721, "lon": 17.4237495, "tags": {"name": "Enese", "railway": "station", "ref:mav": "789"}}, {"type": "node", "id": 2883269382, "lat": 47.7197823, "lon": 17.4890789, "tags": {"name": "\u00d6ttev\u00e9ny", "railway": "station", "ref:mav": "3662"}}, {"type": "node", "id": 619723824, "lat": 47.6576284, "lon": 17.5233431, "tags": {"name": "Ikr\u00e9ny", "public_transport": "station", "railway": "station", "railway:position": "9.1", "railway:position:exact": "9.148", "railway:ref": "IK", "ref:mav": "787", "uic_ref": "5502519", "wheelchair": "no"}}, {"type": "node", "id": 91711539, "lat": 47.7558126, "lon": 17.4255287, "tags": {"name": "L\u00e9b\u00e9ny-Mosonszentmikl\u00f3s", "railway": "station", "ref:mav": "3663"}}, {"type": "node", "id": 93800918, "lat": 47.8527274, "lon": 17.1605574, "tags": {"name": "Mosonszolnok", "railway": "station", "ref:mav": "65416"}}, {"type": "node", "id": 91711461, "lat": 47.9136219, "lon": 17.1461667, "tags": {"name": "Hegyeshalom", "name:de": "Stra\u00df-Sommerein", "name:hr": "\u0160truos", "operator": "M\u00c1V", "railway": "station", "railway:position": "187.8", "railway:position:exact": "187.845", "railway:ref": "HH", "railway:ref:\u00d6BB": "He", "ref:mav": "3667", "uic_name": "Hegyeshalom", "uic_ref": "5500017"}}, {"type": "node", "id": 2293353460, "lat": 47.9136531, "lon": 17.1461506, "tags": {"name": "Hegyeshalom", "operator": "M\u00c1V", "public_transport": "stop_position", "train": "yes"}}, {"type": "node", "id": 2293419755, "lat": 47.9136279, "lon": 17.146119, "tags": {"name": "Hegyeshalom", "operator": "M\u00c1V", "public_transport": "stop_position", "train": "yes"}}, {"type": "node", "id": 5279185355, "lat": 47.9134645, "lon": 17.146741, "tags": {"name": "Hegyeshalom", "public_transport": "stop_position", "train": "yes"}}, {"type": "node", "id": 91711331, "lat": 47.9947641, "lon": 17.1922509, "tags": {"name": "Rajka", "name:de": "Ragendorf", "name:hr": "Rakindrof", "public_transport": "stop_position", "train": "yes"}}, {"type": "node", "id": 4751043700, "lat": 47.9947521, "lon": 17.1921805, "tags": {"name": "Rajka", "name:de": "Ragendorf", "name:hr": "Rakindrof", "railway": "station", "ref:mav": "65397"}}, {"type": "node", "id": 91711522, "lat": 47.849421, "lon": 17.2675871, "tags": {"name": "Mosonmagyar\u00f3v\u00e1r", "name:de": "Wieselburg-Ungarisch Altenburg", "name:hr": "Stari Grad", "name:la": "Ad Flexum", "name:ru": "\u041c\u043e\u0448\u043e\u043d\u043c\u0430\u0434\u044c\u044f\u0440\u043e\u0432\u0430\u0440", "public_transport": "station", "railway": "station", "ref:mav": "3665", "uic_name": "Mosonmagyarovar", "uic_ref": "5500016"}}, {"type": "node", "id": 3205905836, "lat": 47.8486302, "lon": 17.268684, "tags": {"name": "Mosonmagyar\u00f3v\u00e1r", "public_transport": "stop_position", "train": "yes"}}, {"type": "node", "id": 3205905837, "lat": 47.85008, "lon": 17.2666881, "tags": {"name": "Mosonmagyar\u00f3v\u00e1r", "public_transport": "stop_position", "train": "yes"}}, {"type": "node", "id": 91711371, "lat": 47.9733785, "lon": 17.2077129, "tags": {"name": "Bezenye", "operator": "GySEV", "public_transport": "stop_position", "railway": "stop", "ref:mav": "65436", "train": "yes"}}, {"type": "node", "id": 321885895, "lat": 47.4433867, "lon": 17.8185964, "tags": {"name": "Veszpr\u00e9mvars\u00e1ny", "operator": "M\u00c1V", "public_transport": "station", "railway": "station", "railway:name:M\u00c1V": "Veszpr\u00e9mvars\u00e1ny", "ref:mav": "814", "uic_ref": "5502964"}}, {"type": "node", "id": 321885953, "lat": 47.5045271, "lon": 17.7888751, "tags": {"name": "Tarj\u00e1npuszta", "operator": "M\u00c1V", "public_transport": "station", "railway": "station", "railway:name:M\u00c1V": "Tarj\u00e1npuszta", "ref:mav": "812", "train": "yes", "uic_ref": "5502949"}}, {"type": "node", "id": 321886026, "lat": 47.5477431, "lon": 17.7404127, "tags": {"name": "Pannonhalma", "operator": "M\u00c1V", "public_transport": "station", "railway": "station", "railway:name:M\u00c1V": "Pannonhalma", "ref:mav": "811", "train": "yes", "uic_ref": "5502931"}}, {"type": "node", "id": 1065129643, "lat": 47.5610302, "lon": 17.7288066, "tags": {"description": "nem \u00fczemel", "disused:railway": "stop", "name": "\u00c9cs", "public_transport": "stop_position", "train": "yes"}}, {"type": "node", "id": 500910871, "lat": 47.4942317, "lon": 18.0248351, "tags": {"name": "Kisb\u00e9r", "name:de": "Beer", "name:hu": "Kisb\u00e9r", "public_transport": "stop_position", "railway": "stop", "ref:mav": "3634", "train": "yes", "wheelchair": "yes"}}, {"type": "node", "id": 8437526260, "lat": 47.4942543, "lon": 18.0249355, "tags": {"name": "Kisb\u00e9r", "operator": "M\u00c1V", "public_transport": "station", "railway": "station", "railway:name:M\u00c1V": "Kisb\u00e9r", "train": "yes", "uic_ref": "5503764"}}, {"type": "node", "id": 8209517495, "lat": 47.6712762, "lon": 17.6309067, "tags": {"name": "Gy\u0151r GYSEV pu.", "public_transport": "station", "railway": "station", "train": "yes"}}, {"type": "node", "id": 445818141, "lat": 47.6631766, "lon": 17.6479427, "tags": {"name": "Gy\u0151rszabadhegy", "public_transport": "station", "railway": "station", "ref:mav": "2868", "train": "yes"}}, {"type": "node", "id": 91687004, "lat": 47.6820845, "lon": 17.6348269, "tags": {"name": "Gy\u0151r", "name:de": "Raab", "name:ka": "\u10d3\u10d8\u10dd\u10e0\u10d8", "name:ru": "\u0414\u044c\u0451\u0440", "name:sr": "\u0402\u0435\u0440", "name:uk": "\u0414\u044c\u0439\u043e\u0440", "operator": "M\u00c1V", "public_transport": "station", "railway": "station", "railway:ref": "GV", "railway:ref:DB": "XMG", "ref:mav": "3661", "uic_name": "Gy\u00f6r", "uic_ref": "5500080", "wheelchair": "limited"}}, {"type": "node", "id": 1752887412, "lat": 47.6819723, "lon": 17.635631, "tags": {"name": "Gy\u0151r", "public_transport": "stop_position", "railway": "stop", "ref": "7", "train": "yes"}}, {"type": "node", "id": 1752887427, "lat": 47.6821004, "lon": 17.6355197, "tags": {"name": "Gy\u0151r", "public_transport": "stop_position", "railway": "stop", "ref": "5", "train": "yes"}}, {"type": "node", "id": 1752887453, "lat": 47.6823548, "lon": 17.6352849, "tags": {"name": "Gy\u0151r", "public_transport": "stop_position", "railway": "stop", "ref": "1", "train": "yes"}}, {"type": "node", "id": 1752887465, "lat": 47.6820688, "lon": 17.635546, "tags": {"name": "Gy\u0151r", "public_transport": "stop_position", "railway": "stop", "ref": "6", "train": "yes"}}, {"type": "node", "id": 1752887475, "lat": 47.6821964, "lon": 17.6354326, "tags": {"name": "Gy\u0151r", "public_transport": "stop_position", "railway": "stop", "ref": "4", "train": "yes"}}, {"type": "node", "id": 1752887507, "lat": 47.6823196, "lon": 17.6353129, "tags": {"name": "Gy\u0151r", "public_transport": "stop_position", "railway": "stop", "ref": "2", "train": "yes"}}, {"type": "node", "id": 3166254509, "lat": 47.6822288, "lon": 17.6354025, "tags": {"name": "Gy\u0151r", "public_transport": "stop_position", "railway": "stop", "ref": "3", "train": "yes"}}, {"type": "node", "id": 1752556258, "lat": 47.6845289, "lon": 17.6642533, "tags": {"local_ref": "A", "name": "Gy\u0151r-Gy\u00e1rv\u00e1ros", "operator": "M\u00c1V", "public_transport": "stop_position", "railway": "stop", "ref": "A", "ref:mav": "3660", "train": "yes"}}, {"type": "node", "id": 3167185577, "lat": 47.6840714, "lon": 17.6645117, "tags": {"local_ref": "C", "name": "Gy\u0151r-Gy\u00e1rv\u00e1ros", "operator": "M\u00c1V", "public_transport": "stop_position", "railway": "stop", "ref": "C", "ref:mav": "3660", "train": "yes"}}, {"type": "node", "id": 3167296530, "lat": 47.6845005, "lon": 17.6642527, "tags": {"local_ref": "B", "name": "Gy\u0151r-Gy\u00e1rv\u00e1ros", "operator": "M\u00c1V", "public_transport": "stop_position", "railway": "stop", "ref": "B", "ref:mav": "3660", "train": "yes"}}, {"type": "node", "id": 3543646138, "lat": 47.6882451, "lon": 17.7432049, "tags": {"name": "Gy\u0151rszentiv\u00e1n", "operator": "M\u00c1V", "public_transport": "stop_position", "railway": "stop", "train": "yes"}}, {"type": "node", "id": 3543646139, "lat": 47.6885676, "lon": 17.7459043, "tags": {"name": "Gy\u0151rszentiv\u00e1n", "public_transport": "stop_position", "railway": "stop", "train": "yes"}}, {"type": "node", "id": 6842660421, "lat": 47.6886277, "lon": 17.7460259, "tags": {"name": "Gy\u0151rszentiv\u00e1n", "operator": "M\u00c1V", "public_transport": "station", "railway": "station"}}, {"type": "node", "id": 50819911, "lat": 47.7055643, "lon": 17.8719664, "tags": {"name": "Nagyszentj\u00e1nos", "public_transport": "stop_position", "railway": "stop", "train": "yes"}}, {"type": "node", "id": 3543646150, "lat": 47.7055128, "lon": 17.8719792, "tags": {"name": "Nagyszentj\u00e1nos", "public_transport": "stop_position", "railway": "stop", "train": "yes"}}, {"type": "node", "id": 7011625957, "lat": 47.7055438, "lon": 17.8720198, "tags": {"name": "Nagyszentj\u00e1nos", "railway": "station", "ref:mav": "3658"}}, {"type": "node", "id": 50821993, "lat": 47.7170093, "lon": 18.0044296, "tags": {"name": "\u00c1cs", "name:de": "Atsch", "name:hu": "\u00c1cs", "public_transport": "stop_position", "railway": "stop", "train": "yes"}}, {"type": "node", "id": 3543646798, "lat": 47.7170574, "lon": 18.0044157, "tags": {"name": "\u00c1cs", "name:de": "Atsch", "name:hu": "\u00c1cs", "public_transport": "stop_position", "railway": "stop", "train": "yes"}}, {"type": "node", "id": 5351981911, "lat": 47.7170332, "lon": 18.0044256, "tags": {"name": "\u00c1cs", "name:de": "Atsch", "name:hu": "\u00c1cs", "public_transport": "station", "railway": "station", "ref:mav": "3657"}}, {"type": "node", "id": 7878195341, "lat": 47.4438695, "lon": 18.1032264, "tags": {"name": "Bakonys\u00e1rk\u00e1ny", "name:de": "Schargan", "name:hu": "Bakonys\u00e1rk\u00e1ny", "public_transport": "stop_position", "railway": "stop", "ref:mav": "3633", "train": "yes"}}, {"type": "node", "id": 8437526251, "lat": 47.443835, "lon": 18.1033732, "tags": {"name": "Bakonys\u00e1rk\u00e1ny", "operator": "M\u00c1V", "public_transport": "station", "railway": "station", "railway:name:M\u00c1V": "Bakonys\u00e1rk\u00e1ny", "train": "yes", "uic_ref": "5503756"}}, {"type": "node", "id": 321825183, "lat": 47.4869797, "lon": 18.3087838, "tags": {"name": "Oroszl\u00e1ny", "name:de": "Ohreslahn", "name:hu": "Oroszl\u00e1ny", "public_transport": "stop_position", "railway": "stop", "ref:mav": "2850", "train": "yes"}}, {"type": "node", "id": 8440432956, "lat": 47.4869491, "lon": 18.309, "tags": {"name": "Oroszl\u00e1ny", "operator": "M\u00c1V", "public_transport": "station", "railway": "station", "railway:name:M\u00c1V": "Oroszl\u00e1ny", "train": "yes", "uic_ref": "5501768"}}, {"type": "node", "id": 1065130064, "lat": 47.5203996, "lon": 18.3168703, "tags": {"name": "Kecsk\u00e9d als\u00f3", "public_transport": "stop_position", "railway": "stop", "ref:mav": "2849", "train": "yes"}}, {"type": "node", "id": 321847466, "lat": 47.5428679, "lon": 18.3335999, "tags": {"name": "K\u00f6rnye", "name:de": "Kirnau", "name:hu": "K\u00f6rnye", "public_transport": "stop_position", "railway": "stop", "ref:mav": "2848", "train": "yes"}}, {"type": "node", "id": 8440432942, "lat": 47.5428823, "lon": 18.3333604, "tags": {"name": "K\u00f6rnye", "operator": "M\u00c1V", "public_transport": "station", "railway": "station", "railway:name:M\u00c1V": "K\u00f6rnye", "train": "yes", "uic_ref": "5501743"}}, {"type": "node", "id": 1065130085, "lat": 47.5634289, "lon": 18.4245951, "tags": {"name": "Als\u00f3galla", "name:de": "Untergalla", "public_transport": "stop_position", "railway": "halt", "ref:mav": "3648", "train": "yes"}}, {"type": "node", "id": 1824587404, "lat": 47.5633993, "lon": 18.4263097, "tags": {"name": "Als\u00f3galla", "public_transport": "stop_position", "railway": "stop", "train": "yes"}}, {"type": "node", "id": 4850563233, "lat": 47.5633523, "lon": 18.4245706, "tags": {"name": "Als\u00f3galla", "railway": "station", "ref:mav": "3648"}}, {"type": "node", "id": 1065130683, "lat": 47.5739366, "lon": 18.3722822, "tags": {"name": "B\u00e1nhida", "public_transport": "stop_position", "railway": "stop", "ref:mav": "1002", "train": "yes"}}, {"type": "node", "id": 344319183, "lat": 47.5854431, "lon": 18.3928956, "tags": {"name": "Tatab\u00e1nya", "name:de": "Totiserkolonie", "name:ru": "\u0422\u0430\u0442\u0430\u0431\u0430\u043d\u044c\u044f", "name:sr": "\u0422\u0430\u0442\u0430\u0431\u0430\u045a\u0430", "operator": "M\u00c1V", "platforms": "4", "public_transport": "station", "railway": "station", "railway:ref": "BN", "railway:ref:DB": "XMBT", "ref:mav": "3649", "uic_name": "Tatabanya", "uic_ref": "5500009"}}, {"type": "node", "id": 1165588621, "lat": 47.5853804, "lon": 18.3928114, "tags": {"name": "Tatab\u00e1nya", "public_transport": "stop_position", "railway": "stop", "train": "yes"}}, {"type": "node", "id": 1165589224, "lat": 47.5865703, "lon": 18.3916829, "tags": {"name": "Tatab\u00e1nya", "public_transport": "stop_position", "railway": "stop", "train": "yes"}}, {"type": "node", "id": 1752911230, "lat": 47.5850546, "lon": 18.3935868, "tags": {"name": "Tatab\u00e1nya", "public_transport": "stop_position", "railway": "stop", "train": "yes"}}, {"type": "node", "id": 1752911236, "lat": 47.5854902, "lon": 18.392971, "tags": {"name": "Tatab\u00e1nya", "public_transport": "stop_position", "railway": "stop", "train": "yes"}}, {"type": "node", "id": 3205896563, "lat": 47.58547, "lon": 18.39293, "tags": {"name": "Tatab\u00e1nya", "public_transport": "stop_position", "railway": "stop", "train": "yes"}}, {"type": "node", "id": 1764325016, "lat": 47.6197962, "lon": 18.3747995, "tags": {"name": "V\u00e9rtessz\u0151l\u0151s", "public_transport": "stop_position", "railway": "halt", "ref:mav": "3650", "train": "yes"}}, {"type": "node", "id": 3543646179, "lat": 47.6197553, "lon": 18.3747791, "tags": {"name": "V\u00e9rtessz\u0151l\u0151s", "public_transport": "stop_position", "train": "yes"}}, {"type": "node", "id": 1065130735, "lat": 47.6308578, "lon": 18.0507159, "tags": {"name": "Nagyigm\u00e1nd-B\u00e1bolna", "public_transport": "stop_position", "railway": "stop", "ref:mav": "3637", "train": "yes"}}, {"type": "node", "id": 8437526267, "lat": 47.6308386, "lon": 18.0508332, "tags": {"name": "Nagyigm\u00e1nd-B\u00e1bolna", "operator": "M\u00c1V", "public_transport": "station", "railway": "station", "railway:name:M\u00c1V": "Nagyigm\u00e1nd-B\u00e1bolna", "train": "yes", "uic_ref": "5503798"}}, {"type": "node", "id": 3205895294, "lat": 47.7497052, "lon": 18.1114708, "tags": {"name": "Kom\u00e1rom", "public_transport": "stop_position", "railway": "stop", "ref:mav": "3656", "train": "yes"}}, {"type": "node", "id": 5535569567, "lat": 47.7495823, "lon": 18.1138895, "tags": {"image": "https://image.ibb.co/jeGSCH/2018_04_05_1.jpg", "internet_access": "no", "name": "Kom\u00e1rom", "operator": "M\u00c1V", "public_transport": "station", "railway": "station", "railway:ref": "KM", "train": "yes"}}, {"type": "node", "id": 91686917, "lat": 47.7495236, "lon": 18.1143351, "tags": {"name": "Kom\u00e1rom", "public_transport": "stop_position", "railway": "stop", "ref:mav": "3656", "train": "yes"}}, {"type": "node", "id": 8435054100, "lat": 47.7485884, "lon": 18.1251978, "tags": {"name": "Kom\u00e1rom-Rendez\u0151", "operator": "M\u00c1V", "public_transport": "station", "railway": "station", "railway:name:M\u00c1V": "Kom\u00e1rom-Rendez\u0151", "train": "yes", "uic_ref": "5501214"}}, {"type": "node", "id": 1065129616, "lat": 47.7365042, "lon": 18.1429623, "tags": {"name": "Sz\u0151ny-D\u00e9li", "public_transport": "stop_position", "railway": "stop", "ref:mav": "1631", "train": "yes"}}, {"type": "node", "id": 91686893, "lat": 47.7357639, "lon": 18.1773104, "tags": {"name": "Sz\u0151ny", "public_transport": "stop_position", "railway": "stop", "ref:mav": "3655", "train": "yes"}}, {"type": "node", "id": 3543646166, "lat": 47.7357193, "lon": 18.177302, "tags": {"name": "Sz\u0151ny", "public_transport": "stop_position", "railway": "stop", "ref:mav": "3655", "train": "yes"}}, {"type": "node", "id": 91686879, "lat": 47.7316964, "lon": 18.2137719, "tags": {"name": "Alm\u00e1sf\u00fczit\u0151 fels\u0151", "operator": "M\u00c1V", "public_transport": "stop_position", "railway": "stop", "ref:mav": "3654", "train": "yes"}}, {"type": "node", "id": 3016565401, "lat": 47.7312242, "lon": 18.2172053, "tags": {"name": "Alm\u00e1sf\u00fczit\u0151 fels\u0151", "operator": "M\u00c1V", "public_transport": "stop_position", "railway": "stop", "ref:mav": "3654", "train": "yes"}}, {"type": "node", "id": 8434997976, "lat": 47.7313272, "lon": 18.2165567, "tags": {"addr:city": "Alm\u00e1sf\u00fczit\u0151", "addr:postcode": "2931", "internet_access": "no", "name": "Alm\u00e1sf\u00fczit\u0151 fels\u0151", "operator": "M\u00c1V", "public_transport": "station", "railway": "station", "railway:name:M\u00c1V": "Alm\u00e1sf\u00fczit\u0151 fels\u0151", "railway:ref": "FI", "train": "yes", "uic_ref": "5501180", "website": "https://www.mavcsoport.hu/mav-start/belfoldi-utazas/vasutallomas/almasfuzito-felso", "wikidata": "Q21876919", "wikipedia": "hu:Alm\u00e1sf\u00fczit\u0151 fels\u0151 vas\u00fat\u00e1llom\u00e1s"}}, {"type": "node", "id": 1684065429, "lat": 47.6465939, "lon": 18.3482465, "tags": {"name": "T\u00f3v\u00e1roskert", "public_transport": "stop_position", "railway": "stop", "train": "yes", "wheelchair": "limited"}}, {"type": "node", "id": 3543646175, "lat": 47.6465869, "lon": 18.3481822, "tags": {"name": "T\u00f3v\u00e1roskert", "public_transport": "stop_position", "railway": "halt", "ref:mav": "3651", "train": "yes", "wheelchair": "limited"}}, {"type": "node", "id": 831180208, "lat": 47.6636056, "lon": 18.3279678, "tags": {"name": "Tata", "public_transport": "stop_position", "railway": "stop", "train": "yes"}}, {"type": "node", "id": 3323412396, "lat": 47.6645657, "lon": 18.3277034, "tags": {"name": "Tata", "public_transport": "stop_position", "train": "yes"}}, {"type": "node", "id": 4057764613, "lat": 47.6639527, "lon": 18.3278757, "tags": {"name": "Tata", "name:de": "Totis", "name:la": "Dotis", "operator": "M\u00c1V", "public_transport": "station", "railway": "station", "ref:mav": "3652", "train": "yes"}}, {"type": "node", "id": 1648162937, "lat": 47.7252031, "lon": 18.261975, "tags": {"name": "Alm\u00e1sf\u00fczit\u0151", "operator": "M\u00c1V-Start", "public_transport": "stop_position", "railway": "stop", "ref:mav": "3653", "train": "yes"}}, {"type": "node", "id": 3323460119, "lat": 47.725229, "lon": 18.2617011, "tags": {"name": "Alm\u00e1sf\u00fczit\u0151", "operator": "M\u00c1V-Start", "public_transport": "stop_position", "railway": "stop", "ref:mav": "3653", "train": "yes"}}, {"type": "node", "id": 8434997975, "lat": 47.7252161, "lon": 18.2618412, "tags": {"name": "Alm\u00e1sf\u00fczit\u0151", "operator": "M\u00c1V", "public_transport": "station", "railway": "station", "railway:name:M\u00c1V": "Alm\u00e1sf\u00fczit\u0151", "train": "yes", "uic_ref": "5501172"}}, {"type": "node", "id": 91628844, "lat": 47.7331208, "lon": 18.3264241, "tags": {"name": "Dunaalm\u00e1s", "name:ru": "\u0414\u0443\u043d\u0430\u0430\u043b\u044c\u043c\u0430\u0448", "public_transport": "stop_position", "railway": "stop", "ref:mav": "2838", "train": "yes"}}, {"type": "node", "id": 91628841, "lat": 47.734417, "lon": 18.3452469, "tags": {"name": "Neszm\u00e9ly", "public_transport": "stop_position", "railway": "stop", "ref:mav": "2839", "train": "yes"}}, {"type": "node", "id": 8437402369, "lat": 47.7343712, "lon": 18.3452734, "tags": {"name": "Neszm\u00e9ly", "operator": "M\u00c1V", "public_transport": "station", "railway": "station", "railway:name:M\u00c1V": "Neszm\u00e9ly", "train": "yes", "uic_ref": "5501545"}}, {"type": "node", "id": 91583389, "lat": 47.7376789, "lon": 18.3665678, "tags": {"name": "V\u00e1rhegyalja", "public_transport": "stop_position", "railway": "stop", "ref:mav": "989", "train": "yes"}}, {"type": "node", "id": 91628837, "lat": 47.7566489, "lon": 18.4370504, "tags": {"name": "S\u00fctt\u0151 fels\u0151", "public_transport": "stop_position", "railway": "stop", "ref:mav": "195", "train": "yes"}}, {"type": "node", "id": 8437402366, "lat": 47.7612421, "lon": 18.454869, "tags": {"name": "S\u00fctt\u0151", "operator": "M\u00c1V", "public_transport": "station", "railway": "station", "railway:name:M\u00c1V": "S\u00fctt\u0151", "train": "yes", "uic_ref": "5501552"}}, {"type": "node", "id": 4989899156, "lat": 46.615576, "lon": 18.6498755, "tags": {"name": "Nagydorog", "public_transport": "station", "railway": "station", "ref:mav": "3855"}}, {"type": "node", "id": 619127268, "lat": 46.7278674, "lon": 18.4759858, "tags": {"name": "Tolnan\u00e9medi", "public_transport": "stop_position", "railway": "station", "ref:mav": "1749", "train": "yes"}}, {"type": "node", "id": 309591993, "lat": 46.7565642, "lon": 18.5407311, "tags": {"name": "Simontornya", "public_transport": "stop_position", "railway": "station", "ref:mav": "1748", "train": "yes"}}, {"type": "node", "id": 268603991, "lat": 46.7141679, "lon": 18.6480465, "tags": {"name": "Vajta", "railway": "station", "ref:mav": "3853", "wikidata": "Q21997750"}}, {"type": "node", "id": 1212435228, "lat": 46.7826843, "lon": 18.5890686, "tags": {"name": "S\u00e1regres", "public_transport": "stop_position", "railway": "halt", "ref:mav": "1747", "train": "yes", "wikidata": "Q21999784"}}, {"type": "node", "id": 309592393, "lat": 46.772172, "lon": 18.6237287, "tags": {"name": "Cece", "railway": "station", "ref:mav": "3852", "wikidata": "Q21997748"}}, {"type": "node", "id": 7687930285, "lat": 46.6067013, "lon": 18.853001, "tags": {"name": "Paks", "operator": "M\u00c1V", "public_transport": "station", "railway": "station"}}, {"type": "node", "id": 445818131, "lat": 46.813859, "lon": 18.6013703, "tags": {"name": "R\u00e9tszilas", "public_transport": "stop_position", "railway": "station", "ref:mav": "253", "train": "yes", "wikidata": "Q21876872"}}, {"type": "node", "id": 92829744, "lat": 46.8967414, "lon": 18.6118127, "tags": {"name": "S\u00e1rbog\u00e1rd", "name:de": "Bochart", "name:sr": "\u0160arbogard", "public_transport": "stop_position", "railway": "station", "ref:mav": "252", "train": "yes", "wikidata": "Q21997551"}}, {"type": "node", "id": 60498455, "lat": 46.9791189, "lon": 18.6356583, "tags": {"name": "Nagyl\u00f3k", "public_transport": "stop_position", "railway": "station", "ref:mav": "251", "train": "yes", "wikidata": "Q22002142"}}, {"type": "node", "id": 410909357, "lat": 46.8327446, "lon": 18.832518, "tags": {"name": "El\u0151sz\u00e1ll\u00e1s", "railway": "station"}}, {"type": "node", "id": 269707015, "lat": 46.9053966, "lon": 18.8106732, "tags": {"name": "Mez\u0151falva", "railway": "station", "ref:mav": "3843"}}, {"type": "node", "id": 411751318, "lat": 46.6955544, "lon": 19.0411343, "tags": {"name": "Harta", "railway": "station"}},