{"type": "FeatureCollection", "features": [{"type": "Feature", "properties": {"type": "node", "id": 672560834, "tags": {"name": "Sirev\u00e5g", "public_transport": "stop_position", "railway": "stop", "railway:position": "538.74", "train": "yes", "uic_ref": "7600345"}}, "geometry": {"type": "Point", "coordinates": [5.8071029, 58.5027885]}}, {"type": "Feature", "properties": {"type": "node", "id": 672560811, "tags": {"name": "Ogna", "public_transport": "stop_position", "railway": "stop", "railway:position": "540.84", "train": "yes", "uic_ref": "7600346"}}, "geometry": {"type": "Point", "coordinates": [5.8032775, 58.5196987]}}, {"type": "Feature", "properties": {"type": "node", "id": 5063637098, "tags": {"name": "Ogna", "public_transport": "stop_position", "railway": "stop", "railway:position": "540.84", "train": "yes", "uic_ref": "7600346"}}, "geometry": {"type": "Point", "coordinates": [5.8031899, 58.5196629]}}, {"type": "Feature", "properties": {"type": "node", "id": 5526332040, "tags": {"name": "Ogna", "official_name": "Ogna stasjon", "railway": "station", "railway:traffic_mode": "passenger", "start_date": "1878-03-01"}}, "geometry": {"type": "Point", "coordinates": [5.8034036, 58.5197043]}}, {"type": "Feature", "properties": {"type": "node", "id": 343353925, "tags": {"name": "Varhaug", "public_transport": "stop_position", "railway": "stop", "railway:position": "555.77", "train": "yes", "uic_ref": "7600349"}}, "geometry": {"type": "Point", "coordinates": [5.6464637, 58.6182161]}}, {"type": "Feature", "properties": {"type": "node", "id": 5526332085, "tags": {"name": "Varhaug", "official_name": "Varhaug stasjon", "railway": "station", "railway:traffic_mode": "passenger", "start_date": "1878-03-01"}}, "geometry": {"type": "Point", "coordinates": [5.6463368, 58.618218]}}, {"type": "Feature", "properties": {"type": "node", "id": 5594217587, "tags": {"name": "Varhaug", "public_transport": "stop_position", "railway": "stop", "railway:position": "555.77", "train": "yes", "uic_ref": "7600349"}}, "geometry": {"type": "Point", "coordinates": [5.646563, 58.6182229]}}, {"type": "Feature", "properties": {"type": "node", "id": 409005205, "tags": {"name": "N\u00e6rb\u00f8", "public_transport": "stop_position", "railway": "stop", "railway:position": "561.16", "train": "yes", "uic_ref": "7600350"}}, "geometry": {"type": "Point", "coordinates": [5.6402576, 58.6654878]}}, {"type": "Feature", "properties": {"type": "node", "id": 1249864126, "tags": {"name": "N\u00e6rb\u00f8", "public_transport": "stop_position", "railway": "stop", "railway:position": "561.16", "train": "yes", "uic_ref": "7600350"}}, "geometry": {"type": "Point", "coordinates": [5.6404007, 58.6654565]}}, {"type": "Feature", "properties": {"type": "node", "id": 5526332021, "tags": {"name": "N\u00e6rb\u00f8", "official_name": "N\u00e6rb\u00f8 stasjon", "railway": "station", "railway:traffic_mode": "passenger", "start_date": "1878-03-01"}}, "geometry": {"type": "Point", "coordinates": [5.640495, 58.6656716]}}, {"type": "Feature", "properties": {"type": "node", "id": 26559640, "tags": {"name": "Bryne", "public_transport": "stop_position", "railway": "stop", "railway:position": "569.3", "train": "yes", "uic_ref": "7600127"}}, "geometry": {"type": "Point", "coordinates": [5.649678, 58.7347251]}}, {"type": "Feature", "properties": {"type": "node", "id": 637948120, "tags": {"name": "Bryne", "public_transport": "stop_position", "railway": "stop", "railway:position": "569.3", "train": "yes", "uic_ref": "7600127"}}, "geometry": {"type": "Point", "coordinates": [5.6494358, 58.7347515]}}, {"type": "Feature", "properties": {"type": "node", "id": 5526331864, "tags": {"name": "Bryne", "official_name": "Bryne stasjon", "public_transport": "station", "railway": "station", "railway:traffic_mode": "passenger", "start_date": "1878-03-01"}}, "geometry": {"type": "Point", "coordinates": [5.6495592, 58.7347738]}}, {"type": "Feature", "properties": {"type": "node", "id": 673396035, "tags": {"name": "Vigrestad", "public_transport": "stop_position", "railway": "stop", "railway:position": "549.75", "train": "yes", "uic_ref": "7600348"}}, "geometry": {"type": "Point", "coordinates": [5.6873118, 58.5703499]}}, {"type": "Feature", "properties": {"type": "node", "id": 5526332099, "tags": {"name": "Vigrestad", "official_name": "Vigrestad stasjon", "railway": "station", "railway:traffic_mode": "passenger", "start_date": "1878-03-01", "website": "http://www.jernbaneverket.no/no/Jernbanen/Stasjonssok/-V-/Vigrestad/"}}, "geometry": {"type": "Point", "coordinates": [5.6875586, 58.5703429]}}, {"type": "Feature", "properties": {"type": "node", "id": 5594217580, "tags": {"name": "Vigrestad", "public_transport": "stop_position", "railway": "stop", "railway:position": "549.75", "train": "yes", "uic_ref": "7600348"}}, "geometry": {"type": "Point", "coordinates": [5.6872232, 58.5702749]}}, {"type": "Feature", "properties": {"type": "node", "id": 836611842, "tags": {"name": "Brusand", "public_transport": "stop_position", "railway": "stop", "railway:position": "544.77", "train": "yes", "uic_ref": "7600347"}}, "geometry": {"type": "Point", "coordinates": [5.7489009, 58.5405072]}}, {"type": "Feature", "properties": {"type": "node", "id": 1269891465, "tags": {"name": "Brusand", "public_transport": "stop_position", "railway": "stop", "railway:position": "544.77", "train": "yes", "uic_ref": "7600347"}}, "geometry": {"type": "Point", "coordinates": [5.7489631, 58.5405565]}}, {"type": "Feature", "properties": {"type": "node", "id": 5526332035, "tags": {"name": "Brusand", "official_name": "Brusand stasjon", "railway": "station", "railway:traffic_mode": "passenger", "start_date": "1879-12-13", "website": "https://www.banenor.no/Jernbanen/Stasjonssok/-B-/Brusand/"}}, "geometry": {"type": "Point", "coordinates": [5.7491718, 58.5403239]}}, {"type": "Feature", "properties": {"type": "node", "id": 2867762205, "tags": {"name": "Klepp", "public_transport": "stop_position", "railway": "stop", "railway:position": "573.94", "train": "yes", "uic_ref": "7600351"}}, "geometry": {"type": "Point", "coordinates": [5.6780278, 58.7715588]}}, {"type": "Feature", "properties": {"type": "node", "id": 2867762209, "tags": {"name": "Klepp", "public_transport": "stop_position", "railway": "stop", "railway:position": "573.94", "train": "yes", "uic_ref": "7600351"}}, "geometry": {"type": "Point", "coordinates": [5.6779139, 58.771589]}}, {"type": "Feature", "properties": {"type": "node", "id": 2867762212, "tags": {"name": "Klepp", "public_transport": "stop_position", "railway": "stop", "railway:position": "573.94", "train": "yes", "uic_ref": "7600351"}}, "geometry": {"type": "Point", "coordinates": [5.6778377, 58.7716104]}}, {"type": "Feature", "properties": {"type": "node", "id": 5526331853, "tags": {"name": "Klepp", "official_name": "Klepp stasjon", "railway": "station", "railway:traffic_mode": "passenger", "start_date": "1878-03-01"}}, "geometry": {"type": "Point", "coordinates": [5.6776808, 58.7716627]}}, {"type": "Feature", "properties": {"type": "node", "id": 26636024, "tags": {"name": "\u00d8ksnavadporten", "public_transport": "stop_position", "railway": "stop", "railway:position": "576.1", "source": "Landsat Image", "train": "yes", "uic_ref": "7600439"}}, "geometry": {"type": "Point", "coordinates": [5.7011569, 58.7862497]}}, {"type": "Feature", "properties": {"type": "node", "id": 26636018, "tags": {"name": "Ganddal", "public_transport": "stop_position", "railway": "stop", "railway:position": "580.55", "train": "yes"}}, "geometry": {"type": "Point", "coordinates": [5.716955, 58.8232369]}}, {"type": "Feature", "properties": {"type": "node", "id": 5068786069, "tags": {"name": "Ganddal", "public_transport": "stop_position", "railway": "stop", "railway:position": "580.55", "train": "yes"}}, "geometry": {"type": "Point", "coordinates": [5.7168623, 58.8232599]}}, {"type": "Feature", "properties": {"type": "node", "id": 5526332086, "tags": {"name": "Ganddal", "official_name": "Ganddal stasjon", "railway": "station", "railway:traffic_mode": "mixed", "start_date": "1878-03-01"}}, "geometry": {"type": "Point", "coordinates": [5.7172555, 58.8234188]}}, {"type": "Feature", "properties": {"type": "node", "id": 307905216, "tags": {"name": "Skeiane", "old_name": "Sandnes", "public_transport": "stop_position", "railway": "stop", "railway:position": "583.45", "train": "yes"}}, "geometry": {"type": "Point", "coordinates": [5.7335909, 58.8475199]}}, {"type": "Feature", "properties": {"type": "node", "id": 307905350, "tags": {"name": "Skeiane", "old_name": "Sandnes", "public_transport": "stop_position", "railway": "stop", "railway:position": "583.45", "train": "yes"}}, "geometry": {"type": "Point", "coordinates": [5.733901, 58.847506]}}, {"type": "Feature", "properties": {"type": "node", "id": 5526332082, "tags": {"name": "Skeiane", "official_name": "Skeiane stasjon", "old_name": "Sandnes", "railway": "station", "railway:traffic_mode": "mixed", "start_date": "1955-06-10"}}, "geometry": {"type": "Point", "coordinates": [5.733783, 58.8474949]}}, {"type": "Feature", "properties": {"type": "node", "id": 5594217591, "tags": {"name": "Skeiane", "old_name": "Sandnes", "public_transport": "stop_position", "railway": "stop", "railway:position": "583.45", "train": "yes"}}, "geometry": {"type": "Point", "coordinates": [5.7336885, 58.8475173]}}, {"type": "Feature", "properties": {"type": "node", "id": 305730863, "tags": {"layer": "1", "name": "Sandnes sentrum", "public_transport": "stop_position", "railway": "stop", "railway:position": "584", "train": "yes"}}, "geometry": {"type": "Point", "coordinates": [5.7364903, 58.8522249]}}, {"type": "Feature", "properties": {"type": "node", "id": 5058410539, "tags": {"name": "Sandnes sentrum", "public_transport": "stop_position", "railway": "stop", "railway:position": "584", "train": "yes"}}, "geometry": {"type": "Point", "coordinates": [5.7364716, 58.8522713]}}, {"type": "Feature", "properties": {"type": "node", "id": 250918240, "tags": {"name": "Gausel", "public_transport": "stop_position", "railway": "stop", "railway:position": "589.751", "train": "yes"}}, "geometry": {"type": "Point", "coordinates": [5.7400344, 58.9002759]}}, {"type": "Feature", "properties": {"type": "node", "id": 463174797, "tags": {"name": "Gausel", "public_transport": "stop_position", "railway": "stop", "railway:position": "589.751", "train": "yes"}}, "geometry": {"type": "Point", "coordinates": [5.7402587, 58.9002791]}}, {"type": "Feature", "properties": {"type": "node", "id": 667948100, "tags": {"name": "J\u00e5tt\u00e5v\u00e5gen", "public_transport": "stop_position", "railway": "stop", "railway:position": "591.5", "train": "yes"}}, "geometry": {"type": "Point", "coordinates": [5.7289157, 58.9140639]}}, {"type": "Feature", "properties": {"type": "node", "id": 1412656442, "tags": {"name": "J\u00e5tt\u00e5v\u00e5gen", "public_transport": "stop_position", "railway": "stop", "railway:position": "591.5", "train": "yes"}}, "geometry": {"type": "Point", "coordinates": [5.7288258, 58.9140407]}}, {"type": "Feature", "properties": {"type": "node", "id": 861972705, "tags": {"name": "Mariero", "public_transport": "stop_position", "railway": "stop", "railway:position": "594.546", "train": "yes"}}, "geometry": {"type": "Point", "coordinates": [5.7539693, 58.9332054]}}, {"type": "Feature", "properties": {"type": "node", "id": 861972991, "tags": {"name": "Mariero", "public_transport": "stop_position", "railway": "stop", "railway:position": "594.546", "train": "yes"}}, "geometry": {"type": "Point", "coordinates": [5.7538883, 58.9332002]}}, {"type": "Feature", "properties": {"type": "node", "id": 5594217582, "tags": {"name": "Stavanger", "public_transport": "stop_position", "railway": "stop", "railway:position": "598.7", "train": "yes"}}, "geometry": {"type": "Point", "coordinates": [5.7331014, 58.9662259]}}, {"type": "Feature", "properties": {"type": "node", "id": 5594217583, "tags": {"name": "Stavanger", "public_transport": "stop_position", "railway": "stop", "railway:position": "598.7", "train": "yes"}}, "geometry": {"type": "Point", "coordinates": [5.7329122, 58.9661902]}}, {"type": "Feature", "properties": {"type": "node", "id": 5594217584, "tags": {"name": "Stavanger", "public_transport": "stop_position", "railway": "stop", "railway:position": "598.7", "train": "yes"}}, "geometry": {"type": "Point", "coordinates": [5.7325985, 58.9661286]}}, {"type": "Feature", "properties": {"type": "node", "id": 5594217585, "tags": {"name": "Stavanger", "public_transport": "stop_position", "railway": "stop", "railway:position": "598.7", "train": "yes"}}, "geometry": {"type": "Point", "coordinates": [5.7325179, 58.9661158]}}, {"type": "Feature", "properties": {"type": "node", "id": 5594217615, "tags": {"name": "Stavanger", "public_transport": "stop_position", "railway": "stop", "railway:position": "598.7", "train": "yes"}}, "geometry": {"type": "Point", "coordinates": [5.7328295, 58.9661758]}}, {"type": "Feature", "properties": {"type": "node", "id": 5720557872, "tags": {"alt_name": "Stavanger S", "name": "Stavanger", "official_name": "Stavanger stasjon", "railway": "station", "railway:traffic_mode": "passenger", "start_date": "1878-03-01", "wikidata": "Q3355141"}}, "geometry": {"type": "Point", "coordinates": [5.7322159, 58.9665765]}}, {"type": "Feature", "properties": {"type": "node", "id": 587764385, "tags": {"name": "Paradis", "public_transport": "stop_position", "railway": "stop", "railway:position": "597.324", "train": "yes"}}, "geometry": {"type": "Point", "coordinates": [5.7423909, 58.9560329]}}, {"type": "Feature", "properties": {"type": "node", "id": 3986698654, "tags": {"name": "Paradis", "public_transport": "stop_position", "railway": "stop", "railway:position": "597.324", "train": "yes"}}, "geometry": {"type": "Point", "coordinates": [5.7421275, 58.955985]}}, {"type": "Feature", "properties": {"type": "node", "id": 672560864, "tags": {"name": "Hellvik", "public_transport": "stop_position", "railway": "stop", "railway:position": "532.7", "train": "yes", "uic_ref": "7600344"}}, "geometry": {"type": "Point", "coordinates": [5.8975161, 58.4858795]}}, {"type": "Feature", "properties": {"type": "node", "id": 5053327617, "tags": {"name": "Hellvik", "public_transport": "stop_position", "railway": "stop", "railway:position": "532.7", "train": "yes", "uic_ref": "7600344"}}, "geometry": {"type": "Point", "coordinates": [5.8974242, 58.4858546]}}, {"type": "Feature", "properties": {"type": "node", "id": 5526331917, "tags": {"name": "Hellvik", "official_name": "Hellvik stasjon", "railway": "station", "railway:traffic_mode": "passenger", "start_date": "1878-03-01"}}, "geometry": {"type": "Point", "coordinates": [5.8974457, 58.4856738]}}, {"type": "Feature", "properties": {"type": "node", "id": 3977660861, "tags": {"name": "Egersund", "public_transport": "stop_position", "railway": "stop", "railway:position": "525.56", "train": "yes"}}, "geometry": {"type": "Point", "coordinates": [6.0023605, 58.4612886]}}, {"type": "Feature", "properties": {"type": "node", "id": 5526332033, "tags": {"name": "Egersund", "official_name": "Egersund stasjon", "railway": "station", "railway:traffic_mode": "passenger", "start_date": "1944-05-01"}}, "geometry": {"type": "Point", "coordinates": [6.0019004, 58.461243]}}, {"type": "Feature", "properties": {"type": "node", "id": 5594217605, "tags": {"name": "Egersund", "public_transport": "stop_position", "railway": "stop", "railway:position": "525.56", "train": "yes"}}, "geometry": {"type": "Point", "coordinates": [6.0023805, 58.461351]}}, {"type": "Feature", "properties": {"type": "node", "id": 5594217597, "tags": {"name": "Helleland", "railway": "stop", "railway:position": "511.29", "train": "yes"}}, "geometry": {"type": "Point", "coordinates": [6.1549924, 58.5336119]}}, {"type": "Feature", "properties": {"type": "node", "id": 5594218123, "tags": {"name": "Helleland", "railway": "stop", "railway:position": "511.29", "train": "yes"}}, "geometry": {"type": "Point", "coordinates": [6.1549851, 58.5336761]}}, {"type": "Feature", "properties": {"type": "node", "id": 5594217592, "tags": {"name": "Heskestad", "railway": "stop", "railway:position": "491.09", "train": "yes"}}, "geometry": {"type": "Point", "coordinates": [6.3635556, 58.4736325]}}, {"type": "Feature", "properties": {"type": "node", "id": 5594218121, "tags": {"name": "Heskestad", "railway": "stop", "railway:position": "491.09", "train": "yes"}}, "geometry": {"type": "Point", "coordinates": [6.3636655, 58.4736406]}}, {"type": "Feature", "properties": {"type": "node", "id": 302728074, "tags": {"name": "Sira", "public_transport": "stop_position", "railway": "stop", "railway:position": "468.63", "train": "yes", "uic_ref": "7600037"}}, "geometry": {"type": "Point", "coordinates": [6.6609055, 58.4175784]}}, {"type": "Feature", "properties": {"type": "node", "id": 2069277001, "tags": {"name": "Sira", "public_transport": "stop_position", "railway": "stop", "railway:position": "468.63", "train": "yes", "uic_ref": "7600037"}}, "geometry": {"type": "Point", "coordinates": [6.660802, 58.417571]}}, {"type": "Feature", "properties": {"type": "node", "id": 5526332061, "tags": {"name": "Sira", "official_name": "Sira stasjon", "railway": "station", "railway:traffic_mode": "passenger", "start_date": "1943-12-17"}}, "geometry": {"type": "Point", "coordinates": [6.6606467, 58.4176303]}}, {"type": "Feature", "properties": {"type": "node", "id": 825158742, "tags": {"name": "Moi", "public_transport": "stop_position", "railway": "stop", "railway:position": "477.24", "source": "Bing;guess", "train": "yes", "uic_ref": "7600126"}}, "geometry": {"type": "Point", "coordinates": [6.5512929, 58.458139]}}, {"type": "Feature", "properties": {"type": "node", "id": 2069277000, "tags": {"name": "Moi", "public_transport": "stop_position", "railway": "stop", "railway:position": "477.24", "source": "Bing;guess", "train": "yes", "uic_ref": "7600126"}}, "geometry": {"type": "Point", "coordinates": [6.5513958, 58.4581902]}}, {"type": "Feature", "properties": {"type": "node", "id": 5594217617, "tags": {"name": "Ualand", "railway": "stop", "railway:position": "498.15", "train": "yes"}}, "geometry": {"type": "Point", "coordinates": [6.3432723, 58.5286871]}}, {"type": "Feature", "properties": {"type": "node", "id": 4878688689, "tags": {"level": "0", "local_ref": "1", "name": "Bergen", "public_transport": "stop_position", "railway": "stop", "railway:position": "471.25", "train": "yes"}}, "geometry": {"type": "Point", "coordinates": [5.3337179, 60.3900092]}}, {"type": "Feature", "properties": {"type": "node", "id": 4878688690, "tags": {"level": "0", "local_ref": "2", "name": "Bergen", "public_transport": "stop_position", "railway": "stop", "railway:position": "471.25", "train": "yes"}}, "geometry": {"type": "Point", "coordinates": [5.333472, 60.3902204]}}, {"type": "Feature", "properties": {"type": "node", "id": 4878688691, "tags": {"level": "0", "local_ref": "3", "name": "Bergen", "public_transport": "stop_position", "railway": "stop", "railway:position": "471.25", "train": "yes"}}, "geometry": {"type": "Point", "coordinates": [5.333543, 60.3902618]}}, {"type": "Feature", "properties": {"type": "node", "id": 4878688692, "tags": {"level": "0", "local_ref": "4", "name": "Bergen", "public_transport": "stop_position", "railway": "stop", "railway:position": "471.25", "train": "yes"}}, "geometry": {"type": "Point", "coordinates": [5.3336476, 60.3903229]}}, {"type": "Feature", "properties": {"type": "node", "id": 4919366664, "tags": {"name": "Bergen", "official_name": "Bergen stasjon", "operator": "Bane NOR", "railway": "station", "railway:traffic_mode": "mixed", "start_date": "1913-05-26", "train": "yes"}}, "geometry": {"type": "Point", "coordinates": [5.3333972, 60.390279]}}, {"type": "Feature", "properties": {"type": "node", "id": 1768574422, "tags": {"railway": "stop"}}, "geometry": {"type": "Point", "coordinates": [5.3399072, 60.3951406]}}, {"type": "Feature", "properties": {"type": "node", "id": 171556985, "tags": {"name": "Arna", "public_transport": "stop_position", "railway": "stop", "railway:position": "461.93", "train": "yes", "uic_ref": "7600073"}}, "geometry": {"type": "Point", "coordinates": [5.4660251, 60.4202031]}}, {"type": "Feature", "properties": {"type": "node", "id": 3685725831, "tags": {"name": "Arna", "public_transport": "stop_position", "railway": "stop", "railway:position": "461.93", "train": "yes", "uic_ref": "7600073"}}, "geometry": {"type": "Point", "coordinates": [5.466224, 60.4199905]}}, {"type": "Feature", "properties": {"type": "node", "id": 5526332229, "tags": {"name": "Arna", "official_name": "Arna stasjon", "railway": "station", "railway:traffic_mode": "mixed", "start_date": "1964-08-01"}}, "geometry": {"type": "Point", "coordinates": [5.4666318, 60.4202652]}}, {"type": "Feature", "properties": {"type": "node", "id": 391638868, "tags": {"name": "Trengereid", "public_transport": "stop_position", "railway": "stop", "railway:position": "452.41", "train": "yes", "uic_ref": "7600368"}}, "geometry": {"type": "Point", "coordinates": [5.6245708, 60.4290759]}}, {"type": "Feature", "properties": {"type": "node", "id": 5526332111, "tags": {"name": "Trengereid", "official_name": "Trengereid stasjon", "railway": "station", "railway:traffic_mode": "passenger", "start_date": "1883-07-11", "ticket_sales": "no", "toilet": "no", "waiting_room": "no", "wikidata": "Q1783861"}}, "geometry": {"type": "Point", "coordinates": [5.6244527, 60.4290732]}}, {"type": "Feature", "properties": {"type": "node", "id": 356813284, "tags": {"name": "Vaksdal", "public_transport": "stop_position", "railway": "stop", "railway:position": "440.53", "train": "yes"}}, "geometry": {"type": "Point", "coordinates": [5.7353982, 60.4786265]}}, {"type": "Feature", "properties": {"type": "node", "id": 3303989139, "tags": {"name": "Vaksdal", "railway": "stop", "railway:position": "440.53", "train": "yes"}}, "geometry": {"type": "Point", "coordinates": [5.7354762, 60.478651]}}, {"type": "Feature", "properties": {"type": "node", "id": 5526331897, "tags": {"name": "Vaksdal", "official_name": "Vaksdal stasjon", "railway": "station", "railway:traffic_mode": "passenger", "start_date": "1883-07-11", "ticket_sales": "no", "toilets": "no", "train": "yes", "waiting_room": "yes"}}, "geometry": {"type": "Point", "coordinates": [5.7350953, 60.4786986]}}, {"type": "Feature", "properties": {"type": "node", "id": 410738122, "tags": {"name": "Stanghelle", "public_transport": "stop_position", "railway": "stop", "railway:position": "432.22", "train": "yes", "uic_ref": "7600367"}}, "geometry": {"type": "Point", "coordinates": [5.7330453, 60.548911]}}, {"type": "Feature", "properties": {"type": "node", "id": 3336104008, "tags": {"name": "Stanghelle", "public_transport": "stop_position", "railway": "stop", "railway:position": "432.22", "train": "yes"}}, "geometry": {"type": "Point", "coordinates": [5.7331269, 60.548893]}}, {"type": "Feature", "properties": {"type": "node", "id": 5526332048, "tags": {"name": "Stanghelle", "official_name": "Stanghelle stasjon", "railway": "station", "railway:traffic_mode": "passenger", "start_date": "1883-07-11", "ticket_sales": "no", "toilets": "no", "waiting_room": "yes"}}, "geometry": {"type": "Point", "coordinates": [5.7331564, 60.549137]}}, {"type": "Feature", "properties": {"type": "node", "id": 33061379, "tags": {"name": "Dale", "public_transport": "stop_position", "railway": "stop", "railway:position": "425.29", "train": "yes"}}, "geometry": {"type": "Point", "coordinates": [5.8160926, 60.586277]}}, {"type": "Feature", "properties": {"type": "node", "id": 3303989748, "tags": {"name": "Dale", "public_transport": "stop_position", "railway": "stop", "railway:position": "425.29", "train": "yes"}}, "geometry": {"type": "Point", "coordinates": [5.8161652, 60.5862542]}}, {"type": "Feature", "properties": {"type": "node", "id": 5526331893, "tags": {"name": "Dale", "official_name": "Dale stasjon", "railway": "station", "railway:traffic_mode": "passenger", "start_date": "1883-07-11"}}, "geometry": {"type": "Point", "coordinates": [5.8158857, 60.5862449]}}, {"type": "Feature", "properties": {"type": "node", "id": 431897005, "tags": {"name": "Bolstad\u00f8yri", "public_transport": "stop_position", "railway": "stop", "railway:position": "414.13", "source": "survey", "train": "yes", "uic_ref": "7600366"}}, "geometry": {"type": "Point", "coordinates": [5.9578768, 60.6378828]}}, {"type": "Feature", "properties": {"type": "node", "id": 2655322778, "tags": {"name": "Bolstad\u00f8yri", "public_transport": "stop_position", "railway": "stop", "railway:position": "414.13", "train": "yes"}}, "geometry": {"type": "Point", "coordinates": [5.9578925, 60.6378399]}}, {"type": "Feature", "properties": {"type": "node", "id": 5526332224, "tags": {"name": "Bolstad\u00f8yri", "official_name": "Bolstad\u00f8yri stasjon", "railway": "station", "railway:traffic_mode": "passenger", "start_date": "1883-07-11"}}, "geometry": {"type": "Point", "coordinates": [5.9578541, 60.637952]}}, {"type": "Feature", "properties": {"type": "node", "id": 431921002, "tags": {"name": "Evanger", "public_transport": "stop_position", "railway": "stop", "railway:position": "403.66", "train": "yes", "uic_ref": "7600365"}}, "geometry": {"type": "Point", "coordinates": [6.1095069, 60.6470173]}}, {"type": "Feature", "properties": {"type": "node", "id": 2272792623, "tags": {"name": "Evanger", "public_transport": "stop_position", "railway": "stop", "railway:position": "403.66", "train": "yes"}}, "geometry": {"type": "Point", "coordinates": [6.1094835, 60.6469759]}}, {"type": "Feature", "properties": {"type": "node", "id": 5526331892, "tags": {"name": "Evanger", "official_name": "Evanger stasjon", "railway": "station", "railway:traffic_mode": "passenger", "start_date": "1883-07-11"}}, "geometry": {"type": "Point", "coordinates": [6.109698, 60.6470377]}}, {"type": "Feature", "properties": {"type": "node", "id": 432630619, "tags": {"name": "Seimsgrend", "public_transport": "stop_position", "railway": "stop", "railway:position": "396.19", "source": "survey", "train": "yes", "uic_ref": "7600364"}}, "geometry": {"type": "Point", "coordinates": [6.2359507, 60.6325976]}}, {"type": "Feature", "properties": {"type": "node", "id": 432638967, "tags": {"name": "Bulken", "railway": "stop", "railway:position": "392.55", "train": "yes", "uic_ref": "7600363"}}, "geometry": {"type": "Point", "coordinates": [6.2844029, 60.6305841]}}, {"type": "Feature", "properties": {"type": "node", "id": 5594658999, "tags": {"name": "Bulken", "public_transport": "stop_position", "railway": "stop", "railway:position": "392.55", "train": "yes", "uic_ref": "7600363"}}, "geometry": {"type": "Point", "coordinates": [6.2844318, 60.6306253]}}, {"type": "Feature", "properties": {"type": "node", "id": 5526332076, "tags": {"name": "Bulken", "official_name": "Bulken stasjon", "railway": "station", "railway:traffic_mode": "passenger", "start_date": "1883-07-11"}}, "geometry": {"type": "Point", "coordinates": [6.2845182, 60.630659]}}, {"type": "Feature", "properties": {"type": "node", "id": 33055927, "tags": {"name": "Voss", "public_transport": "stop_position", "railway": "stop", "railway:position": "385.32", "train": "yes"}}, "geometry": {"type": "Point", "coordinates": [6.4103514, 60.6291815]}}, {"type": "Feature", "properties": {"type": "node", "id": 1812158373, "tags": {"name": "Voss", "public_transport": "stop_position", "railway": "stop", "railway:position": "385.32", "train": "yes"}}, "geometry": {"type": "Point", "coordinates": [6.4103226, 60.6292368]}}, {"type": "Feature", "properties": {"type": "node", "id": 4893194280, "tags": {"name": "Voss", "public_transport": "stop_position", "railway": "stop", "railway:position": "385.32", "train": "yes"}}, "geometry": {"type": "Point", "coordinates": [6.4102636, 60.6293197]}}, {"type": "Feature", "properties": {"type": "node", "id": 5720559128, "tags": {"name": "Voss", "official_name": "Voss stasjon", "railway": "station", "railway:traffic_mode": "passenger", "start_date": "1883-07-11", "wikidata": "Q1783061"}}, "geometry": {"type": "Point", "coordinates": [6.4101148, 60.6291046]}}, {"type": "Feature", "properties": {"type": "node", "id": 5526330930, "tags": {"name": "Palmafoss", "official_name": "Palmafoss stasjon", "railway": "station", "railway:traffic_mode": "freight", "start_date": "1935-04-01"}}, "geometry": {"type": "Point", "coordinates": [6.4670066, 60.6346086]}}, {"type": "Feature", "properties": {"type": "node", "id": 5011725047, "tags": {"name": "Gjerd\u00e5ker", "public_transport": "stop_position", "railway": "stop", "railway:position": "381.56", "train": "yes"}}, "geometry": {"type": "Point", "coordinates": [6.4637522, 60.6394563]}}, {"type": "Feature", "properties": {"type": "node", "id": 33054735, "tags": {"name": "Ygre", "public_transport": "stop_position", "railway": "stop", "railway:position": "379.03", "train": "yes", "uic_ref": "7600362"}}, "geometry": {"type": "Point", "coordinates": [6.5073047, 60.6452527]}}, {"type": "Feature", "properties": {"type": "node", "id": 33054499, "tags": {"name": "Kl\u00f8ve", "public_transport": "stop_position", "railway": "stop", "railway:position": "375.86", "train": "yes"}}, "geometry": {"type": "Point", "coordinates": [6.5352579, 60.6635958]}}, {"type": "Feature", "properties": {"type": "node", "id": 5526331909, "tags": {"name": "Urdland", "official_name": "Urdland stasjon", "railway": "station", "railway:traffic_mode": "passenger", "start_date": "1908-06-10"}}, "geometry": {"type": "Point", "coordinates": [6.5927611, 60.6795064]}}, {"type": "Feature", "properties": {"type": "node", "id": 33054161, "tags": {"name": "Urdland", "public_transport": "stop_position", "railway": "stop", "railway:position": "371.52", "train": "yes"}}, "geometry": {"type": "Point", "coordinates": [6.5931446, 60.6794604]}}, {"type": "Feature", "properties": {"type": "node", "id": 1992479593, "tags": {"name": "Urdland", "railway": "stop", "railway:position": "371.52", "train": "yes"}}, "geometry": {"type": "Point", "coordinates": [6.5931501, 60.6794152]}}, {"type": "Feature", "properties": {"type": "node", "id": 5401049174, "tags": {"name": "\u00d8yeflaten", "public_transport": "stop_position", "railway": "stop", "railway:position": "369.4", "train": "yes"}}, "geometry": {"type": "Point", "coordinates": [6.6304478, 60.6801248]}}, {"type": "Feature", "properties": {"type": "node", "id": 5010931085, "tags": {"name": "Skiple", "network": "Bergenbanen", "public_transport": "stop_position", "railway": "stop", "railway:position": "366.3", "train": "yes"}}, "geometry": {"type": "Point", "coordinates": [6.6792391, 60.681519]}}, {"type": "Feature", "properties": {"type": "node", "id": 1496681330, "tags": {"name": "Marnardal", "public_transport": "stop_position", "railway": "stop", "railway:position": "402.02", "train": "yes"}}, "geometry": {"type": "Point", "coordinates": [7.5123339, 58.2128265]}}, {"type": "Feature", "properties": {"type": "node", "id": 5526331905, "tags": {"name": "Marnardal", "official_name": "Marnardal stasjon", "railway": "station", "railway:traffic_mode": "passenger", "start_date": "1943-12-17"}}, "geometry": {"type": "Point", "coordinates": [7.5125673, 58.2127346]}}, {"type": "Feature", "properties": {"type": "node", "id": 5594217578, "tags": {"name": "Marnardal", "public_transport": "stop_position", "railway": "stop", "railway:position": "402.02", "train": "yes"}}, "geometry": {"type": "Point", "coordinates": [7.5122204, 58.21282]}}, {"type": "Feature", "properties": {"type": "node", "id": 5594217579, "tags": {"name": "Breland", "public_transport": "stop_position", "railway": "stop", "railway:position": "385.1", "train": "yes"}}, "geometry": {"type": "Point", "coordinates": [7.7195947, 58.1995706]}}, {"type": "Feature", "properties": {"type": "node", "id": 5594217610, "tags": {"name": "Breland", "public_transport": "stop_position", "railway": "stop", "railway:position": "385.1", "train": "yes"}}, "geometry": {"type": "Point", "coordinates": [7.7195828, 58.1996255]}}, {"type": "Feature", "properties": {"type": "node", "id": 1480364055, "tags": {"name": "Breland", "official_name": "Breland stasjon", "operator": "Bane NOR", "railway": "station", "railway:traffic_mode": "passenger", "start_date": "1943-12-17"}}, "geometry": {"type": "Point", "coordinates": [7.7202238, 58.1995761]}}, {"type": "Feature", "properties": {"type": "node", "id": 409022264, "tags": {"name": "Nodeland", "official_name": "Nodeland stasjon", "railway": "station", "railway:traffic_mode": "passenger", "start_date": "1943-12-17"}}, "geometry": {"type": "Point", "coordinates": [7.83505, 58.1570145]}}, {"type": "Feature", "properties": {"type": "node", "id": 5594217594, "tags": {"name": "Nodeland", "public_transport": "stop_position", "railway": "stop", "railway:position": "375.29", "train": "yes"}}, "geometry": {"type": "Point", "coordinates": [7.8349914, 58.1572226]}}, {"type": "Feature", "properties": {"type": "node", "id": 5594218124, "tags": {"name": "Nodeland", "public_transport": "stop_position", "railway": "stop", "railway:position": "375.29", "train": "yes"}}, "geometry": {"type": "Point", "coordinates": [7.8350876, 58.1572438]}}, {"type": "Feature", "properties": {"type": "node", "id": 5594450685, "tags": {"name": "Langemyr", "railway": "stop", "railway:position": "359.96", "train": "yes"}}, "geometry": {"type": "Point", "coordinates": [7.9387258, 58.1795283]}}, {"type": "Feature", "properties": {"type": "node", "id": 5594450711, "tags": {"name": "Langemyr", "railway": "stop", "railway:position": "359.96", "train": "yes"}}, "geometry": {"type": "Point", "coordinates": [7.9388242, 58.1795452]}}, {"type": "Feature", "properties": {"type": "node", "id": 5594450657, "tags": {"name": "Dalane", "railway": "stop", "railway:position": "362.1", "train": "yes"}}, "geometry": {"type": "Point", "coordinates": [7.9516715, 58.1625607]}}, {"type": "Feature", "properties": {"type": "node", "id": 5594450658, "tags": {"name": "Dalane", "railway": "stop", "railway:position": "362.1", "train": "yes"}}, "geometry": {"type": "Point", "coordinates": [7.9517546, 58.1625777]}}, {"type": "Feature", "properties": {"type": "node", "id": 5594450672, "tags": {"name": "Dalane", "railway": "stop", "railway:position": "362.1", "train": "yes"}}, "geometry": {"type": "Point", "coordinates": [7.9518696, 58.1625979]}}, {"type": "Feature", "properties": {"type": "node", "id": 2770721510, "tags": {"name": "Vennesla", "public_transport": "stop_position", "railway": "stop", "railway:position": "350.16", "train": "yes"}}, "geometry": {"type": "Point", "coordinates": [7.9677109, 58.2530482]}}, {"type": "Feature", "properties": {"type": "node", "id": 5594451728, "tags": {"name": "Vennesla", "public_transport": "stop_position", "railway": "stop", "railway:position": "350.16", "train": "yes"}}, "geometry": {"type": "Point", "coordinates": [7.9678148, 58.2530329]}}, {"type": "Feature", "properties": {"type": "node", "id": 5720557895, "tags": {"name": "Vennesla", "official_name": "Vennesla stasjon", "railway": "station", "railway:traffic_mode": "passenger", "start_date": "1938-06-22", "wikidata": "Q3181364"}}, "geometry": {"type": "Point", "coordinates": [7.9676253, 58.2531752]}}, {"type": "Feature", "properties": {"type": "node", "id": 5594450691, "tags": {"name": "Kristiansand", "public_transport": "stop_position", "railway": "stop", "railway:position": "365.29", "train": "yes"}}, "geometry": {"type": "Point", "coordinates": [7.9881519, 58.1457738]}}, {"type": "Feature", "properties": {"type": "node", "id": 5594450719, "tags": {"name": "Kristiansand", "public_transport": "stop_position", "railway": "stop", "railway:position": "365.29", "train": "yes"}}, "geometry": {"type": "Point", "coordinates": [7.9881556, 58.1457327]}}, {"type": "Feature", "properties": {"type": "node", "id": 5720557860, "tags": {"addr:city": "Kristiansand S", "addr:housenumber": "43", "addr:postcode": "4612", "addr:street": "Vestre Strandgate", "name": "Kristiansand", "official_name": "Kristiansand stasjon", "operator": "Bane NOR", "public_transport": "station", "railway": "station", "railway:traffic_mode": "mixed", "start_date": "1895-11-26", "train": "yes", "wikidata": "Q2454239", "wikipedia": "no:Kristiansand stasjon"}}, "geometry": {"type": "Point", "coordinates": [7.9871678, 58.1456402]}}, {"type": "Feature", "properties": {"type": "node", "id": 6009935309, "tags": {"name": "Kristiansand", "public_transport": "stop_position", "railway": "stop", "railway:position": "365.29", "train": "yes"}}, "geometry": {"type": "Point", "coordinates": [7.9857063, 58.1456083]}}, {"type": "Feature", "properties": {"type": "node", "id": 6436451255, "tags": {"name": "Kristiansand", "public_transport": "stop_position", "railway": "stop", "railway:position": "365.29", "train": "yes"}}, "geometry": {"type": "Point", "coordinates": [7.9861499, 58.1455381]}}, {"type": "Feature", "properties": {"type": "node", "id": 1951708217, "tags": {"name": "Reli Safari", "railway": "station"}}, "geometry": {"type": "Point", "coordinates": [8.1451178, 58.1834614]}}, {"type": "Feature", "properties": {"type": "node", "id": 4381896050, "tags": {"elevation": "43", "name": "Grovane", "note": "Station for Setesdalsbanen only", "official_name": "Grovane stasjon", "railway": "station", "railway:preserved": "yes", "start_date": "1938-06-22"}}, "geometry": {"type": "Point", "coordinates": [7.9803581, 58.2950219]}}, {"type": "Feature", "properties": {"type": "node", "id": 5594450689, "tags": {"name": "Grovane", "railway": "stop", "railway:position": "345.25", "train": "yes"}}, "geometry": {"type": "Point", "coordinates": [7.9801005, 58.2951179]}}, {"type": "Feature", "properties": {"type": "node", "id": 5594450690, "tags": {"name": "Grovane", "railway": "stop", "railway:position": "345.25", "train": "yes"}}, "geometry": {"type": "Point", "coordinates": [7.9802202, 58.2951126]}}, {"type": "Feature", "properties": {"type": "node", "id": 5594450717, "tags": {"name": "Grovane", "railway": "stop", "railway:position": "345.25", "train": "yes"}}, "geometry": {"type": "Point", "coordinates": [7.9803044, 58.2951065]}}, {"type": "Feature", "properties": {"type": "node", "id": 5594217619, "tags": {"name": "Bj\u00f8rkevoll", "railway": "stop", "railway:position": "461.48", "train": "yes"}}, "geometry": {"type": "Point", "coordinates": [6.7367222, 58.4094655]}}, {"type": "Feature", "properties": {"type": "node", "id": 250911204, "tags": {"name": "Gyland", "public_transport": "stop_position", "railway": "stop", "railway:position": "453.53", "source": "guess", "train": "yes"}}, "geometry": {"type": "Point", "coordinates": [6.8375127, 58.3842033]}}, {"type": "Feature", "properties": {"type": "node", "id": 5526332062, "tags": {"name": "Gyland", "official_name": "Gyland stasjon", "railway": "station", "railway:traffic_mode": "passenger", "start_date": "1943-12-17"}}, "geometry": {"type": "Point", "coordinates": [6.8377206, 58.3843305]}}, {"type": "Feature", "properties": {"type": "node", "id": 5594217593, "tags": {"name": "Gyland", "public_transport": "stop_position", "railway": "stop", "railway:position": "453.53", "source": "guess", "train": "yes"}}, "geometry": {"type": "Point", "coordinates": [6.8375415, 58.3841472]}}, {"type": "Feature", "properties": {"type": "node", "id": 2580696502, "tags": {"name": "Sandvatn", "railway": "stop", "railway:position": "442.19", "train": "yes"}}, "geometry": {"type": "Point", "coordinates": [7.0178717, 58.3677558]}}, {"type": "Feature", "properties": {"type": "node", "id": 522701555, "tags": {"name": "Storekvina", "public_transport": "stop_position", "railway": "stop", "railway:position": "446.37", "source": "Bing", "train": "yes"}}, "geometry": {"type": "Point", "coordinates": [6.9577176, 58.3796833]}}, {"type": "Feature", "properties": {"type": "node", "id": 527384457, "tags": {"name": "Snartemo", "public_transport": "stop_position", "railway": "stop", "railway:position": "428.85", "train": "yes", "uic_ref": "7600125"}}, "geometry": {"type": "Point", "coordinates": [7.2110974, 58.3315778]}}, {"type": "Feature", "properties": {"type": "node", "id": 5594217595, "tags": {"name": "Snartemo", "public_transport": "stop_position", "railway": "stop", "railway:position": "428.85", "train": "yes", "uic_ref": "7600125"}}, "geometry": {"type": "Point", "coordinates": [7.2111149, 58.3315167]}}, {"type": "Feature", "properties": {"type": "node", "id": 5720557919, "tags": {"name": "Snartemo", "official_name": "Snartemo stasjon", "railway": "station", "railway:traffic_mode": "passenger", "start_date": "1943-12-17", "wikidata": "Q3275066"}}, "geometry": {"type": "Point", "coordinates": [7.2115856, 58.331673]}}, {"type": "Feature", "properties": {"type": "node", "id": 527384554, "tags": {"name": "Audnedal", "public_transport": "stop_position", "railway": "stop", "railway:position": "419.34", "train": "yes", "uic_ref": "7600341"}}, "geometry": {"type": "Point", "coordinates": [7.3671438, 58.318917]}}, {"type": "Feature", "properties": {"type": "node", "id": 5526332222, "tags": {"name": "Audnedal", "official_name": "Audnedal stasjon", "railway": "station", "railway:traffic_mode": "passenger", "start_date": "1943-12-17"}}, "geometry": {"type": "Point", "coordinates": [7.367471, 58.3188255]}}, {"type": "Feature", "properties": {"type": "node", "id": 5594217598, "tags": {"name": "Audnedal", "public_transport": "stop_position", "railway": "stop", "railway:position": "419.34", "train": "yes", "uic_ref": "7600341"}}, "geometry": {"type": "Point", "coordinates": [7.3672624, 58.318931]}}, {"type": "Feature", "properties": {"type": "node", "id": 5526330441, "tags": {"ele": "102", "end_date": "1962-09-02", "name": "R\u00f8yknes", "official_name": "R\u00f8yknes stasjon", "railway": "station", "railway:preserved": "yes", "railway:traffic_mode": "passenger", "start_date": "1895-11-26"}}, "geometry": {"type": "Point", "coordinates": [7.9003359, 58.3434638]}}, {"type": "Feature", "properties": {"type": "node", "id": 5526330734, "tags": {"name": "Beih\u00f8ldalen", "official_name": "Beih\u00f8ldalen stasjon", "railway": "station", "railway:preserved": "yes", "railway:traffic_mode": "passenger", "start_date": "1996-11-23"}}, "geometry": {"type": "Point", "coordinates": [7.9270102, 58.3299257]}}, {"type": "Feature", "properties": {"type": "node", "id": 5594450655, "tags": {"name": "Oggevatn", "railway": "stop", "railway:position": "325.54", "train": "yes"}}, "geometry": {"type": "Point", "coordinates": [8.1111999, 58.444101]}}, {"type": "Feature", "properties": {"type": "node", "id": 5594450707, "tags": {"name": "Oggevatn", "railway": "stop", "railway:position": "325.54", "train": "yes"}}, "geometry": {"type": "Point", "coordinates": [8.1112535, 58.4440546]}}, {"type": "Feature", "properties": {"type": "node", "id": 5594450709, "tags": {"name": "Fidjetun", "railway": "stop", "railway:position": "313.69", "train": "yes"}}, "geometry": {"type": "Point", "coordinates": [8.234189, 58.5227367]}}, {"type": "Feature", "properties": {"type": "node", "id": 5594450651, "tags": {"name": "Herefoss", "railway": "stop", "railway:position": "306.03", "train": "yes"}}, "geometry": {"type": "Point", "coordinates": [8.3520998, 58.535887]}}, {"type": "Feature", "properties": {"type": "node", "id": 5594450652, "tags": {"name": "Herefoss", "railway": "stop", "railway:position": "306.03", "train": "yes"}}, "geometry": {"type": "Point", "coordinates": [8.3521559, 58.5358529]}}, {"type": "Feature", "properties": {"type": "node", "id": 1064432636, "tags": {"name": "Rise", "public_transport": "stop_position", "railway": "stop", "railway:position": "307.44", "train": "yes"}}, "geometry": {"type": "Point", "coordinates": [8.6237285, 58.4683953]}}, {"type": "Feature", "properties": {"type": "node", "id": 1064432677, "tags": {"name": "Br\u00e5stad", "public_transport": "stop_position", "railway": "stop", "railway:position": "312.52", "train": "yes"}}, "geometry": {"type": "Point", "coordinates": [8.6895762, 58.4626986]}}, {"type": "Feature", "properties": {"type": "node", "id": 3050356012, "tags": {"name": "Blakstad", "public_transport": "stop_position", "railway": "stop", "railway:position": "302.5", "ssr:type": "holdeplass", "train": "yes"}}, "geometry": {"type": "Point", "coordinates": [8.648621, 58.507509]}}, {"type": "Feature", "properties": {"type": "node", "id": 1059122405, "tags": {"name": "Stoa", "public_transport": "stop_position", "railway": "stop", "railway:position": "313.792", "train": "yes"}}, "geometry": {"type": "Point", "coordinates": [8.7092137, 58.4660179]}}, {"type": "Feature", "properties": {"type": "node", "id": 250911315, "tags": {"name": "Arendal", "public_transport": "stop_position", "railway": "stop", "railway:position": "317.62", "train": "yes"}}, "geometry": {"type": "Point", "coordinates": [8.7696417, 58.4650354]}}, {"type": "Feature", "properties": {"type": "node", "id": 5526332077, "tags": {"name": "Arendal", "official_name": "Arendal stasjon", "railway": "station", "railway:traffic_mode": "passenger", "start_date": "1908-11-23", "wheelchair": "no"}}, "geometry": {"type": "Point", "coordinates": [8.7695237, 58.4650241]}}, {"type": "Feature", "properties": {"type": "node", "id": 3269232610, "tags": {"name": "Helldalsmo", "railway": "stop", "railway:position": "289.25", "train": "yes"}}, "geometry": {"type": "Point", "coordinates": [8.5234707, 58.6285931]}}, {"type": "Feature", "properties": {"type": "node", "id": 5594451722, "tags": {"name": "Helldalsmo", "railway": "stop", "railway:position": "289.25", "train": "yes"}}, "geometry": {"type": "Point", "coordinates": [8.523549, 58.6286395]}}, {"type": "Feature", "properties": {"type": "node", "id": 1064432576, "tags": {"name": "Froland", "public_transport": "stop_position", "railway": "stop", "railway:position": "299.51", "train": "yes"}}, "geometry": {"type": "Point", "coordinates": [8.6544117, 58.5294951]}}, {"type": "Feature", "properties": {"type": "node", "id": 250911243, "tags": {"name": "B\u00f8ylestad", "public_transport": "stop_position", "railway": "stop", "railway:position": "293.28", "train": "yes"}}, "geometry": {"type": "Point", "coordinates": [8.7058309, 58.5766171]}}, {"type": "Feature", "properties": {"type": "node", "id": 296092184, "tags": {"name": "Nelaug", "public_transport": "stop_position", "railway": "stop", "railway:position": "281.41", "ref": "3", "train": "yes"}}, "geometry": {"type": "Point", "coordinates": [8.6300627, 58.6575066]}}, {"type": "Feature", "properties": {"type": "node", "id": 5526332095, "tags": {"ele": "141.1", "image": "https://upload.wikimedia.org/wikipedia/commons/9/91/Nelaug_stasjon_2011.jpg?uselang=nb", "name": "Nelaug", "official_name": "Nelaug stasjon", "railway": "station", "railway:traffic_mode": "passenger", "start_date": "1935-11-10", "wikidata": "Q3097189", "wikipedia": "no:Nelaug stasjon"}}, "geometry": {"type": "Point", "coordinates": [8.6307293, 58.6574728]}}, {"type": "Feature", "properties": {"type": "node", "id": 5594450694, "tags": {"name": "Nelaug", "public_transport": "stop_position", "railway": "stop", "railway:position": "281.41", "ref": "4", "train": "yes"}}, "geometry": {"type": "Point", "coordinates": [8.6300008, 58.657466]}}, {"type": "Feature", "properties": {"type": "node", "id": 5594450695, "tags": {"name": "Nelaug", "public_transport": "stop_position", "railway": "stop", "railway:position": "281.41", "train": "yes"}}, "geometry": {"type": "Point", "coordinates": [8.6301859, 58.6575964]}}, {"type": "Feature", "properties": {"type": "node", "id": 5594451721, "tags": {"name": "Nelaug", "public_transport": "stop_position", "railway": "stop", "railway:position": "281.41", "ref": "2", "train": "yes"}}, "geometry": {"type": "Point", "coordinates": [8.6301346, 58.657557]}}, {"type": "Feature", "properties": {"type": "node", "id": 1064432797, "tags": {"name": "Flaten", "public_transport": "stop_position", "railway": "stop", "railway:position": "285.84", "train": "yes"}}, "geometry": {"type": "Point", "coordinates": [8.6808013, 58.6362188]}}, {"type": "Feature", "properties": {"type": "node", "id": 5551484082, "tags": {"name": "Sel\u00e5svatn", "railway": "stop", "railway:position": "272.63", "train": "yes"}}, "geometry": {"type": "Point", "coordinates": [8.7262891, 58.6911515]}}, {"type": "Feature", "properties": {"type": "node", "id": 5551484099, "tags": {"name": "Sel\u00e5svatn", "railway": "stop", "railway:position": "272.63", "train": "yes"}}, "geometry": {"type": "Point", "coordinates": [8.7261983, 58.6912076]}}, {"type": "Feature", "properties": {"type": "node", "id": 1921906890, "tags": {"name": "Veg\u00e5rshei", "public_transport": "stop_position", "railway": "stop", "railway:position": "261.51", "train": "yes"}}, "geometry": {"type": "Point", "coordinates": [8.8553573, 58.7608576]}}, {"type": "Feature", "properties": {"type": "node", "id": 1921906923, "tags": {"name": "Veg\u00e5rshei", "public_transport": "stop_position", "railway": "stop", "railway:position": "261.51", "train": "yes"}}, "geometry": {"type": "Point", "coordinates": [8.8554178, 58.7608078]}}, {"type": "Feature", "properties": {"type": "node", "id": 5526332044, "tags": {"name": "Veg\u00e5rshei", "official_name": "Veg\u00e5rshei stasjon", "railway": "station", "railway:traffic_mode": "passenger", "start_date": "1935-11-10"}}, "geometry": {"type": "Point", "coordinates": [8.8556899, 58.7608186]}}, {"type": "Feature", "properties": {"type": "node", "id": 5594450680, "tags": {"name": "Skorst\u00f8l", "railway": "stop", "railway:position": "248.9", "train": "yes"}}, "geometry": {"type": "Point", "coordinates": [9.0209354, 58.7883529]}}, {"type": "Feature", "properties": {"type": "node", "id": 5594450710, "tags": {"name": "Skorst\u00f8l", "railway": "stop", "railway:position": "248.9", "train": "yes"}}, "geometry": {"type": "Point", "coordinates": [9.0208669, 58.7883735]}}, {"type": "Feature", "properties": {"type": "node", "id": 2399893576, "tags": {"name": "Gjerstad", "operator": "Bane NOR", "public_transport": "stop_position", "railway": "stop", "railway:position": "237.05", "train": "yes"}}, "geometry": {"type": "Point", "coordinates": [9.0230355, 58.870077]}}, {"type": "Feature", "properties": {"type": "node", "id": 3329614263, "tags": {"name": "Gjerstad", "operator": "Bane NOR", "public_transport": "stop_position", "railway": "stop", "railway:position": "237.05", "train": "yes"}}, "geometry": {"type": "Point", "coordinates": [9.0230687, 58.8701298]}}, {"type": "Feature", "properties": {"type": "node", "id": 5720557875, "tags": {"name": "Gjerstad", "official_name": "Gjerstad stasjon", "railway": "station", "railway:traffic_mode": "passenger", "start_date": "1935-11-10", "wikidata": "Q3181604"}}, "geometry": {"type": "Point", "coordinates": [9.0233347, 58.8698595]}}, {"type": "Feature", "properties": {"type": "node", "id": 4917260247, "tags": {"name": "Lyser", "railway": "stop", "railway:position": "228.4", "train": "yes"}}, "geometry": {"type": "Point", "coordinates": [9.1057168, 58.9141496]}}, {"type": "Feature", "properties": {"type": "node", "id": 4917260271, "tags": {"name": "Lyser", "railway": "stop", "railway:position": "228.4", "train": "yes"}}, "geometry": {"type": "Point", "coordinates": [9.1057838, 58.9141244]}}, {"type": "Feature", "properties": {"type": "node", "id": 3156508706, "tags": {"name": "Neslandsvatn", "public_transport": "stop_position", "railway": "stop", "railway:position": "220.76", "ref": "1", "train": "yes"}}, "geometry": {"type": "Point", "coordinates": [9.1561529, 58.9713211]}}, {"type": "Feature", "properties": {"type": "node", "id": 3156508707, "tags": {"name": "Neslandsvatn", "public_transport": "stop_position", "railway": "stop", "railway:position": "220.76", "ref": "2", "train": "yes"}}, "geometry": {"type": "Point", "coordinates": [9.1559591, 58.9712938]}}, {"type": "Feature", "properties": {"type": "node", "id": 3156508708, "tags": {"name": "Neslandsvatn", "public_transport": "stop_position", "railway": "stop", "railway:position": "220.76", "ref": "1", "train": "yes"}}, "geometry": {"type": "Point", "coordinates": [9.1560605, 58.9713054]}}, {"type": "Feature", "properties": {"type": "node", "id": 5720557890, "tags": {"name": "Neslandsvatn", "official_name": "Neslandsvatn stasjon", "railway": "station", "railway:traffic_mode": "passenger", "start_date": "1927-12-02", "wikidata": "Q257532"}}, "geometry": {"type": "Point", "coordinates": [9.1561657, 58.9715169]}}, {"type": "Feature", "properties": {"type": "node", "id": 1169019445, "tags": {"name": "Drangedal", "public_transport": "stop_position", "railway": "stop", "railway:position": "204.96", "train": "yes"}}, "geometry": {"type": "Point", "coordinates": [9.0645817, 59.0962088]}}, {"type": "Feature", "properties": {"type": "node", "id": 3145427534, "tags": {"name": "Drangedal", "public_transport": "stop_position", "railway": "stop", "railway:position": "204.96", "train": "yes"}}, "geometry": {"type": "Point", "coordinates": [9.0644724, 59.0962383]}}, {"type": "Feature", "properties": {"type": "node", "id": 5720557879, "tags": {"name": "Drangedal", "official_name": "Drangedal stasjon", "railway": "station", "railway:traffic_mode": "passenger", "ref": "08179100", "start_date": "1927-12-02", "uic_ref": "7600326", "wikidata": "Q3096407"}}, "geometry": {"type": "Point", "coordinates": [9.0641311, 59.0961078]}}, {"type": "Feature", "properties": {"type": "node", "id": 5711841426, "tags": {"name": "Grenlandsterminalen", "railway": "stop", "railway:position": "201.14", "train": "yes"}}, "geometry": {"type": "Point", "coordinates": [9.6980522, 59.0664222]}}, {"type": "Feature", "properties": {"type": "node", "id": 1017941300, "tags": {"name": "Porsgrunn", "operator": "Jernbaneverket", "public_transport": "stop_position", "railway": "stop", "railway:position": "190.12", "train": "yes"}}, "geometry": {"type": "Point", "coordinates": [9.6591797, 59.1391778]}}, {"type": "Feature", "properties": {"type": "node", "id": 2865174864, "tags": {"name": "Porsgrunn", "operator": "Jernbaneverket", "public_transport": "stop_position", "railway": "stop", "railway:position": "190.12", "train": "yes"}}, "geometry": {"type": "Point", "coordinates": [9.6590956, 59.1391648]}}, {"type": "Feature", "properties": {"type": "node", "id": 5720557908, "tags": {"name": "Porsgrunn", "official_name": "Porsgrunn stasjon", "public_transport": "station", "railway": "station", "railway:traffic_mode": "passenger", "start_date": "1882-11-24", "train": "yes", "wikidata": "Q7230415"}}, "geometry": {"type": "Point", "coordinates": [9.6585971, 59.1400961]}}, {"type": "Feature", "properties": {"type": "node", "id": 283062255, "tags": {"name": "Larvik", "operator": "Jernbaneverket", "public_transport": "stop_position", "railway": "stop", "railway:position": "158.66", "train": "yes"}}, "geometry": {"type": "Point", "coordinates": [10.0316665, 59.0500401]}}, {"type": "Feature", "properties": {"type": "node", "id": 2848811253, "tags": {"name": "Larvik", "operator": "Jernbaneverket", "public_transport": "stop_position", "railway": "stop", "railway:position": "158.66", "train": "yes"}}, "geometry": {"type": "Point", "coordinates": [10.0315909, 59.0499113]}}, {"type": "Feature", "properties": {"type": "node", "id": 2848811254, "tags": {"name": "Larvik", "operator": "Jernbaneverket", "public_transport": "stop_position", "railway": "stop", "railway:position": "158.66", "train": "yes"}}, "geometry": {"type": "Point", "coordinates": [10.0316469, 59.0500013]}}, {"type": "Feature", "properties": {"type": "node", "id": 2848811255, "tags": {"name": "Larvik", "official_name": "Larvik stasjon", "operator": "Bane NOR", "public_transport": "station", "railway": "station", "railway:traffic_mode": "mixed", "ref": "07095190", "route_ref": "R20", "start_date": "1881-12-07"}}, "geometry": {"type": "Point", "coordinates": [10.0313875, 59.0501491]}}, {"type": "Feature", "properties": {"type": "node", "id": 2584427926, "tags": {"disused:railway": "stop", "end_date": "2018-08-07", "name": "Eikenes", "operator": "Bane NOR", "public_transport": "stop_position", "railway:position": "174.64", "train": "yes"}}, "geometry": {"type": "Point", "coordinates": [9.895985, 59.1468476]}}, {"type": "Feature", "properties": {"type": "node", "id": 1242413049, "tags": {"disused:railway": "stop", "end_date": "2018-08-07", "name": "Kjose", "operator": "Bane NOR", "public_transport": "stop_position", "railway:position": "169.47", "train": "yes"}}, "geometry": {"type": "Point", "coordinates": [9.9197374, 59.1069987]}}, {"type": "Feature", "properties": {"type": "node", "id": 3145667921, "tags": {"name": "Nakksj\u00f8", "railway": "stop", "railway:position": "193.02", "train": "yes"}}, "geometry": {"type": "Point", "coordinates": [9.0879295, 59.185979]}}, {"type": "Feature", "properties": {"type": "node", "id": 3145667922, "tags": {"name": "Nakksj\u00f8", "railway": "stop", "railway:position": "193.02", "train": "yes"}}, "geometry": {"type": "Point", "coordinates": [9.0878607, 59.1859991]}}, {"type": "Feature", "properties": {"type": "node", "id": 250910589, "tags": {"name": "Lunde", "public_transport": "stop_position", "railway": "stop", "railway:position": "177.48", "train": "yes"}}, "geometry": {"type": "Point", "coordinates": [9.1008698, 59.2988823]}}, {"type": "Feature", "properties": {"type": "node", "id": 3124038811, "tags": {"name": "Lunde", "public_transport": "stop_position", "railway": "stop", "railway:position": "177.48", "train": "yes"}}, "geometry": {"type": "Point", "coordinates": [9.1009671, 59.2988953]}}, {"type": "Feature", "properties": {"type": "node", "id": 5720557894, "tags": {"name": "Lunde", "official_name": "Lunde stasjon", "railway": "station", "railway:traffic_mode": "passenger", "ref": "08199140", "start_date": "1925-12-15", "uic_ref": "7600319", "wikidata": "Q3096623"}}, "geometry": {"type": "Point", "coordinates": [9.101159, 59.2988478]}}, {"type": "Feature", "properties": {"type": "node", "id": 3121109743, "tags": {"name": "B\u00f8", "public_transport": "stop_position", "railway": "stop", "railway:position": "163.44", "train": "yes"}}, "geometry": {"type": "Point", "coordinates": [9.0694552, 59.4092363]}}, {"type": "Feature", "properties": {"type": "node", "id": 3121109744, "tags": {"name": "B\u00f8", "public_transport": "stop_position", "railway": "stop", "railway:position": "163.44", "train": "yes"}}, "geometry": {"type": "Point", "coordinates": [9.069471, 59.4091831]}}, {"type": "Feature", "properties": {"type": "node", "id": 5720557900, "tags": {"name": "B\u00f8", "official_name": "B\u00f8 stasjon", "railway": "station", "railway:traffic_mode": "mixed", "ref": "08219170", "start_date": "1924-12-01", "uic_ref": "7600318", "wikidata": "Q2753937"}}, "geometry": {"type": "Point", "coordinates": [9.0695411, 59.4093247]}}, {"type": "Feature", "properties": {"type": "node", "id": 3122567926, "tags": {"name": "Gvarv", "railway": "stop", "railway:position": "156.49", "train": "yes"}}, "geometry": {"type": "Point", "coordinates": [9.1778328, 59.389273]}}, {"type": "Feature", "properties": {"type": "node", "id": 3122567931, "tags": {"name": "Gvarv", "railway": "stop", "railway:position": "156.49", "train": "yes"}}, "geometry": {"type": "Point", "coordinates": [9.1777856, 59.3893218]}}, {"type": "Feature", "properties": {"type": "node", "id": 4456605117, "tags": {"end_date": "1991-07-05", "name": "Rjukan", "official_name": "Rjukan stasjon", "public_transport": "stop_position", "railway": "station", "railway:position": "15.93", "railway:preserved": "yes", "railway:traffic_mode": "passenger", "start_date": "1909-08-09", "train": "yes", "wikidata": "Q7339170"}}, "geometry": {"type": "Point", "coordinates": [8.583652, 59.8771065]}}, {"type": "Feature", "properties": {"type": "node", "id": 4456605116, "tags": {"end_date": "1991-07-05", "name": "Ingolfsland", "official_name": "Ingolfsland stasjon", "public_transport": "stop_position", "railway": "station", "railway:position": "13.81", "railway:preserved": "yes", "railway:traffic_mode": "passenger", "start_date": "1913-01-30", "wikidata": "Q6032943"}}, "geometry": {"type": "Point", "coordinates": [8.621448, 59.8778353]}}, {"type": "Feature", "properties": {"type": "node", "id": 1873358537, "tags": {"alt_name": "Bj\u00f8rkhaug stasjon", "end_date": "1991-07-05", "name": "Bj\u00f8rkhaug", "official_name": "Bj\u00f8rkhaug holdeplass", "public_transport": "stop_position", "railway": "halt", "railway:position": "12.6", "railway:preserved": "yes", "railway:traffic_mode": "passenger", "start_date": "1960-08-01", "train": "yes"}}, "geometry": {"type": "Point", "coordinates": [8.6420617, 59.8799378]}}, {"type": "Feature", "properties": {"type": "node", "id": 5713779316, "tags": {"alt_name": "\u00d8verland stasjon", "end_date": "1991-07-05", "name": "\u00d8verland", "official_name": "\u00d8verland holdeplass", "public_transport": "stop_position", "railway": "halt", "railway:position": "10.12", "railway:preserved": "yes", "railway:traffic_mode": "passenger", "start_date": "1942-11-11", "train": "yes"}}, "geometry": {"type": "Point", "coordinates": [8.6835551, 59.8851301]}}, {"type": "Feature", "properties": {"type": "node", "id": 883497141, "tags": {"alt_name": "Skeie stasjon", "end_date": "1991-07-05", "name": "Skeie", "official_name": "Skeie holdeplass", "public_transport": "stop_position", "railway": "halt", "railway:position": "6.5", "railway:preserved": "yes", "railway:traffic_mode": "passenger", "start_date": "1953-10-01", "train": "yes"}}, "geometry": {"type": "Point", "coordinates": [8.7202583, 59.9100951]}}, {"type": "Feature", "properties": {"type": "node", "id": 5323598248, "tags": {"alt_name": "Miland stasjon", "end_date": "1991-07-05", "name": "Miland", "official_name": "Miland holdeplass", "public_transport": "stop_position", "railway": "halt", "railway:position": "4.44", "railway:preserved": "yes", "railway:traffic_mode": "passenger", "start_date": "1909-08-09", "train": "yes", "wikidata": "Q6850760"}}, "geometry": {"type": "Point", "coordinates": [8.7447911, 59.9224555]}}, {"type": "Feature", "properties": {"type": "node", "id": 5713779317, "tags": {"alt_name": "Busl\u00e5tten stasjon", "end_date": "1991-07-05", "name": "Busl\u00e5tten", "official_name": "Busl\u00e5tten holdeplass", "public_transport": "stop_position", "railway": "halt", "railway:position": "1.1", "railway:preserved": "yes", "railway:traffic_mode": "passenger", "start_date": "1953-10-01", "train": "yes"}}, "geometry": {"type": "Point", "coordinates": [8.8010984, 59.9256108]}}, {"type": "Feature", "properties": {"type": "node", "id": 5713779315, "tags": {"end_date": "1991-07-05", "name": "M\u00e6l", "official_name": "M\u00e6l stasjon", "public_transport": "stop_position", "railway": "station", "railway:position": "0.38", "railway:preserved": "yes", "railway:traffic_mode": "passenger", "start_date": "1909-08-09", "train": "yes", "wikidata": "Q6950028"}}, "geometry": {"type": "Point", "coordinates": [8.8112702, 59.929437]}}, {"type": "Feature", "properties": {"type": "node", "id": 2881983944, "tags": {"name": "Valeb\u00f8", "railway": "stop", "railway:position": "156.09", "train": "yes"}}, "geometry": {"type": "Point", "coordinates": [9.3469366, 59.3418224]}}, {"type": "Feature", "properties": {"type": "node", "id": 2873194596, "tags": {"name": "Borgestad", "railway": "stop", "railway:position": "186.8", "train": "yes"}}, "geometry": {"type": "Point", "coordinates": [9.6449172, 59.166975]}}, {"type": "Feature", "properties": {"type": "node", "id": 2873194535, "tags": {"name": "Skien", "official_name": "Skien stasjon", "operator": "Bane NOR", "railway": "station", "railway:traffic_mode": "mixed", "ref": "08069030", "route_ref": "R20;R52", "start_date": "1917-12-13", "wikidata": "Q4581985"}}, "geometry": {"type": "Point", "coordinates": [9.6033784, 59.2189671]}}, {"type": "Feature", "properties": {"type": "node", "id": 2873194537, "tags": {"name": "Skien", "operator": "Jernbaneverket", "public_transport": "stop_position", "ref": "3", "train": "yes"}}, "geometry": {"type": "Point", "coordinates": [9.6023536, 59.2201302]}}, {"type": "Feature", "properties": {"type": "node", "id": 2873194538, "tags": {"name": "Skien", "operator": "Jernbaneverket", "public_transport": "stop_position", "ref": "2", "train": "yes"}}, "geometry": {"type": "Point", "coordinates": [9.602523, 59.2201865]}}, {"type": "Feature", "properties": {"type": "node", "id": 2873199519, "tags": {"name": "Skien", "operator": "Bane NOR", "public_transport": "stop_position", "railway": "stop", "railway:position": "180.5", "ref": "1", "train": "yes"}}, "geometry": {"type": "Point", "coordinates": [9.603893, 59.2190544]}}, {"type": "Feature", "properties": {"type": "node", "id": 2873199520, "tags": {"name": "Skien", "operator": "Bane NOR", "public_transport": "stop_position", "railway": "stop", "railway:position": "180.5", "train": "yes"}}, "geometry": {"type": "Point", "coordinates": [9.6037123, 59.2190076]}}, {"type": "Feature", "properties": {"type": "node", "id": 367553676, "tags": {"name": "Nisterud", "operator": "Jenbaneverket", "public_transport": "stop_position", "railway": "stop", "railway:position": "168.42", "train": "yes"}}, "geometry": {"type": "Point", "coordinates": [9.4851118, 59.3003905]}}, {"type": "Feature", "properties": {"type": "node", "id": 2881982089, "tags": {"name": "Nordagutu", "operator": "Jenbaneverket", "public_transport": "stop_position", "railway": "stop", "railway:position": "145.95", "train": "yes"}}, "geometry": {"type": "Point", "coordinates": [9.3228403, 59.4180974]}}, {"type": "Feature", "properties": {"type": "node", "id": 2881985059, "tags": {"name": "Nordagutu", "operator": "Jenbaneverket", "public_transport": "stop_position", "railway": "stop", "railway:position": "145.95", "train": "yes"}}, "geometry": {"type": "Point", "coordinates": [9.3229661, 59.4181082]}}, {"type": "Feature", "properties": {"type": "node", "id": 2881985077, "tags": {"name": "Nordagutu", "operator": "Jenbaneverket", "public_transport": "stop_position", "railway": "stop", "railway:position": "145.95", "train": "yes"}}, "geometry": {"type": "Point", "coordinates": [9.3230591, 59.4181203]}}, {"type": "Feature", "properties": {"type": "node", "id": 5720557878, "tags": {"name": "Nordagutu", "official_name": "Nordagutu stasjon", "railway": "station", "railway:traffic_mode": "passenger", "start_date": "1916-12-04", "wikidata": "Q1783261"}}, "geometry": {"type": "Point", "coordinates": [9.3226987, 59.4180062]}}, {"type": "Feature", "properties": {"type": "node", "id": 364506845, "tags": {"name": "Notodden stasjon", "operator": "Bane NOR", "public_transport": "stop_position", "railway": "stop", "railway:position": "146.25", "train": "yes"}}, "geometry": {"type": "Point", "coordinates": [9.2570053, 59.5570434]}}, {"type": "Feature", "properties": {"type": "node", "id": 2345042909, "tags": {"name": "Notodden", "operator": "Bane NOR", "public_transport": "stop_position", "train": "yes"}}, "geometry": {"type": "Point", "coordinates": [9.2683027, 59.5586995]}}, {"type": "Feature", "properties": {"type": "node", "id": 5159695882, "tags": {"name": "Notodden", "operator": "Bane NOR", "public_transport": "stop_position", "train": "yes"}}, "geometry": {"type": "Point", "coordinates": [9.2674348, 59.5590657]}}, {"type": "Feature", "properties": {"type": "node", "id": 2883839782, "tags": {"name": "Hjukseb\u00f8", "railway": "stop", "railway:position": "136.24", "train": "yes"}}, "geometry": {"type": "Point", "coordinates": [9.3340649, 59.4923715]}}, {"type": "Feature", "properties": {"type": "node", "id": 2883839783, "tags": {"name": "Hjukseb\u00f8", "railway": "stop", "railway:position": "136.24", "train": "yes"}}, "geometry": {"type": "Point", "coordinates": [9.3339766, 59.4924026]}}, {"type": "Feature", "properties": {"type": "node", "id": 364507330, "tags": {"name": "Trykkerud", "operator": "Jenbaneverket", "public_transport": "stop_position", "railway": "stop", "railway:position": "138.53", "train": "yes", "wikidata": "Q18085982"}}, "geometry": {"type": "Point", "coordinates": [9.336172, 59.51214]}}, {"type": "Feature", "properties": {"type": "node", "id": 2982892214, "tags": {"name": "\u00d8ysteinstul", "railway": "stop", "railway:position": "125.01", "train": "yes"}}, "geometry": {"type": "Point", "coordinates": [9.3848954, 59.5658572]}}, {"type": "Feature", "properties": {"type": "node", "id": 2865179148, "tags": {"disused:railway": "stop", "end_date": "2018-08-07", "name": "Oklungen", "operator": "Bane NOR", "public_transport": "stop_position", "railway:position": "182.1", "train": "yes"}}, "geometry": {"type": "Point", "coordinates": [9.8076654, 59.1790321]}}, {"type": "Feature", "properties": {"type": "node", "id": 2670845681, "tags": {"name": "Meheia", "railway": "stop", "railway:position": "113.22", "train": "yes"}}, "geometry": {"type": "Point", "coordinates": [9.5009675, 59.6301344]}}, {"type": "Feature", "properties": {"type": "node", "id": 2986569883, "tags": {"name": "Saggrenda", "railway": "stop", "railway:position": "106.67", "train": "yes"}}, "geometry": {"type": "Point", "coordinates": [9.6050876, 59.6330235]}}, {"type": "Feature", "properties": {"type": "node", "id": 305444816, "tags": {"name": "Flesberg", "railway": "stop", "railway:position": "129.49", "train": "yes"}}, "geometry": {"type": "Point", "coordinates": [9.4274586, 59.8628529]}}, {"type": "Feature", "properties": {"type": "node", "id": 3309283764, "tags": {"disused:public_transport": "stop_position", "name": "Rollag", "railway": "stop", "railway:position": "147.17", "train": "yes"}}, "geometry": {"type": "Point", "coordinates": [9.2946163, 59.9849938]}}, {"type": "Feature", "properties": {"type": "node", "id": 5709373901, "tags": {"name": "Skollenborg", "railway": "stop", "railway:position": "92.59", "train": "yes"}}, "geometry": {"type": "Point", "coordinates": [9.6951639, 59.6223384]}}, {"type": "Feature", "properties": {"type": "node", "id": 2412119863, "tags": {"name": "Kongsberg", "operator": "Jenbaneverket", "public_transport": "stop_position", "railway": "stop", "railway:position": "99.37", "train": "yes"}}, "geometry": {"type": "Point", "coordinates": [9.6511135, 59.6720191]}}, {"type": "Feature", "properties": {"type": "node", "id": 2412119865, "tags": {"name": "Kongsberg", "operator": "Jenbaneverket", "public_transport": "stop_position", "railway": "stop", "railway:position": "99.37", "train": "yes"}}, "geometry": {"type": "Point", "coordinates": [9.6511971, 59.6720514]}}, {"type": "Feature", "properties": {"type": "node", "id": 2412119872, "tags": {"name": "Kongsberg", "operator": "Jenbaneverket", "public_transport": "stop_position", "railway": "stop", "railway:position": "99.37", "train": "yes"}}, "geometry": {"type": "Point", "coordinates": [9.6513418, 59.672118]}}, {"type": "Feature", "properties": {"type": "node", "id": 4353516731, "tags": {"name": "Kongsberg", "official_name": "Kongsberg stasjon", "operator": "Bane NOR Eiendom", "public_transport": "station", "railway": "station", "railway:traffic_mode": "passenger", "ssr:stedsnr": "266554", "start_date": "1917-09-17"}}, "geometry": {"type": "Point", "coordinates": [9.6505586, 59.6721966]}}, {"type": "Feature", "properties": {"type": "node", "id": 3016297714, "tags": {"name": "Krekling", "railway": "stop", "railway:position": "85.76", "train": "yes"}}, "geometry": {"type": "Point", "coordinates": [9.7669533, 59.6693183]}}, {"type": "Feature", "properties": {"type": "node", "id": 2412119860, "tags": {"disused": "yes", "name": "Darbu", "operator": "Jenbaneverket", "public_transport": "stop_position", "railway": "stop", "railway:position": "81.61", "train": "yes"}}, "geometry": {"type": "Point", "coordinates": [9.8000048, 59.7016266]}}, {"type": "Feature", "properties": {"type": "node", "id": 3016297356, "tags": {"disused": "yes", "name": "Darbu", "operator": "Jenbaneverket", "public_transport": "stop_position", "railway": "stop", "railway:position": "81.61", "train": "yes"}}, "geometry": {"type": "Point", "coordinates": [9.7999527, 59.7016527]}}, {"type": "Feature", "properties": {"type": "node", "id": 5720557898, "tags": {"name": "Darbu", "official_name": "Darbu stasjon", "railway": "station", "railway:traffic_mode": "passenger", "start_date": "1871-11-10", "wheelchair": "yes", "wikidata": "Q2270756"}}, "geometry": {"type": "Point", "coordinates": [9.7999147, 59.7014181]}}, {"type": "Feature", "properties": {"type": "node", "id": 2412119882, "tags": {"name": "Vestfossen", "operator": "Jenbaneverket", "public_transport": "stop_position", "railway": "stop", "railway:position": "75.79", "train": "yes"}}, "geometry": {"type": "Point", "coordinates": [9.8671593, 59.734438]}}, {"type": "Feature", "properties": {"type": "node", "id": 3016298522, "tags": {"name": "Vestfossen", "operator": "Jenbaneverket", "public_transport": "stop_position", "railway": "stop", "railway:position": "75.79", "train": "yes"}}, "geometry": {"type": "Point", "coordinates": [9.8672429, 59.7344167]}}, {"type": "Feature", "properties": {"type": "node", "id": 5720559125, "tags": {"name": "Vestfossen", "official_name": "Vestfossen stasjon", "railway": "station", "railway:traffic_mode": "passenger", "start_date": "1871-11-10", "wikidata": "Q2376789"}}, "geometry": {"type": "Point", "coordinates": [9.8673454, 59.7343521]}}, {"type": "Feature", "properties": {"type": "node", "id": 2373597937, "tags": {"name": "Hokksund", "operator": "Jenbaneverket", "public_transport": "stop_position", "railway": "stop", "railway:position": "70.22", "ref": "624660002", "train": "yes"}}, "geometry": {"type": "Point", "coordinates": [9.9107704, 59.7670803]}}, {"type": "Feature", "properties": {"type": "node", "id": 3037272687, "tags": {"name": "Hokksund", "operator": "Jenbaneverket", "public_transport": "stop_position", "railway": "stop", "railway:position": "70.22", "ref": "624660002", "train": "yes"}}, "geometry": {"type": "Point", "coordinates": [9.9106364, 59.7670332]}}, {"type": "Feature", "properties": {"type": "node", "id": 3037280221, "tags": {"name": "Hokksund", "operator": "Jenbaneverket", "public_transport": "stop_position", "railway": "stop", "railway:position": "70.22", "ref": "624660002", "train": "yes"}}, "geometry": {"type": "Point", "coordinates": [9.9108353, 59.7671009]}}, {"type": "Feature", "properties": {"type": "node", "id": 4353513414, "tags": {"name": "Hokksund", "official_name": "Hokksund stasjon", "railway": "station", "railway:traffic_mode": "passenger", "start_date": "1866-11-15", "wikidata": "Q2378145"}}, "geometry": {"type": "Point", "coordinates": [9.9107409, 59.7672653]}}, {"type": "Feature", "properties": {"type": "node", "id": 5720557918, "tags": {"name": "Steinberg", "official_name": "Steinberg stasjon", "railway": "station", "railway:traffic_mode": "passenger", "start_date": "1906-12-15", "wikidata": "Q4566131"}}, "geometry": {"type": "Point", "coordinates": [9.96144, 59.7595237]}}, {"type": "Feature", "properties": {"type": "node", "id": 2412119874, "tags": {"disused": "yes", "name": "Mj\u00f8ndalen", "operator": "Bane NOR", "public_transport": "stop_position", "railway": "stop", "railway:position": "64.03", "train": "yes"}}, "geometry": {"type": "Point", "coordinates": [10.0114625, 59.7509402]}}, {"type": "Feature", "properties": {"type": "node", "id": 2412119878, "tags": {"name": "Mj\u00f8ndalen", "operator": "Bane NOR", "public_transport": "stop_position", "railway": "stop", "railway:position": "64.03", "train": "yes"}}, "geometry": {"type": "Point", "coordinates": [10.0115019, 59.7510181]}}, {"type": "Feature", "properties": {"type": "node", "id": 5720557912, "tags": {"name": "Mj\u00f8ndalen", "official_name": "Mj\u00f8ndalen stasjon", "railway": "station", "railway:traffic_mode": "passenger", "start_date": "1866-11-15", "wikidata": "Q3330637"}}, "geometry": {"type": "Point", "coordinates": [10.0108436, 59.7508637]}}, {"type": "Feature", "properties": {"type": "node", "id": 3039704282, "tags": {"name": "Steinberg", "operator": "Jenbaneverket", "public_transport": "stop_position", "railway": "stop", "railway:position": "67.0", "train": "yes"}}, "geometry": {"type": "Point", "coordinates": [9.9616874, 59.7594239]}}, {"type": "Feature", "properties": {"type": "node", "id": 3039708225, "tags": {"name": "Steinberg", "operator": "Jenbaneverket", "public_transport": "stop_position", "railway": "stop", "railway:position": "67.0", "train": "yes"}}, "geometry": {"type": "Point", "coordinates": [9.9616779, 59.759384]}}, {"type": "Feature", "properties": {"type": "node", "id": 5712251497, "tags": {"name": "Skotselv", "railway": "stop", "railway:position": "79.78", "train": "yes"}}, "geometry": {"type": "Point", "coordinates": [9.8959537, 59.8461599]}}, {"type": "Feature", "properties": {"type": "node", "id": 31375855, "tags": {"name": "\u00c5mot", "railway": "stop", "railway:position": "85.37", "train": "yes"}}, "geometry": {"type": "Point", "coordinates": [9.9134381, 59.8913386]}}, {"type": "Feature", "properties": {"type": "node", "id": 5712315758, "tags": {"name": "Sysle", "public_transport": "stop_position", "railway": "stop", "railway:position": "103.62", "train": "yes"}}, "geometry": {"type": "Point", "coordinates": [9.9164432, 59.994049]}}, {"type": "Feature", "properties": {"type": "node", "id": 5712315764, "tags": {"name": "Sysle", "public_transport": "stop_position", "railway": "stop", "railway:position": "103.62", "train": "yes"}}, "geometry": {"type": "Point", "coordinates": [9.9164528, 59.9940034]}}, {"type": "Feature", "properties": {"type": "node", "id": 31375286, "tags": {"name": "Geithus", "railway": "stop", "railway:position": "91.45", "train": "yes"}}, "geometry": {"type": "Point", "coordinates": [9.9698513, 59.9332301]}}, {"type": "Feature", "properties": {"type": "node", "id": 31375241, "tags": {"name": "Vikersund", "public_transport": "stop_position", "railway": "stop", "railway:position": "95.91", "train": "yes"}}, "geometry": {"type": "Point", "coordinates": [9.9982213, 59.9692886]}}, {"type": "Feature", "properties": {"type": "node", "id": 5526332084, "tags": {"name": "Vikersund", "official_name": "Vikersund stasjon", "railway": "station", "railway:traffic_mode": "passenger", "start_date": "1866-11-15", "wikidata": "Q7929420"}}, "geometry": {"type": "Point", "coordinates": [9.9982696, 59.969149]}}, {"type": "Feature", "properties": {"type": "node", "id": 5712251492, "tags": {"name": "Vikersund", "public_transport": "stop_position", "railway": "stop", "railway:position": "95.91", "train": "yes"}}, "geometry": {"type": "Point", "coordinates": [9.9981138, 59.9693127]}}, {"type": "Feature", "properties": {"type": "node", "id": 2824949856, "tags": {"name": "Sandefjord", "official_name": "Sandefjord stasjon", "operator": "Bane NOR", "railway": "station", "railway:traffic_mode": "passenger", "ref": "07065140", "route_ref": "R20", "start_date": "1881-12-07", "wheelchair": "limited", "wikidata": "Q4582035"}}, "geometry": {"type": "Point", "coordinates": [10.2228969, 59.1354204]}}, {"type": "Feature", "properties": {"type": "node", "id": 2824949857, "tags": {"name": "Sandefjord", "operator": "Jernbaneverket", "public_transport": "stop_position", "railway": "stop", "railway:position": "139.52", "train": "yes"}}, "geometry": {"type": "Point", "coordinates": [10.222854, 59.1353268]}}, {"type": "Feature", "properties": {"type": "node", "id": 2824949858, "tags": {"name": "Sandefjord", "operator": "Jernbaneverket", "public_transport": "stop_position", "railway": "stop", "railway:position": "139.52", "train": "yes"}}, "geometry": {"type": "Point", "coordinates": [10.2228659, 59.1353687]}}, {"type": "Feature", "properties": {"type": "node", "id": 2824949859, "tags": {"name": "Sandefjord", "operator": "Jernbaneverket", "public_transport": "stop_position", "railway": "stop", "railway:position": "139.52", "train": "yes"}}, "geometry": {"type": "Point", "coordinates": [10.2229104, 59.1354641]}}, {"type": "Feature", "properties": {"type": "node", "id": 2966426891, "tags": {"name": "Berg", "railway": "stop", "railway:position": "130.93", "train": "yes"}}, "geometry": {"type": "Point", "coordinates": [11.2915519, 59.1255622]}}, {"type": "Feature", "properties": {"type": "node", "id": 2961682270, "tags": {"name": "Kornsj\u00f8", "railway": "stop", "railway:position": "169.12", "railway:track_ref": "1", "ref:jernbaneverket": "KO", "ref:trafikverket": "Ko", "train": "yes"}}, "geometry": {"type": "Point", "coordinates": [11.6591912, 58.941297]}}, {"type": "Feature", "properties": {"type": "node", "id": 5720557883, "tags": {"name": "Halden", "official_name": "Halden stasjon", "railway": "station", "railway:traffic_mode": "mixed", "ref": "01015460", "ref:jernbaneverket": "HLD", "route_ref": "R01", "start_date": "1879-01-02", "wikidata": "Q1778979"}}, "geometry": {"type": "Point", "coordinates": [11.3833541, 59.1199744]}}, {"type": "Feature", "properties": {"type": "node", "id": 2408227285, "tags": {"name": "Halden", "operator": "Jernbaneverket", "public_transport": "stop_position", "railway": "stop", "railway:position": "136.64", "ref": "101546001", "train": "yes"}}, "geometry": {"type": "Point", "coordinates": [11.3838811, 59.1203168]}}, {"type": "Feature", "properties": {"type": "node", "id": 2408227286, "tags": {"name": "Halden", "operator": "Jernbaneverket", "public_transport": "stop_position", "railway": "stop", "railway:position": "136.64", "ref": "101546001", "train": "yes"}}, "geometry": {"type": "Point", "coordinates": [11.3838299, 59.1203777]}}, {"type": "Feature", "properties": {"type": "node", "id": 2408227287, "tags": {"name": "Halden", "operator": "Jernbaneverket", "public_transport": "stop_position", "railway": "stop", "railway:position": "136.64", "ref": "101546001", "train": "yes"}}, "geometry": {"type": "Point", "coordinates": [11.3839128, 59.1202789]}}, {"type": "Feature", "properties": {"type": "node", "id": 5709339834, "tags": {"name": "Aspedammen", "railway": "stop", "railway:position": "150.12", "train": "yes"}}, "geometry": {"type": "Point", "coordinates": [11.4831369, 59.0589665]}}, {"type": "Feature", "properties": {"type": "node", "id": 283062257, "tags": {"name": "Torp", "operator": "Jernbaneverket", "public_transport": "stop_position", "railway": "stop", "railway:position": "134.92", "train": "yes"}}, "geometry": {"type": "Point", "coordinates": [10.267176, 59.1662475]}}, {"type": "Feature", "properties": {"type": "node", "id": 2824949860, "tags": {"name": "Stokke", "operator": "Jernbaneverket", "public_transport": "stop_position", "railway": "stop", "railway:position": "128.24", "train": "yes"}}, "geometry": {"type": "Point", "coordinates": [10.300289, 59.2214193]}}, {"type": "Feature", "properties": {"type": "node", "id": 2824949861, "tags": {"name": "Stokke", "operator": "Jernbaneverket", "public_transport": "stop_position", "railway": "stop", "railway:position": "128.24", "train": "yes"}}, "geometry": {"type": "Point", "coordinates": [10.3002228, 59.2214615]}}, {"type": "Feature", "properties": {"type": "node", "id": 2824949862, "tags": {"name": "Stokke", "official_name": "Stokke stasjon", "operator": "Bane NOR", "railway": "station", "railway:traffic_mode": "passenger", "ref": "07205120", "route_ref": "R20", "start_date": "1881-12-07"}}, "geometry": {"type": "Point", "coordinates": [10.3001656, 59.2212464]}}, {"type": "Feature", "properties": {"type": "node", "id": 249593941, "tags": {"name": "Sem", "railway": "stop", "railway:position": "121.06", "train": "yes"}}, "geometry": {"type": "Point", "coordinates": [10.3332807, 59.2810485]}}, {"type": "Feature", "properties": {"type": "node", "id": 249591938, "tags": {"name": "T\u00f8nsberg", "operator": "Jernbaneverket", "public_transport": "stop_position", "railway": "stop", "railway:position": "113.9", "train": "yes"}}, "geometry": {"type": "Point", "coordinates": [10.409423, 59.2720987]}}, {"type": "Feature", "properties": {"type": "node", "id": 1242144312, "tags": {"name": "T\u00f8nsberg", "operator": "Jernbaneverket", "public_transport": "stop_position", "railway": "stop", "railway:position": "113.9", "train": "yes"}}, "geometry": {"type": "Point", "coordinates": [10.4094931, 59.2721214]}}, {"type": "Feature", "properties": {"type": "node", "id": 2811775854, "tags": {"name": "T\u00f8nsberg", "official_name": "T\u00f8nsberg stasjon", "railway": "station", "railway:traffic_mode": "passenger", "ref": "07045100", "route_ref": "R20", "start_date": "1915-10-01", "wheelchair": "yes"}}, "geometry": {"type": "Point", "coordinates": [10.4093157, 59.2720603]}}, {"type": "Feature", "properties": {"type": "node", "id": 2811775855, "tags": {"name": "T\u00f8nsberg", "operator": "Jernbaneverket", "public_transport": "stop_position", "train": "yes"}}, "geometry": {"type": "Point", "coordinates": [10.409202, 59.2725067]}}, {"type": "Feature", "properties": {"type": "node", "id": 1820624776, "tags": {"name": "Bark\u00e5ker", "railway": "stop", "railway:position": "109.69", "train": "yes"}}, "geometry": {"type": "Point", "coordinates": [10.3872116, 59.3072838]}}, {"type": "Feature", "properties": {"type": "node", "id": 1901215519, "tags": {"name": "Skoppum", "operator": "Jenbaneverket", "public_transport": "stop_position", "railway": "stop", "railway:position": "99.54", "train": "yes"}}, "geometry": {"type": "Point", "coordinates": [10.4108853, 59.391189]}}, {"type": "Feature", "properties": {"type": "node", "id": 1901229671, "tags": {"name": "Skoppum", "operator": "Jenbaneverket", "public_transport": "stop_position", "railway": "stop", "railway:position": "99.54", "train": "yes"}}, "geometry": {"type": "Point", "coordinates": [10.4109941, 59.3911877]}}, {"type": "Feature", "properties": {"type": "node", "id": 2802324063, "tags": {"name": "Skoppum", "official_name": "Skoppum stasjon", "railway": "station", "railway:traffic_mode": "passenger", "ref": "07015070", "route_ref": "R20", "start_date": "1881-12-07", "wikidata": "Q7536303"}}, "geometry": {"type": "Point", "coordinates": [10.4111458, 59.3914629]}}, {"type": "Feature", "properties": {"type": "node", "id": 4478970436, "tags": {"local_ref": "1", "name": "Holmestrand", "operator": "Bane NOR", "public_transport": "stop_position", "railway": "stop", "railway:position": "85.2", "train": "yes"}}, "geometry": {"type": "Point", "coordinates": [10.3107876, 59.4902827]}}, {"type": "Feature", "properties": {"type": "node", "id": 4478970437, "tags": {"local_ref": "4", "name": "Holmestrand", "operator": "Bane NOR", "public_transport": "stop_position", "railway": "stop", "railway:position": "85.2", "train": "yes"}}, "geometry": {"type": "Point", "coordinates": [10.3104746, 59.4901992]}}, {"type": "Feature", "properties": {"type": "node", "id": 5527685977, "tags": {"layer": "-1", "name": "Holmestrand", "official_name": "Holmestrand stasjon", "railway": "station", "railway:traffic_mode": "passenger", "start_date": "2016-11-28", "toilets": "yes", "wheelchair": "yes"}}, "geometry": {"type": "Point", "coordinates": [10.3107247, 59.4901464]}}, {"type": "Feature", "properties": {"type": "node", "id": 5709339839, "tags": {"name": "Haug", "railway": "stop", "railway:position": "74.01", "train": "yes"}}, "geometry": {"type": "Point", "coordinates": [10.8156614, 59.3536122]}}, {"type": "Feature", "properties": {"type": "node", "id": 2408227335, "tags": {"name": "R\u00e5de", "operator": "Jernbaneverket", "public_transport": "stop_position", "railway": "stop", "railway:position": "77.01", "ref": "135519002", "source": "aproximation", "train": "yes"}}, "geometry": {"type": "Point", "coordinates": [10.8652217, 59.3475913]}}, {"type": "Feature", "properties": {"type": "node", "id": 4889717460, "tags": {"name": "R\u00e5de", "operator": "Jernbaneverket", "public_transport": "stop_position", "railway": "stop", "railway:position": "77.01", "ref": "135519002", "train": "yes"}}, "geometry": {"type": "Point", "coordinates": [10.8651941, 59.3475476]}}, {"type": "Feature", "properties": {"type": "node", "id": 5720559124, "tags": {"name": "R\u00e5de", "official_name": "R\u00e5de stasjon", "railway": "station", "railway:traffic_mode": "passenger", "start_date": "1879-01-02", "wikidata": "Q1778903"}}, "geometry": {"type": "Point", "coordinates": [10.8654182, 59.3474237]}}, {"type": "Feature", "properties": {"type": "node", "id": 1336437223, "tags": {"name": "Dilling", "railway": "stop", "railway:position": "65.34", "train": "yes"}}, "geometry": {"type": "Point", "coordinates": [10.693636, 59.3981664]}}, {"type": "Feature", "properties": {"type": "node", "id": 31875974, "tags": {"name": "Moss", "operator": "Jernbaneverket", "public_transport": "stop_position", "railway": "stop", "railway:position": "60.16", "ref": "1", "train": "yes"}}, "geometry": {"type": "Point", "coordinates": [10.6570052, 59.4320332]}}, {"type": "Feature", "properties": {"type": "node", "id": 2372517014, "tags": {"name": "Moss", "operator": "Jernbaneverket", "public_transport": "stop_position", "railway": "stop", "railway:position": "60.16", "ref": "1", "train": "yes"}}, "geometry": {"type": "Point", "coordinates": [10.656791, 59.4319623]}}, {"type": "Feature", "properties": {"type": "node", "id": 2372517021, "tags": {"name": "Moss", "operator": "Jernbaneverket", "public_transport": "stop_position", "railway": "stop", "railway:position": "60.16", "ref": "1", "train": "yes"}}, "geometry": {"type": "Point", "coordinates": [10.6569318, 59.43201]}}, {"type": "Feature", "properties": {"type": "node", "id": 5720557915, "tags": {"name": "Moss", "official_name": "Moss stasjon", "railway": "station", "railway:traffic_mode": "mixed", "ref": "01045160", "route_ref": "R01", "start_date": "1879-01-02", "wikidata": "Q1777558"}}, "geometry": {"type": "Point", "coordinates": [10.657146, 59.4321381]}}, {"type": "Feature", "properties": {"type": "node", "id": 306215792, "tags": {"name": "Kambo", "official_name": "Kambo stasjon", "railway": "station", "railway:traffic_mode": "passenger", "start_date": "1898-10-01", "wikidata": "Q1777930"}}, "geometry": {"type": "Point", "coordinates": [10.692305, 59.4776277]}}, {"type": "Feature", "properties": {"type": "node", "id": 2372517008, "tags": {"name": "Kambo", "operator": "Jernbaneverket", "public_transport": "stop_position", "railway": "stop", "railway:position": "53.5", "ref": "104020002", "train": "yes"}}, "geometry": {"type": "Point", "coordinates": [10.6925812, 59.4777851]}}, {"type": "Feature", "properties": {"type": "node", "id": 2372517011, "tags": {"name": "Kambo", "operator": "Jernbaneverket", "public_transport": "stop_position", "railway": "stop", "railway:position": "53.5", "ref": "104020001", "train": "yes"}}, "geometry": {"type": "Point", "coordinates": [10.6923264, 59.4778318]}}, {"type": "Feature", "properties": {"type": "node", "id": 2408227289, "tags": {"name": "Rygge", "operator": "Jernbaneverket", "public_transport": "stop_position", "railway": "stop", "railway:position": "69.28", "ref": "136518001", "train": "yes"}}, "geometry": {"type": "Point", "coordinates": [10.7483307, 59.3776452]}}, {"type": "Feature", "properties": {"type": "node", "id": 2408227290, "tags": {"name": "Rygge", "official_name": "Rygge stasjon", "railway": "station", "railway:traffic_mode": "passenger", "start_date": "1879-01-02", "wheelchair": "limited", "wikidata": "Q1778999"}}, "geometry": {"type": "Point", "coordinates": [10.7480223, 59.3779677]}}, {"type": "Feature", "properties": {"type": "node", "id": 2408227291, "tags": {"name": "Rygge", "operator": "Jernbaneverket", "public_transport": "stop_position", "railway": "stop", "railway:position": "69.28", "ref": "136518002", "train": "yes"}}, "geometry": {"type": "Point", "coordinates": [10.7483875, 59.3776837]}}, {"type": "Feature", "properties": {"type": "node", "id": 2372517025, "tags": {"name": "Sonsveien", "operator": "Jernbaneverket", "public_transport": "stop_position", "railway": "stop", "railway:position": "48.874", "ref": "211030001", "train": "yes"}}, "geometry": {"type": "Point", "coordinates": [10.7258955, 59.5155079]}}, {"type": "Feature", "properties": {"type": "node", "id": 2372517028, "tags": {"name": "Sonsveien", "operator": "Jernbaneverket", "public_transport": "stop_position", "railway": "stop", "railway:position": "48.874", "ref": "211030001", "train": "yes"}}, "geometry": {"type": "Point", "coordinates": [10.7256241, 59.5155427]}}, {"type": "Feature", "properties": {"type": "node", "id": 2793357893, "tags": {"name": "Sande", "operator": "Jenbaneverket", "public_transport": "stop_position", "railway": "stop", "railway:position": "72.86", "train": "yes"}}, "geometry": {"type": "Point", "coordinates": [10.2041966, 59.586044]}}, {"type": "Feature", "properties": {"type": "node", "id": 2793357894, "tags": {"name": "Sande", "operator": "Jenbaneverket", "public_transport": "stop_position", "railway": "stop", "railway:position": "72.86", "train": "yes"}}, "geometry": {"type": "Point", "coordinates": [10.2043739, 59.5860691]}}, {"type": "Feature", "properties": {"type": "node", "id": 31376071, "tags": {"name": "Daler", "railway": "stop", "railway:position": "59.89", "train": "yes"}}, "geometry": {"type": "Point", "coordinates": [10.0797016, 59.7481081]}}, {"type": "Feature", "properties": {"type": "node", "id": 31376090, "tags": {"name": "Gulskogen", "operator": "Jenbaneverket", "public_transport": "stop_position", "railway": "stop", "railway:position": "55.36", "train": "yes"}}, "geometry": {"type": "Point", "coordinates": [10.1594235, 59.7438575]}}, {"type": "Feature", "properties": {"type": "node", "id": 2411364303, "tags": {"name": "Gulskogen", "operator": "Jenbaneverket", "public_transport": "stop_position", "railway": "stop", "railway:position": "55.36", "train": "yes"}}, "geometry": {"type": "Point", "coordinates": [10.1594002, 59.7437075]}}, {"type": "Feature", "properties": {"type": "node", "id": 2411364308, "tags": {"name": "Gulskogen", "operator": "Jenbaneverket", "public_transport": "stop_position", "railway": "stop", "railway:position": "55.36", "train": "yes"}}, "geometry": {"type": "Point", "coordinates": [10.1594227, 59.7438206]}}, {"type": "Feature", "properties": {"type": "node", "id": 4353505986, "tags": {"name": "Gulskogen", "official_name": "Gulskogen stasjon", "railway": "station", "railway:traffic_mode": "passenger", "start_date": "1868-01-27", "wikidata": "Q3330648"}}, "geometry": {"type": "Point", "coordinates": [10.1607895, 59.7438429]}}, {"type": "Feature", "properties": {"type": "node", "id": 31376093, "tags": {"name": "Sundland", "railway": "stop", "train": "yes"}}, "geometry": {"type": "Point", "coordinates": [10.1763387, 59.7428826]}}, {"type": "Feature", "properties": {"type": "node", "id": 4352888893, "tags": {"name": "Drammen", "official_name": "Drammen stasjon", "public_transport": "station", "railway": "station", "railway:traffic_mode": "mixed", "start_date": "1866-11-15"}}, "geometry": {"type": "Point", "coordinates": [10.203823, 59.7401567]}}, {"type": "Feature", "properties": {"type": "node", "id": 2409857408, "tags": {"name": "Drammen", "operator": "Bane NOR", "public_transport": "stop_position", "railway": "stop", "railway:position": "52.73", "ref": "602100001", "train": "yes"}}, "geometry": {"type": "Point", "coordinates": [10.2052473, 59.7398918]}}, {"type": "Feature", "properties": {"type": "node", "id": 2409857412, "tags": {"name": "Drammen", "operator": "Bane NOR", "public_transport": "stop_position", "railway": "stop", "railway:position": "52.73", "ref": "602100002", "train": "yes"}}, "geometry": {"type": "Point", "coordinates": [10.2052957, 59.7399242]}}, {"type": "Feature", "properties": {"type": "node", "id": 2409857416, "tags": {"name": "Drammen", "operator": "Bane NOR", "public_transport": "stop_position", "railway": "stop", "railway:position": "52.73", "ref": "602100003", "train": "yes"}}, "geometry": {"type": "Point", "coordinates": [10.205407, 59.7400228]}}, {"type": "Feature", "properties": {"type": "node", "id": 2409857420, "tags": {"name": "Drammen", "operator": "Bane NOR", "public_transport": "stop_position", "railway": "stop", "railway:position": "52.73", "ref": "602100004", "train": "yes"}}, "geometry": {"type": "Point", "coordinates": [10.2054604, 59.7400578]}}, {"type": "Feature", "properties": {"type": "node", "id": 2409857425, "tags": {"name": "Drammen", "operator": "Bane NOR", "public_transport": "stop_position", "railway": "stop", "railway:position": "52.73", "ref": "602100005", "train": "yes"}}, "geometry": {"type": "Point", "coordinates": [10.2056058, 59.7401472]}}, {"type": "Feature", "properties": {"type": "node", "id": 31376137, "tags": {"name": "Braker\u00f8ya", "operator": "Jenbaneverket", "public_transport": "stop_position", "railway": "stop", "railway:position": "50.76", "ref": "602902002", "train": "yes"}}, "geometry": {"type": "Point", "coordinates": [10.2329139, 59.7436852]}}, {"type": "Feature", "properties": {"type": "node", "id": 1477789875, "tags": {"name": "Braker\u00f8ya", "operator": "Jenbaneverket", "public_transport": "stop_position", "railway": "stop", "railway:position": "50.76", "ref": "602902001", "train": "yes"}}, "geometry": {"type": "Point", "coordinates": [10.2327844, 59.7437651]}}, {"type": "Feature", "properties": {"type": "node", "id": 2409857393, "tags": {"alt_name": "Braker\u00f8ya stasjon", "name": "Braker\u00f8ya", "official_name": "Braker\u00f8ya stasjon", "operator": "Bane NOR", "railway": "station", "railway:traffic_mode": "passenger", "ref": "06029020", "route_ref": "400;440;450", "ssr:stedsnr": "367311", "start_date": "1873-01-01", "wikidata": "Q2038007"}}, "geometry": {"type": "Point", "coordinates": [10.2328155, 59.7437025]}}, {"type": "Feature", "properties": {"type": "node", "id": 1470837129, "tags": {"name": "Lier", "operator": "Jenbaneverket", "public_transport": "stop_position", "railway": "stop", "railway:position": "46.84", "ref": "626417001", "train": "yes"}}, "geometry": {"type": "Point", "coordinates": [10.290449, 59.7634552]}}, {"type": "Feature", "properties": {"type": "node", "id": 2409183981, "tags": {"name": "Lier", "operator": "Jenbaneverket", "public_transport": "stop_position", "railway": "stop", "railway:position": "46.84", "ref": "626417001", "train": "yes"}}, "geometry": {"type": "Point", "coordinates": [10.2904078, 59.7634896]}}, {"type": "Feature", "properties": {"type": "node", "id": 2015100974, "tags": {"name": "Spikkestad", "public_transport": "stop_position", "railway": "stop", "railway:position": "37.42", "train": "yes"}}, "geometry": {"type": "Point", "coordinates": [10.3421473, 59.745302]}}, {"type": "Feature", "properties": {"type": "node", "id": 2015100978, "tags": {"name": "Spikkestad", "public_transport": "stop_position", "railway": "stop", "railway:position": "37.42", "train": "yes"}}, "geometry": {"type": "Point", "coordinates": [10.3421704, 59.7453442]}}, {"type": "Feature", "properties": {"type": "node", "id": 2015100982, "tags": {"name": "Spikkestad", "official_name": "Spikkestad stasjon", "railway": "station", "railway:traffic_mode": "passenger", "ref": "06274360", "route_ref": "550", "ssr:stedsnr": "427380", "start_date": "1885-02-03"}}, "geometry": {"type": "Point", "coordinates": [10.3431444, 59.7450395]}}, {"type": "Feature", "properties": {"type": "node", "id": 1473398098, "tags": {"name": "R\u00f8yken", "public_transport": "stop_position", "railway": "stop", "railway:position": "34.45", "ref": "627434001", "train": "yes"}}, "geometry": {"type": "Point", "coordinates": [10.3896865, 59.746766]}}, {"type": "Feature", "properties": {"type": "node", "id": 35219524, "tags": {"name": "Heggedal", "official_name": "Heggedal stasjon", "railway": "station", "railway:traffic_mode": "passenger", "ref": "02200800", "route_ref": "550", "start_date": "1874-03-02"}},