{"type": "FeatureCollection", "features": [{"type": "Feature", "properties": {"type": "node", "id": 21759723, "tags": {"covered": "yes", "fare_area": "A", "name": "Pir\u00e1mides", "operator": "Metro de Madrid", "public_transport": "stop_position", "railway": "stop", "train": "yes", "wheelchair": "yes", "wikidata": "Q2056493", "wikipedia": "es:Estaci\u00f3n de Pir\u00e1mides"}}, "geometry": {"type": "Point", "coordinates": [-3.7110335, 40.4026876]}}, {"type": "Feature", "properties": {"type": "node", "id": 26080642, "tags": {"name": "Pr\u00edncipe P\u00edo V\u00eda 1", "public_transport": "stop_position", "railway": "stop", "train": "yes", "wheelchair": "limited"}}, "geometry": {"type": "Point", "coordinates": [-3.7192919, 40.4215236]}}, {"type": "Feature", "properties": {"type": "node", "id": 26212732, "tags": {"name": "Villafranca de Navarra", "public_transport": "station", "railway": "station", "wikidata": "Q5552479"}}, "geometry": {"type": "Point", "coordinates": [-1.745439, 42.2807416]}}, {"type": "Feature", "properties": {"type": "node", "id": 26230611, "tags": {"name": "Castej\u00f3n de Ebro", "public_transport": "platform", "railway": "station", "train": "yes", "wikidata": "Q4464156"}}, "geometry": {"type": "Point", "coordinates": [-1.6924387, 42.1728682]}}, {"type": "Feature", "properties": {"type": "node", "id": 26377011, "tags": {"name": "Tudela de Navarra", "public_transport": "platform", "railway": "station", "train": "yes", "wikidata": "Q4464174"}}, "geometry": {"type": "Point", "coordinates": [-1.5978023, 42.0594555]}}, {"type": "Feature", "properties": {"type": "node", "id": 26377358, "tags": {"name": "Ribaforada", "public_transport": "station", "railway": "station", "wikidata": "Q4464130"}}, "geometry": {"type": "Point", "coordinates": [-1.5154793, 41.9970724]}}, {"type": "Feature", "properties": {"type": "node", "id": 26377361, "tags": {"name": "Bu\u00f1uel", "railway": "station"}}, "geometry": {"type": "Point", "coordinates": [-1.4873386, 41.9716307]}}, {"type": "Feature", "properties": {"type": "node", "id": 26377368, "tags": {"name": "Gallur", "public_transport": "station", "railway": "station", "wikidata": "Q5846278"}}, "geometry": {"type": "Point", "coordinates": [-1.3211682, 41.8669337]}}, {"type": "Feature", "properties": {"type": "node", "id": 26377463, "tags": {"name": "Gris\u00e9n", "public_transport": "stop_position", "train": "yes"}}, "geometry": {"type": "Point", "coordinates": [-1.1657098, 41.7454945]}}, {"type": "Feature", "properties": {"type": "node", "id": 26380805, "tags": {"name": "Calatayud", "name:ar": "\u0642\u0644\u0639\u0629 \u0623\u064a\u0648\u0628", "public_transport": "stop_position", "train": "yes"}}, "geometry": {"type": "Point", "coordinates": [-1.6385093, 41.3463512]}}, {"type": "Feature", "properties": {"type": "node", "id": 26382278, "tags": {"name": "Guadalajara/Yebes", "railway": "station", "wikidata": "Q3322272"}}, "geometry": {"type": "Point", "coordinates": [-3.1259845, 40.586533]}}, {"type": "Feature", "properties": {"type": "node", "id": 26579034, "tags": {"public_transport": "station", "railway": "station", "train": "yes"}}, "geometry": {"type": "Point", "coordinates": [-3.723702, 40.4378954]}}, {"type": "Feature", "properties": {"type": "node", "id": 26837751, "tags": {"name": "Etxarri-Aranatz", "public_transport": "station", "railway": "station", "wikidata": "Q4464191"}}, "geometry": {"type": "Point", "coordinates": [-2.0717275, 42.9109612]}}, {"type": "Feature", "properties": {"type": "node", "id": 28634304, "tags": {"name": "La Calzada", "operator": "Renfe", "public_transport": "stop_position", "railway": "stop", "train": "yes"}}, "geometry": {"type": "Point", "coordinates": [-5.6977884, 43.5352895]}}, {"type": "Feature", "properties": {"type": "node", "id": 28976097, "tags": {"name": "Ser\u00edn", "network": "Renfe", "operator": "Adif", "public_transport": "stop_position", "railway": "stop", "train": "yes"}}, "geometry": {"type": "Point", "coordinates": [-5.7821053, 43.5049595]}}, {"type": "Feature", "properties": {"type": "node", "id": 28976117, "tags": {"name": "Villabona Tabladiello", "public_transport": "stop_position", "railway": "halt", "train": "yes", "wikidata": "Q5847458"}}, "geometry": {"type": "Point", "coordinates": [-5.7999775, 43.4742465]}}, {"type": "Feature", "properties": {"type": "node", "id": 28976214, "tags": {"name": "Centro de Transportes", "public_transport": "stop_position", "railway": "halt", "train": "yes", "wikidata": "Q17993657"}}, "geometry": {"type": "Point", "coordinates": [-5.7067193, 43.5310985]}}, {"type": "Feature", "properties": {"type": "node", "id": 28976223, "tags": {"name": "Trema\u00f1es", "public_transport": "stop_position", "railway": "station", "train": "yes", "wikidata": "Q18286515"}}, "geometry": {"type": "Point", "coordinates": [-5.6948056, 43.5285399]}}, {"type": "Feature", "properties": {"type": "node", "id": 28976520, "tags": {"name": "Veri\u00f1a", "public_transport": "stop_position", "railway": "station", "train": "yes", "wikidata": "Q18286712"}}, "geometry": {"type": "Point", "coordinates": [-5.7222994, 43.5417855]}}, {"type": "Feature", "properties": {"type": "node", "id": 29412491, "tags": {"name": "Pola de Siero", "public_transport": "stop_position", "railway": "stop", "train": "yes", "wikidata": "Q18224711"}}, "geometry": {"type": "Point", "coordinates": [-5.6648461, 43.3880005]}}, {"type": "Feature", "properties": {"type": "node", "id": 29468717, "tags": {"name": "Villabona de Asturias", "public_transport": "stop_position", "railway": "stop", "train": "yes"}}, "geometry": {"type": "Point", "coordinates": [-5.8260476, 43.4612845]}}, {"type": "Feature", "properties": {"type": "node", "id": 29545406, "tags": {"name": "Sotiello", "operator": "FEVE", "public_transport": "stop_position", "railway": "station", "train": "yes"}}, "geometry": {"type": "Point", "coordinates": [-5.7263894, 43.5074576]}}, {"type": "Feature", "properties": {"type": "node", "id": 29567894, "tags": {"name": "Pamplona/Iru\u00f1a", "public_transport": "stop_position", "railway": "stop", "train": "yes"}}, "geometry": {"type": "Point", "coordinates": [-1.6615896, 42.8252052]}}, {"type": "Feature", "properties": {"type": "node", "id": 29568804, "tags": {"name": "Vitoria-Gasteiz", "public_transport": "station", "railway": "station", "station": "train", "wikidata": "Q3381144", "wikipedia": "es:Estaci\u00f3n de Vitoria"}}, "geometry": {"type": "Point", "coordinates": [-2.672697, 42.841303]}}, {"type": "Feature", "properties": {"type": "node", "id": 29569217, "tags": {"name": "Manzanos", "public_transport": "stop_position", "train": "yes"}}, "geometry": {"type": "Point", "coordinates": [-2.8677056, 42.7424154]}}, {"type": "Feature", "properties": {"type": "node", "id": 29569297, "tags": {"name": "Miranda de Ebro", "public_transport": "stop_position", "train": "yes"}}, "geometry": {"type": "Point", "coordinates": [-2.9412527, 42.691002]}}, {"type": "Feature", "properties": {"type": "node", "id": 29582117, "tags": {"name": "Quintanapalla", "public_transport": "station", "railway": "station"}}, "geometry": {"type": "Point", "coordinates": [-3.5396013, 42.400513]}}, {"type": "Feature", "properties": {"type": "node", "id": 29651733, "tags": {"name": "Grajal de Campos", "railway": "station", "source": "ITACyL", "source:date": "2009"}}, "geometry": {"type": "Point", "coordinates": [-5.0132161, 42.3232264]}}, {"type": "Feature", "properties": {"type": "node", "id": 29680195, "tags": {"railway": "stop"}}, "geometry": {"type": "Point", "coordinates": [-5.5825361, 42.5958484]}}, {"type": "Feature", "properties": {"type": "node", "id": 29706809, "tags": {"name": "Bra\u00f1uelas", "public_transport": "stop_position", "railway": "stop", "train": "yes"}}, "geometry": {"type": "Point", "coordinates": [-6.2010244, 42.6327245]}}, {"type": "Feature", "properties": {"type": "node", "id": 29757530, "tags": {"name": "O Burgo-Santiago", "name:gl": "O Burgo-Santiago", "public_transport": "stop_position", "railway": "stop", "train": "yes"}}, "geometry": {"type": "Point", "coordinates": [-8.3686348, 43.3179425]}}, {"type": "Feature", "properties": {"type": "node", "id": 29784692, "tags": {"name": "Betanzos-Infesta", "public_transport": "stop_position", "railway": "station", "train": "yes"}}, "geometry": {"type": "Point", "coordinates": [-8.2259993, 43.2708376]}}, {"type": "Feature", "properties": {"type": "node", "id": 29798284, "tags": {"name": "Pinzales", "operator": "FEVE", "public_transport": "stop_position", "railway": "station", "train": "yes", "wikidata": "Q18224621"}}, "geometry": {"type": "Point", "coordinates": [-5.7195996, 43.4865282]}}, {"type": "Feature", "properties": {"type": "node", "id": 29809208, "tags": {"name": "Curtis", "public_transport": "stop_position", "railway": "station", "train": "yes", "wikidata": "Q11681644"}}, "geometry": {"type": "Point", "coordinates": [-8.1432221, 43.1272797]}}, {"type": "Feature", "properties": {"type": "node", "id": 29818312, "tags": {"name": "Lugo", "name:ar": "\u0644\u0648\u063a\u0648", "public_transport": "stop_position", "railway": "stop", "train": "yes", "uic_ref": "7100186"}}, "geometry": {"type": "Point", "coordinates": [-7.5523386, 43.0153618]}}, {"type": "Feature", "properties": {"type": "node", "id": 29818831, "tags": {"name": "Sarria", "public_transport": "stop_position", "railway": "stop", "train": "yes"}}, "geometry": {"type": "Point", "coordinates": [-7.4190137, 42.7841956]}}, {"type": "Feature", "properties": {"type": "node", "id": 29888603, "tags": {"name": "Lieres", "public_transport": "stop_position", "railway": "station", "train": "yes"}}, "geometry": {"type": "Point", "coordinates": [-5.5826749, 43.3805115]}}, {"type": "Feature", "properties": {"type": "node", "id": 30058139, "tags": {"name": "La Corredoria RENFE", "operator": "RENFE", "public_transport": "stop_position", "railway": "stop", "train": "yes", "wheelchair": "yes"}}, "geometry": {"type": "Point", "coordinates": [-5.8272326, 43.3882342]}}, {"type": "Feature", "properties": {"type": "node", "id": 30232988, "tags": {"name": "Valdesoto", "public_transport": "stop_position", "railway": "stop", "train": "yes"}}, "geometry": {"type": "Point", "coordinates": [-5.6584167, 43.3584401]}}, {"type": "Feature", "properties": {"type": "node", "id": 30233579, "tags": {"bench": "yes", "name": "La Aguda", "public_transport": "stop_position", "railway": "halt", "shelter": "yes", "train": "yes", "wikidata": "Q18221030"}}, "geometry": {"type": "Point", "coordinates": [-5.7259596, 43.4659462]}}, {"type": "Feature", "properties": {"type": "node", "id": 30233586, "tags": {"bench": "yes", "name": "Puente Buracos", "public_transport": "stop_position", "railway": "halt", "train": "yes", "wikidata": "Q18224741"}}, "geometry": {"type": "Point", "coordinates": [-5.717317, 43.448053]}}, {"type": "Feature", "properties": {"type": "node", "id": 30233590, "tags": {"name": "La Florida", "public_transport": "stop_position", "train": "yes", "wikidata": "Q18223886", "wikipedia": "es:Estaci\u00f3n de La Florida"}}, "geometry": {"type": "Point", "coordinates": [-5.7101137, 43.4348016]}}, {"type": "Feature", "properties": {"type": "node", "id": 30233600, "tags": {"name": "Nore\u00f1a", "public_transport": "stop_position", "railway": "stop", "train": "yes"}}, "geometry": {"type": "Point", "coordinates": [-5.703425, 43.3939806]}}, {"type": "Feature", "properties": {"type": "node", "id": 30346102, "tags": {"name": "Villalegre", "public_transport": "stop_position", "train": "yes"}}, "geometry": {"type": "Point", "coordinates": [-5.9020768, 43.5403066]}}, {"type": "Feature", "properties": {"type": "node", "id": 30346118, "tags": {"name": "Los Campos", "public_transport": "stop_position", "railway": "station", "train": "yes", "wikidata": "Q5701161"}}, "geometry": {"type": "Point", "coordinates": [-5.8853569, 43.5370422]}}, {"type": "Feature", "properties": {"type": "node", "id": 30346132, "tags": {"name": "Nubledo", "public_transport": "stop_position", "railway": "station", "train": "yes", "type": "RENFE", "wikidata": "Q5701169"}}, "geometry": {"type": "Point", "coordinates": [-5.8699476, 43.5234407]}}, {"type": "Feature", "properties": {"type": "node", "id": 30346147, "tags": {"name": "Cancienes", "public_transport": "stop_position", "railway": "station", "train": "yes", "wikidata": "Q5701153"}}, "geometry": {"type": "Point", "coordinates": [-5.8693639, 43.5072655]}}, {"type": "Feature", "properties": {"type": "node", "id": 30346207, "tags": {"name": "Ferro\u00f1es", "public_transport": "stop_position", "railway": "station", "train": "yes", "wikidata": "Q5701157"}}, "geometry": {"type": "Point", "coordinates": [-5.8614792, 43.4760582]}}, {"type": "Feature", "properties": {"type": "node", "id": 30502414, "tags": {"name": "Fonciello-Ti\u00f1ana (FEVE)", "public_transport": "stop_position", "railway": "station", "train": "yes", "wikidata": "Q18223245"}}, "geometry": {"type": "Point", "coordinates": [-5.7298196, 43.3817536]}}, {"type": "Feature", "properties": {"type": "node", "id": 30502426, "tags": {"name": "La Carrera (FEVE)", "public_transport": "stop_position", "railway": "halt", "train": "yes", "wikidata": "Q18223868"}}, "geometry": {"type": "Point", "coordinates": [-5.6752615, 43.3869366]}}, {"type": "Feature", "properties": {"type": "node", "id": 30502600, "tags": {"name": "Llames", "public_transport": "stop_position", "railway": "halt", "train": "yes", "wikidata": "Q18224030"}}, "geometry": {"type": "Point", "coordinates": [-5.5252464, 43.3688007]}}, {"type": "Feature", "properties": {"type": "node", "id": 30502637, "tags": {"name": "Nava", "public_transport": "stop_position", "railway": "station", "train": "yes"}}, "geometry": {"type": "Point", "coordinates": [-5.5089696, 43.3611921]}}, {"type": "Feature", "properties": {"type": "node", "id": 30502738, "tags": {"name": "Fuensanta", "public_transport": "stop_position", "railway": "halt", "train": "yes", "wikidata": "Q18596134"}}, "geometry": {"type": "Point", "coordinates": [-5.4785332, 43.3556243]}}, {"type": "Feature", "properties": {"type": "node", "id": 30502772, "tags": {"name": "Ceceda (FEVE)", "public_transport": "stop_position", "railway": "station", "train": "yes", "wikidata": "Q18596136"}}, "geometry": {"type": "Point", "coordinates": [-5.4511084, 43.3561454]}}, {"type": "Feature", "properties": {"type": "node", "id": 30502805, "tags": {"name": "Carancos (FEVE)", "public_transport": "stop_position", "railway": "station", "train": "yes", "wikidata": "Q18596137"}}, "geometry": {"type": "Point", "coordinates": [-5.4345545, 43.3553499]}}, {"type": "Feature", "properties": {"type": "node", "id": 30502874, "tags": {"name": "Pintueles", "public_transport": "stop_position", "railway": "halt", "train": "yes", "wikidata": "Q18596138"}}, "geometry": {"type": "Point", "coordinates": [-5.3841567, 43.3598758]}}, {"type": "Feature", "properties": {"type": "node", "id": 30502980, "tags": {"name": "Infiesto (FEVE)", "public_transport": "stop_position", "railway": "station", "train": "yes"}}, "geometry": {"type": "Point", "coordinates": [-5.3691815, 43.3518565]}}, {"type": "Feature", "properties": {"type": "node", "id": 30502983, "tags": {"name": "El Remedio", "public_transport": "stop_position", "railway": "halt", "train": "yes", "wikidata": "Q18223002"}}, "geometry": {"type": "Point", "coordinates": [-5.5462411, 43.3750267]}}, {"type": "Feature", "properties": {"type": "node", "id": 30511023, "tags": {"name": "Xix\u00fan", "public_transport": "stop_position", "railway": "stop", "train": "yes"}}, "geometry": {"type": "Point", "coordinates": [-5.6936227, 43.3712688]}}, {"type": "Feature", "properties": {"type": "node", "id": 30511030, "tags": {"name": "Carbayin Bajo", "public_transport": "stop_position", "train": "yes"}}, "geometry": {"type": "Point", "coordinates": [-5.6344577, 43.3509586]}}, {"type": "Feature", "properties": {"type": "node", "id": 30511197, "tags": {"name": "San Mart\u00edn", "public_transport": "stop_position", "railway": "station", "train": "yes", "wikidata": "Q18224898"}}, "geometry": {"type": "Point", "coordinates": [-5.6153125, 43.2782989]}}, {"type": "Feature", "properties": {"type": "node", "id": 30511235, "tags": {"name": "Barredos", "public_transport": "stop_position", "railway": "halt", "train": "yes", "wikidata": "Q18221319"}}, "geometry": {"type": "Point", "coordinates": [-5.5750031, 43.2598538]}}, {"type": "Feature", "properties": {"type": "node", "id": 30511260, "tags": {"name": "Sotrondio", "public_transport": "stop_position", "railway": "station", "train": "yes", "wikidata": "Q18225012"}}, "geometry": {"type": "Point", "coordinates": [-5.6048833, 43.276024]}}, {"type": "Feature", "properties": {"type": "node", "id": 30511268, "tags": {"name": "La Felguera", "public_transport": "stop_position", "train": "yes", "wikidata": "Q18223884"}}, "geometry": {"type": "Point", "coordinates": [-5.6855421, 43.3102533]}}, {"type": "Feature", "properties": {"type": "node", "id": 30515684, "tags": {"name": "Veri\u00f1a", "public_transport": "stop_position", "railway": "station", "train": "yes", "wikidata": "Q5847441"}}, "geometry": {"type": "Point", "coordinates": [-5.7231448, 43.5417808]}}, {"type": "Feature", "properties": {"type": "node", "id": 30515735, "tags": {"name": "Abo\u00f1o", "public_transport": "stop_position", "railway": "station", "train": "yes", "wikidata": "Q17993278"}}, "geometry": {"type": "Point", "coordinates": [-5.723508, 43.5550533]}}, {"type": "Feature", "properties": {"type": "node", "id": 30516064, "tags": {"name": "San Zaborn\u00edn", "public_transport": "stop_position", "railway": "halt", "train": "yes", "wikidata": "Q17563113"}}, "geometry": {"type": "Point", "coordinates": [-5.8252567, 43.5688834]}}, {"type": "Feature", "properties": {"type": "node", "id": 30516089, "tags": {"name": "Laminaci\u00f3n-Gudin", "operator": "ADIF", "public_transport": "stop_position", "railway": "halt", "source": "ADIF", "source:url": "http://www.iderail.es/2012/02/06/posicion-de-las-estaciones-de-feve-ii/", "train": "yes", "wikidata": "Q17563230"}}, "geometry": {"type": "Point", "coordinates": [-5.8653784, 43.5523163]}}, {"type": "Feature", "properties": {"type": "node", "id": 30516134, "tags": {"name": "Llaranes", "public_transport": "stop_position", "railway": "halt", "train": "yes", "wikidata": "Q17563240"}}, "geometry": {"type": "Point", "coordinates": [-5.8965582, 43.5542804]}}, {"type": "Feature", "properties": {"type": "node", "id": 30516196, "tags": {"name": "Raices", "public_transport": "stop_position", "railway": "halt", "train": "yes", "wikidata": "Q17563548"}}, "geometry": {"type": "Point", "coordinates": [-5.9398839, 43.5763683]}}, {"type": "Feature", "properties": {"type": "node", "id": 30516348, "tags": {"name": "Vegarrozadas", "public_transport": "stop_position", "railway": "halt", "train": "yes", "wikidata": "Q17563552"}}, "geometry": {"type": "Point", "coordinates": [-5.9954499, 43.5511441]}}, {"type": "Feature", "properties": {"type": "node", "id": 30516601, "tags": {"name": "Pravia", "public_transport": "stop_position", "railway": "stop", "train": "yes"}}, "geometry": {"type": "Point", "coordinates": [-6.1106848, 43.4912439]}}, {"type": "Feature", "properties": {"type": "node", "id": 30546829, "tags": {"alt_name": "Xibares", "name": "Xivares", "public_transport": "stop_position", "railway": "station", "source": "BOPA", "source:file": "http://www.asturias.es/Asturias/descargas/toponimia/CARRENO.pdf", "train": "yes", "wikidata": "Q18286794"}}, "geometry": {"type": "Point", "coordinates": [-5.7288343, 43.565796]}}, {"type": "Feature", "properties": {"type": "node", "id": 30546830, "tags": {"name": "Perlora", "public_transport": "stop_position", "railway": "station", "train": "yes", "wikidata": "Q17996474"}}, "geometry": {"type": "Point", "coordinates": [-5.7540685, 43.5809215]}}, {"type": "Feature", "properties": {"type": "node", "id": 30546831, "tags": {"name": "Cand\u00e1s Apeadero", "network": "FEVE", "operator": "RENFE", "public_transport": "stop_position", "railway": "station", "train": "yes", "wikidata": "Q17993571"}}, "geometry": {"type": "Point", "coordinates": [-5.7680163, 43.586452]}}, {"type": "Feature", "properties": {"type": "node", "id": 30546832, "tags": {"ele": "31", "name": "Cand\u00e1s", "public_transport": "stop_position", "railway": "station", "train": "yes", "wikidata": "Q17563103"}}, "geometry": {"type": "Point", "coordinates": [-5.7725691, 43.5845944]}}, {"type": "Feature", "properties": {"type": "node", "id": 30546833, "tags": {"name": "Regueral", "public_transport": "stop_position", "railway": "halt", "train": "yes", "wikidata": "Q17563111"}}, "geometry": {"type": "Point", "coordinates": [-5.7977383, 43.5803936]}}, {"type": "Feature", "properties": {"type": "node", "id": 30546834, "tags": {"name": "Tresona", "name:es": "Trasona", "public_transport": "stop_position", "railway": "station", "train": "yes", "wikidata": "Q17563238"}}, "geometry": {"type": "Point", "coordinates": [-5.8741775, 43.5518775]}}, {"type": "Feature", "properties": {"type": "node", "id": 30546835, "tags": {"name": "Oficinas", "public_transport": "stop_position", "railway": "halt", "train": "yes"}}, "geometry": {"type": "Point", "coordinates": [-5.8827238, 43.5543678]}}, {"type": "Feature", "properties": {"type": "node", "id": 30546837, "tags": {"name": "Avil\u00e9s (FEVE)", "public_transport": "stop_position", "railway": "stop", "train": "yes", "wheelchair": "yes"}}, "geometry": {"type": "Point", "coordinates": [-5.9224539, 43.561642]}}, {"type": "Feature", "properties": {"type": "node", "id": 30546838, "tags": {"name": "La Maruca", "operator": "ADIF", "public_transport": "stop_position", "railway": "station", "source": "ADIF", "source:url": "http://www.iderail.es/2012/02/06/posicion-de-las-estaciones-de-feve-ii/", "train": "yes"}}, "geometry": {"type": "Point", "coordinates": [-5.9264889, 43.5721183]}}, {"type": "Feature", "properties": {"type": "node", "id": 30546839, "tags": {"name": "Salinas", "public_transport": "stop_position", "railway": "halt", "train": "yes", "wikidata": "Q5701178"}}, "geometry": {"type": "Point", "coordinates": [-5.9565128, 43.5704918]}}, {"type": "Feature", "properties": {"type": "node", "id": 30546840, "tags": {"name": "El Parador", "public_transport": "stop_position", "railway": "halt", "train": "yes", "wikidata": "Q17563555"}}, "geometry": {"type": "Point", "coordinates": [-6.070614, 43.5351738]}}, {"type": "Feature", "properties": {"type": "node", "id": 30546841, "tags": {"name": "Soto del Barco", "public_transport": "stop_position", "railway": "station", "train": "yes", "wikidata": "Q17563557"}}, "geometry": {"type": "Point", "coordinates": [-6.0714348, 43.5290269]}}, {"type": "Feature", "properties": {"type": "node", "id": 30546843, "tags": {"bus": "no", "internet_access": "no", "name": "Pe\u00f1aullan", "network": "FEVE", "public_transport": "stop_position", "railway": "station", "train": "yes", "wikidata": "Q17563560"}}, "geometry": {"type": "Point", "coordinates": [-6.0939609, 43.4911981]}}, {"type": "Feature", "properties": {"type": "node", "id": 30546880, "tags": {"name": "San Ran\u00f3n", "public_transport": "stop_position", "railway": "halt", "train": "yes", "wikidata": "Q27991011"}}, "geometry": {"type": "Point", "coordinates": [-6.0820075, 43.516447]}}, {"type": "Feature", "properties": {"type": "node", "id": 30546905, "tags": {"name": "San Esteban de Pravia", "public_transport": "stop_position", "train": "yes"}}, "geometry": {"type": "Point", "coordinates": [-6.0870841, 43.5521707]}}, {"type": "Feature", "properties": {"type": "node", "id": 30546937, "tags": {"name": "Los Cabos", "public_transport": "stop_position", "railway": "halt", "train": "yes", "wikidata": "Q17631270"}}, "geometry": {"type": "Point", "coordinates": [-6.0973052, 43.5122922]}}, {"type": "Feature", "properties": {"type": "node", "id": 30546980, "tags": {"name": "Muros de Nalon", "public_transport": "stop_position", "railway": "station", "train": "yes", "wikidata": "Q17631300"}}, "geometry": {"type": "Point", "coordinates": [-6.1110363, 43.5430891]}}, {"type": "Feature", "properties": {"type": "node", "id": 30547003, "tags": {"name": "El Pito - Pi\u00f1era", "public_transport": "stop_position", "railway": "halt", "train": "yes", "wikidata": "Q17631202"}}, "geometry": {"type": "Point", "coordinates": [-6.1433381, 43.5468482]}}, {"type": "Feature", "properties": {"type": "node", "id": 30547011, "tags": {"name": "Cudillero", "public_transport": "stop_position", "railway": "station", "train": "yes", "wikidata": "Q17631195"}}, "geometry": {"type": "Point", "coordinates": [-6.1521364, 43.5509285]}}, {"type": "Feature", "properties": {"type": "node", "id": 30547012, "tags": {"name": "Santianes", "public_transport": "stop_position", "railway": "halt", "train": "yes", "wikidata": "Q17631413"}}, "geometry": {"type": "Point", "coordinates": [-6.0918297, 43.5037393]}}, {"type": "Feature", "properties": {"type": "node", "id": 30547237, "tags": {"name": "Oviedo (RENFE)", "public_transport": "stop_position", "railway": "stop", "train": "yes"}}, "geometry": {"type": "Point", "coordinates": [-5.8554044, 43.3662568]}}, {"type": "Feature", "properties": {"type": "node", "id": 30547241, "tags": {"name": "Llamaquique", "public_transport": "stop_position", "railway": "station", "train": "yes", "wheelchair": "yes"}}, "geometry": {"type": "Point", "coordinates": [-5.8574394, 43.3588118]}}, {"type": "Feature", "properties": {"type": "node", "id": 30547259, "tags": {"name": "El Caleyo", "public_transport": "stop_position", "railway": "halt", "train": "yes", "wikidata": "Q5846147"}}, "geometry": {"type": "Point", "coordinates": [-5.8726264, 43.3292984]}}, {"type": "Feature", "properties": {"type": "node", "id": 30547270, "tags": {"name": "Las Segadas", "public_transport": "stop_position", "railway": "halt", "train": "yes", "wikidata": "Q5846574"}}, "geometry": {"type": "Point", "coordinates": [-5.8692988, 43.3132322]}}, {"type": "Feature", "properties": {"type": "node", "id": 30547360, "tags": {"name": "Villallana", "public_transport": "stop_position", "railway": "halt", "train": "yes", "wikidata": "Q5847481"}}, "geometry": {"type": "Point", "coordinates": [-5.8143721, 43.1840403]}}, {"type": "Feature", "properties": {"type": "node", "id": 30547369, "tags": {"name": "Pola de Lena", "public_transport": "stop_position", "railway": "stop", "train": "yes"}}, "geometry": {"type": "Point", "coordinates": [-5.8312049, 43.158681]}}, {"type": "Feature", "properties": {"type": "node", "id": 30547383, "tags": {"name": "La Cobertoria", "public_transport": "stop_position", "railway": "halt", "train": "yes"}}, "geometry": {"type": "Point", "coordinates": [-5.8157639, 43.1301779]}}, {"type": "Feature", "properties": {"type": "node", "id": 30547391, "tags": {"name": "Campomanes", "public_transport": "stop_position", "railway": "stop", "train": "yes"}}, "geometry": {"type": "Point", "coordinates": [-5.8162381, 43.1101384]}}, {"type": "Feature", "properties": {"type": "node", "id": 30547399, "tags": {"name": "La Frecha", "public_transport": "stop_position", "railway": "halt", "train": "yes", "wikidata": "Q5846476"}}, "geometry": {"type": "Point", "coordinates": [-5.7984889, 43.0961668]}}, {"type": "Feature", "properties": {"type": "node", "id": 30547414, "tags": {"name": "Puente de los Fierros", "public_transport": "stop_position", "railway": "stop", "train": "yes"}}, "geometry": {"type": "Point", "coordinates": [-5.7697127, 43.0715597]}}, {"type": "Feature", "properties": {"type": "node", "id": 30548853, "tags": {"name": "Trema\u00f1es", "operator": "FEVE", "public_transport": "stop_position", "railway": "station", "train": "yes", "wikidata": "Q18286519"}}, "geometry": {"type": "Point", "coordinates": [-5.6906116, 43.5272283]}}, {"type": "Feature", "properties": {"type": "node", "id": 30548883, "tags": {"name": "Santa Eulalia de Manzaneda", "public_transport": "stop_position", "railway": "halt", "train": "yes", "wikidata": "Q8841812"}}, "geometry": {"type": "Point", "coordinates": [-5.8126015, 43.3172499]}}, {"type": "Feature", "properties": {"type": "node", "id": 30548944, "tags": {"name": "Sama", "network": "Renfe Cercan\u00edas", "operator": "Adif", "public_transport": "stop_position", "train": "yes"}}, "geometry": {"type": "Point", "coordinates": [-5.6790893, 43.2916008]}}, {"type": "Feature", "properties": {"type": "node", "id": 30550675, "tags": {"name": "Collanzo", "public_transport": "stop_position", "railway": "station", "train": "yes"}}, "geometry": {"type": "Point", "coordinates": [-5.5663237, 43.1240772]}}, {"type": "Feature", "properties": {"type": "node", "id": 30550690, "tags": {"name": "Levinco", "public_transport": "stop_position", "railway": "halt", "train": "yes"}}, "geometry": {"type": "Point", "coordinates": [-5.6003497, 43.1510514]}}, {"type": "Feature", "properties": {"type": "node", "id": 30550700, "tags": {"name": "Santa Ana", "public_transport": "stop_position", "railway": "halt", "train": "yes"}}, "geometry": {"type": "Point", "coordinates": [-5.6460635, 43.164786]}}, {"type": "Feature", "properties": {"type": "node", "id": 30550726, "tags": {"name": "Corigos", "public_transport": "stop_position", "railway": "halt", "train": "yes"}}, "geometry": {"type": "Point", "coordinates": [-5.6766531, 43.1642625]}}, {"type": "Feature", "properties": {"type": "node", "id": 30550728, "tags": {"name": "Pi\u00f1eres", "public_transport": "stop_position", "railway": "station", "train": "yes"}}, "geometry": {"type": "Point", "coordinates": [-5.684337, 43.1658983]}}, {"type": "Feature", "properties": {"type": "node", "id": 30550772, "tags": {"name": "Caborana", "public_transport": "stop_position", "railway": "halt", "train": "yes"}}, "geometry": {"type": "Point", "coordinates": [-5.7548516, 43.1760209]}}, {"type": "Feature", "properties": {"type": "node", "id": 30550794, "tags": {"name": "Santa Cruz", "public_transport": "stop_position", "railway": "halt", "train": "yes"}}, "geometry": {"type": "Point", "coordinates": [-5.777578, 43.1959453]}}, {"type": "Feature", "properties": {"type": "node", "id": 30550810, "tags": {"name": "Figaredo", "network": "Bai\u00f1a-Collanzo", "operator": "Renfe", "public_transport": "station", "railway": "station", "train": "yes"}}, "geometry": {"type": "Point", "coordinates": [-5.7840838, 43.2138399]}}, {"type": "Feature", "properties": {"type": "node", "id": 30550816, "tags": {"name": "Santuyano - Caudalia", "public_transport": "stop_position", "railway": "halt", "train": "yes"}}, "geometry": {"type": "Point", "coordinates": [-5.7816908, 43.2302131]}}, {"type": "Feature", "properties": {"type": "node", "id": 30550821, "tags": {"name": "Mieres-Vasco", "public_transport": "stop_position", "railway": "station", "train": "yes", "wikidata": "Q47766880"}}, "geometry": {"type": "Point", "coordinates": [-5.7802197, 43.2502509]}}, {"type": "Feature", "properties": {"type": "node", "id": 30550834, "tags": {"name": "Abla\u00f1a", "public_transport": "stop_position", "railway": "station", "train": "yes", "wikidata": "Q65556217"}}, "geometry": {"type": "Point", "coordinates": [-5.8063814, 43.2672304]}}, {"type": "Feature", "properties": {"type": "node", "id": 30550844, "tags": {"name": "La Pereda", "public_transport": "stop_position", "railway": "halt", "train": "yes"}}, "geometry": {"type": "Point", "coordinates": [-5.8127487, 43.2766181]}}, {"type": "Feature", "properties": {"type": "node", "id": 30550850, "tags": {"name": "Bai\u00f1a", "public_transport": "stop_position", "railway": "halt", "train": "yes"}}, "geometry": {"type": "Point", "coordinates": [-5.8282513, 43.2744537]}}, {"type": "Feature", "properties": {"type": "node", "id": 30550910, "tags": {"addr:city": "Soto Ribera", "addr:postcode": "33172", "name": "Soto Ribera", "name:es": "Soto de Ribera", "network": "Red de Ancho M\u00e9trico (ADIF)", "operator": "Renfe Feve", "public_transport": "station", "railway": "station", "train": "yes"}}, "geometry": {"type": "Point", "coordinates": [-5.8752416, 43.3085554]}}, {"type": "Feature", "properties": {"type": "node", "id": 30550974, "tags": {"name": "Trubia", "public_transport": "stop_position", "railway": "station", "train": "yes"}}, "geometry": {"type": "Point", "coordinates": [-5.9676667, 43.3486331]}}, {"type": "Feature", "properties": {"type": "node", "id": 30550976, "tags": {"name": "Uxo - Taruelo", "public_transport": "stop_position", "railway": "halt", "train": "yes"}}, "geometry": {"type": "Point", "coordinates": [-5.7880421, 43.2006603]}}, {"type": "Feature", "properties": {"type": "node", "id": 30550977, "tags": {"name": "Moreda", "public_transport": "stop_position", "railway": "station", "train": "yes"}}, "geometry": {"type": "Point", "coordinates": [-5.7419089, 43.1706329]}}, {"type": "Feature", "properties": {"type": "node", "id": 30550978, "tags": {"name": "Oyanco", "public_transport": "stop_position", "railway": "halt", "train": "yes"}}, "geometry": {"type": "Point", "coordinates": [-5.7221765, 43.1665277]}}, {"type": "Feature", "properties": {"type": "node", "id": 30550979, "tags": {"name": "San Antonio", "public_transport": "stop_position", "railway": "halt", "train": "yes"}}, "geometry": {"type": "Point", "coordinates": [-5.6967754, 43.1688322]}}, {"type": "Feature", "properties": {"type": "node", "id": 30550980, "tags": {"name": "Caba\u00f1aquinta", "public_transport": "stop_position", "train": "yes"}}, "geometry": {"type": "Point", "coordinates": [-5.6249293, 43.1606769]}}, {"type": "Feature", "properties": {"type": "node", "id": 30551743, "tags": {"name": "Sandiche", "public_transport": "stop_position", "railway": "halt", "train": "yes"}}, "geometry": {"type": "Point", "coordinates": [-6.0599021, 43.4255855]}}, {"type": "Feature", "properties": {"type": "node", "id": 30551756, "tags": {"name": "Aces", "public_transport": "stop_position", "train": "yes"}}, "geometry": {"type": "Point", "coordinates": [-6.0657849, 43.4398672]}}, {"type": "Feature", "properties": {"type": "node", "id": 30551763, "tags": {"name": "San Rom\u00e1n", "public_transport": "stop_position", "train": "yes"}}, "geometry": {"type": "Point", "coordinates": [-6.0771612, 43.4488025]}}, {"type": "Feature", "properties": {"type": "node", "id": 30551778, "tags": {"name": "Beifar", "public_transport": "stop_position", "railway": "halt", "train": "yes"}}, "geometry": {"type": "Point", "coordinates": [-6.0989472, 43.470138]}}, {"type": "Feature", "properties": {"type": "node", "id": 30551789, "tags": {"name": "San Pedro de Nora", "public_transport": "stop_position", "railway": "halt", "train": "yes"}}, "geometry": {"type": "Point", "coordinates": [-5.958493, 43.3687346]}}, {"type": "Feature", "properties": {"type": "node", "id": 30657717, "tags": {"name": "Los Corros", "public_transport": "stop_position", "railway": "halt", "train": "yes", "wikidata": "Q18224053"}}, "geometry": {"type": "Point", "coordinates": [-5.6014627, 43.3768732]}}, {"type": "Feature", "properties": {"type": "node", "id": 30898611, "tags": {"name": "Delicias", "public_transport": "stop_position", "railway": "stop", "train": "yes"}}, "geometry": {"type": "Point", "coordinates": [-3.6923899, 40.4002002]}}, {"type": "Feature", "properties": {"type": "node", "id": 31293088, "tags": {"name": "Pitis", "public_transport": "stop_position", "railway": "stop", "train": "yes"}}, "geometry": {"type": "Point", "coordinates": [-3.7265664, 40.4953534]}}, {"type": "Feature", "properties": {"type": "node", "id": 31366592, "tags": {"name": "Busdongo", "public_transport": "stop_position", "train": "yes"}}, "geometry": {"type": "Point", "coordinates": [-5.7053358, 42.9843097]}}, {"type": "Feature", "properties": {"type": "node", "id": 31660396, "tags": {"name": "Sebares", "name:es": "Sevares", "public_transport": "stop_position", "railway": "halt", "train": "yes", "wikidata": "Q18613728"}}, "geometry": {"type": "Point", "coordinates": [-5.2570968, 43.3623925]}}, {"type": "Feature", "properties": {"type": "node", "id": 31660468, "tags": {"name": "Ozanes", "public_transport": "stop_position", "railway": "halt", "train": "yes", "wikidata": "Q18588232"}}, "geometry": {"type": "Point", "coordinates": [-5.1853729, 43.3683052]}}, {"type": "Feature", "properties": {"type": "node", "id": 31660529, "tags": {"name": "Fuentes", "public_transport": "stop_position", "railway": "halt", "train": "yes", "wikidata": "Q18597981"}}, "geometry": {"type": "Point", "coordinates": [-5.1430788, 43.4013993]}}, {"type": "Feature", "properties": {"type": "node", "id": 31660549, "tags": {"name": "Tora\u00f1o", "public_transport": "stop_position", "railway": "halt", "train": "yes", "wikidata": "Q18600365"}}, "geometry": {"type": "Point", "coordinates": [-5.1180333, 43.4121636]}}, {"type": "Feature", "properties": {"type": "node", "id": 31660589, "tags": {"name": "Cuevas", "public_transport": "stop_position", "railway": "halt", "train": "yes"}}, "geometry": {"type": "Point", "coordinates": [-5.073311, 43.4312047]}}, {"type": "Feature", "properties": {"type": "node", "id": 33246281, "tags": {"name": "L\u00ednea \u00c1vila-Salamanca", "public_transport": "stop_position", "train": "yes"}}, "geometry": {"type": "Point", "coordinates": [-5.6487091, 40.9715338]}}, {"type": "Feature", "properties": {"type": "node", "id": 33246325, "tags": {"name": "Babilafuente", "public_transport": "stop_position", "train": "yes"}}, "geometry": {"type": "Point", "coordinates": [-5.4304567, 40.9722148]}}, {"type": "Feature", "properties": {"type": "node", "id": 33246329, "tags": {"name": "Penaranda de Bracamonte", "public_transport": "stop_position", "railway": "station", "train": "yes", "wikidata": "Q10949973", "wikipedia": "es:Estaci\u00f3n de Pe\u00f1aranda de Bracamonte"}}, "geometry": {"type": "Point", "coordinates": [-5.2068868, 40.898061]}}, {"type": "Feature", "properties": {"type": "node", "id": 33638419, "tags": {"name": "Muriedas-Bah\u00eda", "network": "ADIF", "operator": "Renfe", "public_transport": "stop_position", "railway": "halt", "ref": "14237", "train": "yes", "wikidata": "Q5394291", "wikipedia": "es:Estaci\u00f3n de Muriedas-Bah\u00eda"}}, "geometry": {"type": "Point", "coordinates": [-3.8440167, 43.4217441]}}, {"type": "Feature", "properties": {"type": "node", "id": 33639058, "tags": {"name": "Renedo", "network": "ADIF", "operator": "Renfe", "public_transport": "stop_position", "railway": "stop", "ref": "14216", "train": "yes", "wikidata": "Q5847039"}}, "geometry": {"type": "Point", "coordinates": [-3.9496306, 43.3532224]}}, {"type": "Feature", "properties": {"type": "node", "id": 33727567, "tags": {"name": "Nueva Monta\u00f1a", "operator": "Adif", "public_transport": "stop_position", "railway": "stop", "ref": "01092", "train": "yes"}}, "geometry": {"type": "Point", "coordinates": [-3.8495423, 43.4400511]}}, {"type": "Feature", "properties": {"type": "node", "id": 33727779, "tags": {"name": "Malia\u00f1o", "operator": "Adif", "public_transport": "stop_position", "railway": "stop", "ref": "01093", "train": "yes"}}, "geometry": {"type": "Point", "coordinates": [-3.8409702, 43.4161641]}}, {"type": "Feature", "properties": {"type": "node", "id": 33727847, "tags": {"name": "Astillero", "public_transport": "stop_position", "railway": "stop", "ref": "01094", "train": "yes"}}, "geometry": {"type": "Point", "coordinates": [-3.8207622, 43.403872]}}, {"type": "Feature", "properties": {"type": "node", "id": 33751327, "tags": {"name": "La Cant\u00e1brica", "public_transport": "stop_position", "railway": "stop", "ref": "01228", "train": "yes"}}, "geometry": {"type": "Point", "coordinates": [-3.8148892, 43.3972867]}}, {"type": "Feature", "properties": {"type": "node", "id": 33751754, "tags": {"name": "San Salvador", "network": "ADIF", "operator": "Renfe Feve", "public_transport": "stop_position", "railway": "stop", "train": "yes"}}, "geometry": {"type": "Point", "coordinates": [-3.8037499, 43.3937261]}}, {"type": "Feature", "properties": {"type": "node", "id": 33803696, "tags": {"name": "Valle Real", "public_transport": "stop_position", "railway": "stop", "train": "yes"}}, "geometry": {"type": "Point", "coordinates": [-3.8405599, 43.427632]}}, {"type": "Feature", "properties": {"type": "node", "id": 33807511, "tags": {"name": "Heras", "public_transport": "stop_position", "railway": "stop", "train": "yes"}}, "geometry": {"type": "Point", "coordinates": [-3.7665545, 43.401061]}}, {"type": "Feature", "properties": {"type": "node", "id": 34553460, "tags": {"name": "Cazo\u00f1a", "public_transport": "stop_position", "railway": "station", "train": "yes"}}, "geometry": {"type": "Point", "coordinates": [-3.8404313, 43.4542655]}}, {"type": "Feature", "properties": {"type": "node", "id": 34553891, "tags": {"name": "Bezana", "network": "ADIF", "operator": "Feve", "public_transport": "stop_position", "railway": "stop", "shelter": "yes", "source": "ADIF", "train": "yes"}}, "geometry": {"type": "Point", "coordinates": [-3.8995546, 43.440728]}}, {"type": "Feature", "properties": {"type": "node", "id": 34553917, "tags": {"name": "Momp\u00eda-Mortera", "network": "ADIF", "operator": "Feve", "public_transport": "stop_position", "ref": "01074", "shelter": "yes", "train": "yes"}}, "geometry": {"type": "Point", "coordinates": [-3.9174789, 43.4351918]}}, {"type": "Feature", "properties": {"type": "node", "id": 34554371, "tags": {"name": "Mar", "public_transport": "stop_position", "railway": "halt", "train": "yes"}}, "geometry": {"type": "Point", "coordinates": [-4.0100832, 43.3982349]}}, {"type": "Feature", "properties": {"type": "node", "id": 34554401, "tags": {"name": "Requejada", "public_transport": "stop_position", "railway": "halt", "train": "yes"}}, "geometry": {"type": "Point", "coordinates": [-4.0284828, 43.3913403]}}, {"type": "Feature", "properties": {"type": "node", "id": 34554797, "tags": {"name": "Sierrapando", "network": "ADIF", "operator": "Renfe", "public_transport": "stop_position", "railway": "station", "train": "yes", "wikidata": "Q5847249"}}, "geometry": {"type": "Point", "coordinates": [-4.0263691, 43.3417714]}}, {"type": "Feature", "properties": {"type": "node", "id": 34669003, "tags": {"name": "Orejo", "operator": "ADIF", "public_transport": "stop_position", "railway": "stop", "source": "ADIF", "source:url": "http://www.iderail.es/2012/02/06/posicion-de-las-estaciones-de-feve-ii/", "train": "yes"}}, "geometry": {"type": "Point", "coordinates": [-3.7380917, 43.3994812]}}, {"type": "Feature", "properties": {"type": "node", "id": 35131941, "tags": {"name": "Barreda", "public_transport": "stop_position", "railway": "station", "train": "yes"}}, "geometry": {"type": "Point", "coordinates": [-4.0419932, 43.37414]}}, {"type": "Feature", "properties": {"type": "node", "id": 35315220, "tags": {"name": "La Robla", "public_transport": "stop_position", "train": "yes"}}, "geometry": {"type": "Point", "coordinates": [-5.6265935, 42.8042708]}}, {"type": "Feature", "properties": {"type": "node", "id": 36130230, "tags": {"name": "Estaci\u00f3n de Selgua", "operator": "Adif", "railway": "station", "ref": "78300", "wikidata": "Q5847220"}}, "geometry": {"type": "Point", "coordinates": [0.1484671, 41.9059598]}}, {"type": "Feature", "properties": {"type": "node", "id": 36130273, "tags": {"name": "Binefar", "public_transport": "station", "railway": "station", "train": "yes", "wikidata": "Q5845829"}}, "geometry": {"type": "Point", "coordinates": [0.291261, 41.8496285]}}, {"type": "Feature", "properties": {"type": "node", "id": 36130447, "tags": {"name": "Juneda", "public_transport": "stop_position", "railway": "stop", "train": "yes"}}, "geometry": {"type": "Point", "coordinates": [0.8254444, 41.5438398]}}, {"type": "Feature", "properties": {"type": "node", "id": 36130496, "tags": {"name": "Vinaixa", "public_transport": "stop_position", "railway": "stop", "source": "Bing", "train": "yes"}}, "geometry": {"type": "Point", "coordinates": [0.9701497, 41.4251146]}}, {"type": "Feature", "properties": {"type": "node", "id": 36304203, "tags": {"name": "Unquera", "public_transport": "stop_position", "railway": "station", "train": "yes", "wikidata": "Q18602037", "wikipedia": "es:Estaci\u00f3n de Unquera"}}, "geometry": {"type": "Point", "coordinates": [-4.5142048, 43.3748869]}}, {"type": "Feature", "properties": {"type": "node", "id": 36305736, "tags": {"name": "Colombres", "public_transport": "stop_position", "railway": "halt", "train": "yes", "wikidata": "Q18602019"}}, "geometry": {"type": "Point", "coordinates": [-4.5569884, 43.3830117]}}, {"type": "Feature", "properties": {"type": "node", "id": 36687699, "tags": {"bus": "no", "name": "Pola de Gord\u00f3n", "public_transport": "stop_position", "train": "yes"}}, "geometry": {"type": "Point", "coordinates": [-5.674712, 42.8538802]}}, {"type": "Feature", "properties": {"type": "node", "id": 41153849, "tags": {"name": "Cece\u00f1as", "public_transport": "stop_position", "railway": "halt", "ref": "01101", "train": "yes"}}, "geometry": {"type": "Point", "coordinates": [-3.7180463, 43.3764975]}}, {"type": "Feature", "properties": {"type": "node", "id": 41174597, "tags": {"name": "La Cavada", "public_transport": "stop_position", "railway": "halt", "ref": "01102", "train": "yes"}}, "geometry": {"type": "Point", "coordinates": [-3.7072013, 43.350591]}}, {"type": "Feature", "properties": {"type": "node", "id": 41177780, "tags": {"name": "Li\u00e9rganes", "public_transport": "stop_position", "railway": "station", "ref": "01103", "train": "yes", "wheelchair": "yes"}}, "geometry": {"type": "Point", "coordinates": [-3.7423598, 43.3449805]}}, {"type": "Feature", "properties": {"type": "node", "id": 41178242, "tags": {"name": "Solares", "public_transport": "stop_position", "railway": "station", "ref": "01100", "train": "yes"}}, "geometry": {"type": "Point", "coordinates": [-3.7314683, 43.387272]}}, {"type": "Feature", "properties": {"type": "node", "id": 46911086, "tags": {"name": "Tarragona", "public_transport": "stop_position", "railway": "stop", "train": "yes"}}, "geometry": {"type": "Point", "coordinates": [1.2534961, 41.1114368]}}, {"type": "Feature", "properties": {"type": "node", "id": 46911424, "tags": {"name": "Altafulla - Tamarit", "public_transport": "stop_position", "train": "yes", "usage": "main"}}, "geometry": {"type": "Point", "coordinates": [1.373319, 41.1365621]}}, {"type": "Feature", "properties": {"type": "node", "id": 46920419, "tags": {"name": "Cubelles", "public_transport": "stop_position", "ref": "R2 Sud", "train": "yes"}}, "geometry": {"type": "Point", "coordinates": [1.6760202, 41.2041476]}}, {"type": "Feature", "properties": {"type": "node", "id": 46920597, "tags": {"name": "Sitges", "public_transport": "stop_position", "railway": "stop", "ref": "1", "train": "yes", "wheelchair": "limited"}}, "geometry": {"type": "Point", "coordinates": [1.8095918, 41.2392483]}}, {"type": "Feature", "properties": {"type": "node", "id": 47118025, "tags": {"name": "Riudellots de la Selva", "public_transport": "stop_position", "railway": "stop", "train": "yes"}}, "geometry": {"type": "Point", "coordinates": [2.8117286, 41.8962324]}}, {"type": "Feature", "properties": {"type": "node", "id": 48221055, "tags": {"alt_name": "Villadangos del P\u00e1ramo", "name": "Villadangos", "public_transport": "stop_position", "railway": "stop", "train": "yes"}}, "geometry": {"type": "Point", "coordinates": [-5.7455268, 42.5214752]}}, {"type": "Feature", "properties": {"type": "node", "id": 52235904, "tags": {"name": "Montgat", "public_transport": "stop_position", "railway": "stop", "train": "yes"}}, "geometry": {"type": "Point", "coordinates": [2.2722256, 41.4628986]}}, {"type": "Feature", "properties": {"type": "node", "id": 52235925, "tags": {"name": "Montgat Nord", "public_transport": "stop_position", "railway": "stop", "train": "yes"}}, "geometry": {"type": "Point", "coordinates": [2.2868937, 41.4687399]}}, {"type": "Feature", "properties": {"type": "node", "id": 52237369, "tags": {"name": "El Masnou", "public_transport": "stop_position", "railway": "stop", "train": "yes"}}, "geometry": {"type": "Point", "coordinates": [2.3105079, 41.4769123]}}, {"type": "Feature", "properties": {"type": "node", "id": 52241256, "tags": {"name": "Badalona", "public_transport": "stop_position", "railway": "stop", "train": "yes"}}, "geometry": {"type": "Point", "coordinates": [2.2491467, 41.4457248]}}, {"type": "Feature", "properties": {"type": "node", "id": 54279203, "tags": {"name": "Policl\u00ednico de Arriondas", "public_transport": "stop_position", "railway": "halt", "train": "yes", "wikidata": "Q18588237"}}, "geometry": {"type": "Point", "coordinates": [-5.186105, 43.3786788]}}, {"type": "Feature", "properties": {"type": "node", "id": 54336382, "tags": {"name": "Soto de Due\u00f1as", "public_transport": "stop_position", "railway": "halt", "train": "yes", "wikidata": "Q18588228"}}, "geometry": {"type": "Point", "coordinates": [-5.2268141, 43.3581458]}}, {"type": "Feature", "properties": {"type": "node", "id": 54336554, "tags": {"name": "Villamayor", "public_transport": "stop_position", "railway": "halt", "train": "yes", "wikidata": "Q18613732"}}, "geometry": {"type": "Point", "coordinates": [-5.3025612, 43.3630682]}}, {"type": "Feature", "properties": {"type": "node", "id": 54336557, "tags": {"name": "Infiesto Apeadero", "public_transport": "stop_position", "railway": "halt", "train": "yes"}}, "geometry": {"type": "Point", "coordinates": [-5.3606746, 43.3440012]}}, {"type": "Feature", "properties": {"type": "node", "id": 54874265, "tags": {"name": "Llovio", "public_transport": "stop_position", "railway": "halt", "train": "yes"}}, "geometry": {"type": "Point", "coordinates": [-5.0559063, 43.4406112]}}, {"type": "Feature", "properties": {"type": "node", "id": 54896516, "tags": {"name": "Ribadesella", "public_transport": "stop_position", "railway": "station", "source": "PNOA", "source:date": "2009", "train": "yes"}}, "geometry": {"type": "Point", "coordinates": [-5.0546619, 43.4593911]}}, {"type": "Feature", "properties": {"type": "node", "id": 54913095, "tags": {"name": "Camango", "public_transport": "stop_position", "railway": "halt", "train": "yes", "wikidata": "Q18600394", "wikipedia": "es:Estaci\u00f3n de Camango"}}, "geometry": {"type": "Point", "coordinates": [-5.0190058, 43.4483554]}}, {"type": "Feature", "properties": {"type": "node", "id": 54944359, "tags": {"name": "Belmonte", "public_transport": "stop_position", "railway": "halt", "train": "yes", "wikidata": "Q18600407"}}, "geometry": {"type": "Point", "coordinates": [-4.9823047, 43.4398624]}}, {"type": "Feature", "properties": {"type": "node", "id": 54944474, "tags": {"name": "Nueva", "public_transport": "stop_position", "railway": "station", "train": "yes"}}, "geometry": {"type": "Point", "coordinates": [-4.9354577, 43.4405094]}}, {"type": "Feature", "properties": {"type": "node", "id": 55315852, "tags": {"name": "Villahormes", "public_transport": "stop_position", "railway": "halt", "train": "yes", "wikidata": "Q18600440"}}, "geometry": {"type": "Point", "coordinates": [-4.9036235, 43.441946]}}, {"type": "Feature", "properties": {"type": "node", "id": 55337705, "tags": {"name": "Posada", "public_transport": "stop_position", "railway": "station", "train": "yes", "wikidata": "Q18600451"}}, "geometry": {"type": "Point", "coordinates": [-4.8652434, 43.42508]}}, {"type": "Feature", "properties": {"type": "node", "id": 55532881, "tags": {"name": "Balmori", "public_transport": "stop_position", "railway": "halt", "train": "yes", "wikidata": "Q18601865"}}, "geometry": {"type": "Point", "coordinates": [-4.8359274, 43.4213708]}}, {"type": "Feature", "properties": {"type": "node", "id": 55554526, "tags": {"name": "Celorio", "public_transport": "stop_position", "railway": "halt", "train": "yes", "wikidata": "Q18601867"}}, "geometry": {"type": "Point", "coordinates": [-4.8113434, 43.4247743]}}, {"type": "Feature", "properties": {"type": "node", "id": 55634847, "tags": {"name": "Po\u00f3", "public_transport": "stop_position", "railway": "halt", "train": "yes", "wikidata": "Q18601870"}}, "geometry": {"type": "Point", "coordinates": [-4.7824231, 43.4241295]}}, {"type": "Feature", "properties": {"type": "node", "id": 55634921, "tags": {"name": "Llanes", "public_transport": "stop_position", "railway": "station", "source": "PNOA", "source:date": "2009", "train": "yes", "wikidata": "Q18601876"}}, "geometry": {"type": "Point", "coordinates": [-4.7591087, 43.4209241]}}, {"type": "Feature", "properties": {"type": "node", "id": 55635032, "tags": {"name": "San Roque del Acebal", "public_transport": "stop_position", "railway": "halt", "train": "yes", "wikidata": "Q18602003"}}, "geometry": {"type": "Point", "coordinates": [-4.7300013, 43.394716]}}, {"type": "Feature", "properties": {"type": "node", "id": 55688599, "tags": {"name": "Vidiago", "public_transport": "stop_position", "railway": "halt", "train": "yes", "wikidata": "Q18602008"}}, "geometry": {"type": "Point", "coordinates": [-4.6727699, 43.3966266]}}, {"type": "Feature", "properties": {"type": "node", "id": 55703158, "tags": {"name": "Pendueles", "public_transport": "stop_position", "railway": "halt", "train": "yes", "wikidata": "Q18602014"}}, "geometry": {"type": "Point", "coordinates": [-4.6301345, 43.3927643]}}, {"type": "Feature", "properties": {"type": "node", "id": 58157938, "tags": {"addr:city": "Bulnes", "name": "Bulnes", "operator": "ALSA", "public_transport": "station", "railway": "station", "start_date": "2001", "station": "funicular"}}, "geometry": {"type": "Point", "coordinates": [-4.8233275, 43.2382236]}}, {"type": "Feature", "properties": {"type": "node", "id": 58157942, "tags": {"addr:city": "Poncebos", "name": "Poncebos", "operator": "ALSA", "phone": "+34 985 84 68 00", "public_transport": "station", "railway": "station", "start_date": "2001", "station": "funicular"}}, "geometry": {"type": "Point", "coordinates": [-4.8303163, 43.2576952]}}, {"type": "Feature", "properties": {"type": "node", "id": 59606901, "tags": {"name": "Cantoblanco Universidad", "public_transport": "stop_position", "railway": "stop", "train": "yes"}}, "geometry": {"type": "Point", "coordinates": [-3.6998137, 40.5428639]}}, {"type": "Feature", "properties": {"type": "node", "id": 59613809, "tags": {"name": "Ama\u00f1a", "network": "Euskotren Trena", "operator": "Eusko Trenbideak", "public_transport": "station", "railway": "station", "train": "yes"}}, "geometry": {"type": "Point", "coordinates": [-2.4802593, 43.1845581]}}, {"type": "Feature", "properties": {"type": "node", "id": 59613918, "tags": {"name": "Unibertsitatea", "network": "Euskotren Trena", "operator": "Eusko Trenbideak", "public_transport": "stop_position", "train": "yes"}}, "geometry": {"type": "Point", "coordinates": [-2.4873302, 43.1806928]}}, {"type": "Feature", "properties": {"type": "node", "id": 59934621, "tags": {"name": "Eibar", "operator": "Eusko Trenbideak", "public_transport": "stop_position", "railway": "stop", "train": "yes"}}, "geometry": {"type": "Point", "coordinates": [-2.4647603, 43.187288]}}, {"type": "Feature", "properties": {"type": "node", "id": 59935090, "tags": {"name": "Azitain", "operator": "Eusko Trenbideak", "public_transport": "stop_position", "railway": "stop", "train": "yes"}}, "geometry": {"type": "Point", "coordinates": [-2.4550812, 43.1903579]}}, {"type": "Feature", "properties": {"type": "node", "id": 64606267, "tags": {"name": "Sant Adri\u00e0 de Bes\u00f2s", "public_transport": "stop_position", "railway": "stop", "train": "yes"}}, "geometry": {"type": "Point", "coordinates": [2.2305961, 41.4243477]}}, {"type": "Feature", "properties": {"type": "node", "id": 69248400, "tags": {"name": "Villademar", "public_transport": "stop_position", "railway": "halt", "train": "yes", "wikidata": "Q17631453"}}, "geometry": {"type": "Point", "coordinates": [-6.1554776, 43.5570214]}}, {"type": "Feature", "properties": {"type": "node", "id": 69478959, "tags": {"name": "La Magdalena", "network": "Red de Ancho M\u00e9trico (ADIF)", "operator": "Renfe Feve", "public_transport": "stop_position", "railway": "halt", "train": "yes", "wikidata": "Q17631245"}}, "geometry": {"type": "Point", "coordinates": [-6.1849472, 43.559227]}}, {"type": "Feature", "properties": {"type": "node", "id": 78117838, "tags": {"name": "Ram\u00f3n y Cajal", "public_transport": "stop_position", "railway": "stop", "train": "yes"}}, "geometry": {"type": "Point", "coordinates": [-3.6946657, 40.4882207]}}, {"type": "Feature", "properties": {"type": "node", "id": 79715911, "tags": {"name": "Fuencarral", "platforms": "2", "public_transport": "station", "railway": "station", "wikidata": "Q8779819"}}, "geometry": {"type": "Point", "coordinates": [-3.6821696, 40.50153]}}, {"type": "Feature", "properties": {"type": "node", "id": 81326543, "tags": {"fixme": "position guessed", "name": "Zaragoza-Delicias", "public_transport": "stop_position", "railway": "stop", "train": "yes", "usage": "main"}}, "geometry": {"type": "Point", "coordinates": [-0.9100716, 41.6584062]}}, {"type": "Feature", "properties": {"type": "node", "id": 81326544, "tags": {"name": "Alag\u00f3n", "public_transport": "station", "railway": "station", "wikidata": "Q5845603"}}, "geometry": {"type": "Point", "coordinates": [-1.1126082, 41.7716254]}}, {"type": "Feature", "properties": {"type": "node", "id": 81326546, "tags": {"name": "Caba\u00f1as de Ebro", "public_transport": "station", "railway": "station", "wikidata": "Q5845883"}}, "geometry": {"type": "Point", "coordinates": [-1.1684037, 41.7883119]}}, {"type": "Feature", "properties": {"type": "node", "id": 90903259, "tags": {"name": "San Mart\u00edn de Lui\u00f1a", "public_transport": "stop_position", "railway": "halt", "train": "yes", "wikidata": "Q17631388"}}, "geometry": {"type": "Point", "coordinates": [-6.228861, 43.5445277]}}, {"type": "Feature", "properties": {"type": "node", "id": 90903492, "tags": {"name": "Soto de Lui\u00f1a", "public_transport": "stop_position", "railway": "station", "train": "yes", "wikidata": "Q17631430"}}, "geometry": {"type": "Point", "coordinates": [-6.2345691, 43.5596553]}}, {"type": "Feature", "properties": {"type": "node", "id": 100170523, "tags": {"bus": "no", "name": "Valdredo", "public_transport": "stop_position", "railway": "halt", "train": "yes", "wikidata": "Q17631443"}}, "geometry": {"type": "Point", "coordinates": [-6.2632292, 43.5664142]}}, {"type": "Feature", "properties": {"type": "node", "id": 100289763, "tags": {"name": "Novellana", "public_transport": "stop_position", "railway": "station", "train": "yes", "wikidata": "Q17631311"}}, "geometry": {"type": "Point", "coordinates": [-6.2896968, 43.5576453]}}, {"type": "Feature", "properties": {"type": "node", "id": 100299858, "tags": {"name": "Santa Marina", "public_transport": "stop_position", "railway": "halt", "train": "yes", "wikidata": "Q17631402"}}, "geometry": {"type": "Point", "coordinates": [-6.3051305, 43.5526474]}}, {"type": "Feature", "properties": {"type": "node", "id": 100330549, "tags": {"name": "Ballota", "public_transport": "stop_position", "railway": "station", "train": "yes", "wikidata": "Q17631152"}}, "geometry": {"type": "Point", "coordinates": [-6.3231258, 43.5509652]}}, {"type": "Feature", "properties": {"type": "node", "id": 108478354, "tags": {"name": "Tablizo", "public_transport": "stop_position", "railway": "halt", "train": "yes", "wikidata": "Q17631434"}}, "geometry": {"type": "Point", "coordinates": [-6.351482, 43.5481249]}}, {"type": "Feature", "properties": {"type": "node", "id": 108478880, "tags": {"name": "Cadavedo", "public_transport": "stop_position", "train": "yes"}}, "geometry": {"type": "Point", "coordinates": [-6.3918198, 43.5428908]}}, {"type": "Feature", "properties": {"type": "node", "id": 114174793, "tags": {"name": "Matallana", "operator": "ADIF", "public_transport": "stop_position", "railway": "stop", "source": "ADIF", "source:url": "http://www.iderail.es/2012/01/25/posicion-de-las-estaciones-de-feve/", "train": "yes"}}, "geometry": {"type": "Point", "coordinates": [-5.5221894, 42.8411192]}}, {"type": "Feature", "properties": {"type": "node", "id": 119283392, "tags": {"name": "La Devesa", "operator": "ADIF", "public_transport": "stop_position", "railway": "stop", "source": "ADIF", "source:url": "http://www.iderail.es/2012/01/25/posicion-de-las-estaciones-de-feve/", "train": "yes"}}, "geometry": {"type": "Point", "coordinates": [-5.3022159, 42.8201148]}}, {"type": "Feature", "properties": {"type": "node", "id": 127782094, "tags": {"bench": "yes", "name": "San Crist\u00f3bal", "operator": "ADIF", "public_transport": "stop_position", "railway": "halt", "shelter": "yes", "source": "ADIF", "source:url": "http://www.iderail.es/2012/02/06/posicion-de-las-estaciones-de-feve-ii/", "train": "yes", "tram": "no", "wikidata": "Q17631384"}}, "geometry": {"type": "Point", "coordinates": [-6.41522, 43.5472027]}}, {"type": "Feature", "properties": {"type": "node", "id": 127782193, "tags": {"name": "Caneiru", "public_transport": "stop_position", "railway": "stop", "train": "yes"}}, "geometry": {"type": "Point", "coordinates": [-6.4460345, 43.5418722]}}, {"type": "Feature", "properties": {"type": "node", "id": 127782316, "tags": {"name": "Barcia", "public_transport": "stop_position", "railway": "halt", "train": "yes", "wikidata": "Q17631155"}}, "geometry": {"type": "Point", "coordinates": [-6.5082278, 43.5467539]}}, {"type": "Feature", "properties": {"type": "node", "id": 127782641, "tags": {"name": "Otur", "public_transport": "stop_position", "railway": "halt", "train": "yes", "wikidata": "Q17631337"}}, "geometry": {"type": "Point", "coordinates": [-6.5935194, 43.5406418]}}, {"type": "Feature", "properties": {"type": "node", "id": 127782893, "tags": {"name": "Pi\u00f1era - Villaoril", "public_transport": "stop_position", "railway": "halt", "train": "yes", "wikidata": "Q17631355"}}, "geometry": {"type": "Point", "coordinates": [-6.6853496, 43.5355684]}}, {"type": "Feature", "properties": {"type": "node", "id": 127795233, "tags": {"name": "Navia", "public_transport": "stop_position", "railway": "stop", "train": "yes"}}, "geometry": {"type": "Point", "coordinates": [-6.7202747, 43.536213]}}, {"type": "Feature", "properties": {"type": "node", "id": 127795406, "tags": {"name": "Jarrio", "public_transport": "stop_position", "railway": "halt", "train": "yes", "wikidata": "Q17631288"}}, "geometry": {"type": "Point", "coordinates": [-6.7529871, 43.5456737]}}, {"type": "Feature", "properties": {"type": "node", "id": 127795502, "tags": {"name": "Cartavio", "public_transport": "stop_position", "railway": "halt", "train": "yes", "wikidata": "Q17631182"}}, "geometry": {"type": "Point", "coordinates": [-6.789601, 43.5507532]}}, {"type": "Feature", "properties": {"type": "node", "id": 129612688, "tags": {"name": "Tapia de Casariego", "network": "Red de Ancho M\u00e9trico (ADIF)", "operator": "Renfe Feve", "public_transport": "stop_position", "railway": "stop", "train": "yes", "wikidata": "Q17631438"}}, "geometry": {"type": "Point", "coordinates": [-6.9093798, 43.5349264]}}, {"type": "Feature", "properties": {"type": "node", "id": 129612728, "tags": {"name": "Tol", "public_transport": "stop_position", "railway": "halt", "train": "yes", "wikidata": "Q17631441"}}, "geometry": {"type": "Point", "coordinates": [-6.9520093, 43.5271902]}}, {"type": "Feature", "properties": {"type": "node", "id": 129612765, "tags": {"name": "Las Campas", "public_transport": "stop_position", "railway": "halt", "train": "yes", "wikidata": "Q17631262"}}, "geometry": {"type": "Point", "coordinates": [-6.9770801, 43.5203904]}}, {"type": "Feature", "properties": {"type": "node", "id": 129612794, "tags": {"name": "Castropol", "public_transport": "stop_position", "railway": "halt", "train": "yes", "wikidata": "Q17631186"}}, "geometry": {"type": "Point", "coordinates": [-7.0139172, 43.5087122]}}, {"type": "Feature", "properties": {"type": "node", "id": 129612832, "tags": {"name": "Vilavedelle", "public_transport": "stop_position", "railway": "halt", "train": "yes", "wikidata": "Q17631450"}}, "geometry": {"type": "Point", "coordinates": [-7.0358795, 43.4912975]}}, {"type": "Feature", "properties": {"type": "node", "id": 129612889, "tags": {"bus": "no", "name": "Vegadeo - Pueblo", "network": "Red de Ancho M\u00e9trico (ADIF)", "operator": "Renfe Feve", "public_transport": "stop_position", "railway": "halt", "train": "yes", "wikidata": "Q17631446"}}, "geometry": {"type": "Point", "coordinates": [-7.0504431, 43.4730167]}}, {"type": "Feature", "properties": {"type": "node", "id": 129612900, "tags": {"name": "A Veiga", "public_transport": "stop_position", "railway": "station", "train": "yes"}}, "geometry": {"type": "Point", "coordinates": [-7.0570814, 43.4794576]}}, {"type": "Feature", "properties": {"type": "node", "id": 129612999, "tags": {"name": "Ribadeo", "public_transport": "stop_position", "railway": "station", "train": "yes", "wheelchair": "no", "wikidata": "Q17631368"}}, "geometry": {"type": "Point", "coordinates": [-7.0557899, 43.5359749]}}, {"type": "Feature", "properties": {"type": "node", "id": 137484930, "tags": {"name": "Las Matas", "network": "Cercan\u00edas Madrid", "operator": "RENFE", "public_transport": "stop_position", "railway": "stop", "train": "yes"}}, "geometry": {"type": "Point", "coordinates": [-3.8969195, 40.5522431]}}, {"type": "Feature", "properties": {"type": "node", "id": 146248610, "tags": {"name": "FGC Manresa Baixador", "operator": "FGC", "platforms": "2", "public_transport": "stop_position", "train": "yes"}}, "geometry": {"type": "Point", "coordinates": [1.8275698, 41.7314402]}}, {"type": "Feature", "properties": {"type": "node", "id": 150694836, "tags": {"name": "Viladecavalls", "public_transport": "stop_position", "railway": "stop", "train": "yes"}}, "geometry": {"type": "Point", "coordinates": [1.9570906, 41.5638732]}}, {"type": "Feature", "properties": {"type": "node", "id": 150694842, "tags": {"name": "Sant Miquel de Gonteres", "public_transport": "stop_position", "railway": "stop", "train": "yes"}}, "geometry": {"type": "Point", "coordinates": [1.9740133, 41.5690833]}}, {"type": "Feature", "properties": {"type": "node", "id": 151213351, "tags": {"name": "FGC Manresa Alta", "operator": "FGC", "platforms": "2", "public_transport": "stop_position", "train": "yes"}}, "geometry": {"type": "Point", "coordinates": [1.8334274, 41.7323789]}}, {"type": "Feature", "properties": {"type": "node", "id": 151213353, "tags": {"addr:city": "Manresa", "name": "Manresa", "network": "Rodalies de Catalunya", "public_transport": "stop_position", "railway": "stop", "ref": "2", "train": "yes"}}, "geometry": {"type": "Point", "coordinates": [1.8264868, 41.7202417]}}, {"type": "Feature", "properties": {"type": "node", "id": 162834010, "tags": {"alt_name": "Veguellina de \u00d3rbigo", "name": "Veguellina", "public_transport": "stop_position", "railway": "stop", "train": "yes"}}, "geometry": {"type": "Point", "coordinates": [-5.8875112, 42.4334754]}}, {"type": "Feature", "properties": {"type": "node", "id": 180555367, "tags": {"name": "\u1e36\u1e37uarca", "name:es": "Luarca", "public_transport": "stop_position", "railway": "station", "train": "yes", "wikidata": "Q17631277"}}, "geometry": {"type": "Point", "coordinates": [-6.5366775, 43.5375325]}}, {"type": "Feature", "properties": {"type": "node", "id": 181149582, "tags": {"name": "Villapedre", "public_transport": "stop_position", "railway": "station", "train": "yes", "wikidata": "Q17631456"}}, "geometry": {"type": "Point", "coordinates": [-6.6456725, 43.5465934]}}, {"type": "Feature", "properties": {"type": "node", "id": 181373324, "tags": {"name": "Loza", "public_transport": "stop_position", "railway": "halt", "train": "yes", "wikidata": "Q18224067"}}, "geometry": {"type": "Point", "coordinates": [-6.7716685, 43.5512044]}}, {"type": "Feature", "properties": {"type": "node", "id": 181758595, "tags": {"name": "Rinlo", "public_transport": "stop_position", "railway": "station", "train": "yes", "wikidata": "Q17631371"}}, "geometry": {"type": "Point", "coordinates": [-7.1087, 43.5497432]}}, {"type": "Feature", "properties": {"type": "node", "id": 183450369, "tags": {"name": "Reinante", "public_transport": "stop_position", "railway": "halt", "train": "yes", "wikidata": "Q17631363"}}, "geometry": {"type": "Point", "coordinates": [-7.1741435, 43.5498373]}}, {"type": "Feature", "properties": {"type": "node", "id": 183669186, "tags": {"name": "Barreiros", "operator": "FEVE", "public_transport": "station", "railway": "station", "train": "yes", "wikidata": "Q17631159"}}, "geometry": {"type": "Point", "coordinates": [-7.2253134, 43.5474484]}}, {"type": "Feature", "properties": {"type": "node", "id": 183669191, "tags": {"name": "Esteiro", "public_transport": "stop_position", "railway": "station", "train": "yes", "wikidata": "Q17631212"}}, "geometry": {"type": "Point", "coordinates": [-7.1460306, 43.5517451]}}, {"type": "Feature", "properties": {"type": "node", "id": 183669196, "tags": {"name": "Os Castros", "public_transport": "stop_position", "railway": "halt", "train": "yes"}}, "geometry": {"type": "Point", "coordinates": [-7.1310215, 43.5515489]}}, {"type": "Feature", "properties": {"type": "node", "id": 183951551, "tags": {"addr:city": "Torre del Bierzo", "name": "Torre del Bierzo", "public_transport": "stop_position", "railway": "stop", "train": "yes"}}, "geometry": {"type": "Point", "coordinates": [-6.3285956, 42.5955656]}}, {"type": "Feature", "properties": {"type": "node", "id": 184051644, "tags": {"name": "San Miguel de las Due\u00f1as", "railway": "station", "short_name": "San Miguel", "train": "yes"}}, "geometry": {"type": "Point", "coordinates": [-6.5239266, 42.5865006]}}, {"type": "Feature", "properties": {"type": "node", "id": 184082178, "tags": {"name": "Ponferrada", "public_transport": "stop_position", "railway": "stop", "train": "yes"}}, "geometry": {"type": "Point", "coordinates": [-6.6024719, 42.5457981]}}, {"type": "Feature", "properties": {"type": "node", "id": 186087546, "tags": {"name": "Gernika", "network": "Euskotren Trena", "operator": "Euskal Trenbide Sarea", "public_transport": "stop_position", "railway": "stop", "train": "yes"}}, "geometry": {"type": "Point", "coordinates": [-2.6761147, 43.3141943]}}, {"type": "Feature", "properties": {"type": "node", "id": 186087575, "tags": {"name": "Lurgorri", "operator": "Eusko Trenbideak", "public_transport": "stop_position", "railway": "halt", "train": "yes"}}, "geometry": {"type": "Point", "coordinates": [-2.6802726, 43.3067157]}}, {"type": "Feature", "properties": {"type": "node", "id": 186087656, "tags": {"name": "Muxika", "operator": "Eusko Trenbideak", "public_transport": "stop_position", "railway": "station", "train": "yes"}}, "geometry": {"type": "Point", "coordinates": [-2.6894431, 43.2867715]}}, {"type": "Feature", "properties": {"type": "node", "id": 186088146, "tags": {"name": "Zugastieta", "operator": "Eusko Trenbideak", "public_transport": "stop_position", "railway": "stop", "train": "yes"}}, "geometry": {"type": "Point", "coordinates": [-2.6931519, 43.2518976]}}, {"type": "Feature", "properties": {"type": "node", "id": 186109778, "tags": {"name": "Bedia", "operator": "Eusko Trenbideak", "public_transport": "stop_position", "railway": "stop", "train": "yes"}}, "geometry": {"type": "Point", "coordinates": [-2.7974733, 43.2061311]}}, {"type": "Feature", "properties": {"type": "node", "id": 186147560, "tags": {"name": "Usansolo", "operator": "Eusko Trenbideak", "public_transport": "stop_position", "railway": "stop", "train": "yes"}}, "geometry": {"type": "Point", "coordinates": [-2.821712, 43.2177305]}}, {"type": "Feature", "properties": {"type": "node", "id": 186271010, "tags": {"addr:city": "Vega de Magaz", "name": "Vega-Magaz", "public_transport": "stop_position", "railway": "stop", "train": "yes"}}, "geometry": {"type": "Point", "coordinates": [-6.0683965, 42.5536461]}}, {"type": "Feature", "properties": {"type": "node", "id": 186271013, "tags": {"addr:city": "Porqueros", "name": "Porqueros", "public_transport": "stop_position", "railway": "stop", "train": "yes", "uic_ref": "7120103", "wikidata": "Q5846954", "wikipedia": "es:Estaci\u00f3n de Porqueros"}}, "geometry": {"type": "Point", "coordinates": [-6.1085869, 42.5987914]}}, {"type": "Feature", "properties": {"type": "node", "id": 186271022, "tags": {"name": "La Granja de San Vicente", "public_transport": "stop_position", "railway": "stop", "short_name": "La Granja", "train": "yes", "wikipedia": "es:Estaci\u00f3n de La Granja"}}, "geometry": {"type": "Point", "coordinates": [-6.2948742, 42.6066636]}}, {"type": "Feature", "properties": {"type": "node", "id": 191262271, "tags": {"addr:city": "Sevilla", "name": "Sevilla - Santa Justa", "operator": "Adif", "public_transport": "station", "railway": "station", "wikidata": "Q801432"}}, "geometry": {"type": "Point", "coordinates": [-5.9752061, 37.3920924]}}, {"type": "Feature", "properties": {"type": "node", "id": 192922121, "tags": {"name": "Pesu\u00e9s", "public_transport": "stop_position", "railway": "halt", "train": "yes", "wikidata": "Q18602045", "wikipedia": "es:Estaci\u00f3n de Pes\u00faes"}}, "geometry": {"type": "Point", "coordinates": [-4.4801232, 43.3702989]}}, {"type": "Feature", "properties": {"type": "node", "id": 194308255, "tags": {"name": "La Caridad", "public_transport": "stop_position", "railway": "halt", "train": "yes", "wikidata": "Q17631241"}}, "geometry": {"type": "Point", "coordinates": [-6.8275598, 43.5470835]}}, {"type": "Feature", "properties": {"type": "node", "id": 194683237, "tags": {"name": "San Vicente de la Barquera", "public_transport": "station", "railway": "station", "train": "yes", "wikidata": "Q18602056", "wikipedia": "es:Estaci\u00f3n de San Vicente de la Barquera"}}, "geometry": {"type": "Point", "coordinates": [-4.4045521, 43.3677583]}}, {"type": "Feature", "properties": {"type": "node", "id": 194775289, "tags": {"name": "El Barcenal", "public_transport": "stop_position", "railway": "halt", "train": "yes", "wikidata": "Q18602068", "wikipedia": "es:Estaci\u00f3n de El Barcenal"}}, "geometry": {"type": "Point", "coordinates": [-4.3837541, 43.3409399]}}, {"type": "Feature", "properties": {"type": "node", "id": 196008171, "tags": {"name": "Trece\u00f1o", "public_transport": "stop_position", "railway": "halt", "train": "yes", "wikidata": "Q18602087"}}, "geometry": {"type": "Point", "coordinates": [-4.3090042, 43.3183997]}}, {"type": "Feature", "properties": {"type": "node", "id": 196129554, "tags": {"name": "Cabez\u00f3n de la Sal", "public_transport": "stop_position", "railway": "station", "train": "yes"}}, "geometry": {"type": "Point", "coordinates": [-4.2317705, 43.3078577]}}, {"type": "Feature", "properties": {"type": "node", "id": 196562108, "tags": {"name": "Ontoria", "public_transport": "stop_position", "railway": "halt", "train": "yes"}}, "geometry": {"type": "Point", "coordinates": [-4.2153748, 43.3152719]}}, {"type": "Feature", "properties": {"type": "node", "id": 196562113, "tags": {"name": "Virgen de la Pe\u00f1a", "public_transport": "stop_position", "railway": "halt", "train": "yes"}}, "geometry": {"type": "Point", "coordinates": [-4.1936438, 43.3230254]}}, {"type": "Feature", "properties": {"type": "node", "id": 196562135, "tags": {"name": "Casar de Periedo", "public_transport": "stop_position", "railway": "halt", "train": "yes"}}, "geometry": {"type": "Point", "coordinates": [-4.174907, 43.3388874]}}, {"type": "Feature", "properties": {"type": "node", "id": 196562200, "tags": {"name": "Golbardo", "public_transport": "stop_position", "railway": "halt", "train": "yes"}}, "geometry": {"type": "Point", "coordinates": [-4.1559946, 43.340431]}}, {"type": "Feature", "properties": {"type": "node", "id": 196562395, "tags": {"name": "San Pedro de Rudag\u00fcera", "public_transport": "stop_position", "railway": "station", "train": "yes"}}, "geometry": {"type": "Point", "coordinates": [-4.1493354, 43.3612306]}}, {"type": "Feature", "properties": {"type": "node", "id": 196584996, "tags": {"name": "Santa Isabel de Quijas", "public_transport": "stop_position", "railway": "halt", "train": "yes", "wikidata": "Q18603249", "wikipedia": "es:Estaci\u00f3n de Santa Isabel de Quijas"}}, "geometry": {"type": "Point", "coordinates": [-4.1117564, 43.3590508]}}, {"type": "Feature", "properties": {"type": "node", "id": 196671040, "tags": {"name": "Puente San Miguel", "public_transport": "stop_position", "railway": "station", "train": "yes", "wikidata": "Q18603277", "wikipedia": "es:Estaci\u00f3n de Puente San Miguel"}}, "geometry": {"type": "Point", "coordinates": [-4.0877347, 43.3587438]}}, {"type": "Feature", "properties": {"type": "node", "id": 196671086, "tags": {"name": "Altamira", "public_transport": "stop_position", "railway": "halt", "train": "yes", "wikidata": "Q18603433", "wikipedia": "es:Estaci\u00f3n de Altamira"}}, "geometry": {"type": "Point", "coordinates": [-4.0569419, 43.3519185]}}, {"type": "Feature", "properties": {"type": "node", "id": 202315596, "tags": {"access": "no", "name": "La Ba\u00f1eza", "railway": "station"}}, "geometry": {"type": "Point", "coordinates": [-5.905147, 42.2981438]}}, {"type": "Feature", "properties": {"type": "node", "id": 208679673, "tags": {"level": "-1", "name": "El Prat de Llobregat", "public_transport": "stop_position", "railway": "stop", "train": "yes"}}, "geometry": {"type": "Point", "coordinates": [2.0892724, 41.3309263]}}, {"type": "Feature", "properties": {"type": "node", "id": 209085535, "tags": {"name": "Aeroport", "public_transport": "stop_position", "railway": "stop", "train": "yes"}}, "geometry": {"type": "Point", "coordinates": [2.0732941, 41.3042187]}}, {"type": "Feature", "properties": {"type": "node", "id": 213834242, "tags": {"name": "Castelldefels", "public_transport": "stop_position", "railway": "stop", "ref": "1", "train": "yes"}}, "geometry": {"type": "Point", "coordinates": [1.979355, 41.2787884]}}, {"type": "Feature", "properties": {"type": "node", "id": 213841717, "tags": {"name": "Gav\u00e0", "public_transport": "stop_position", "train": "yes"}}, "geometry": {"type": "Point", "coordinates": [2.0105752, 41.3032222]}}, {"type": "Feature", "properties": {"type": "node", "id": 213850144, "tags": {"name": "Castelldefels", "public_transport": "stop_position", "railway": "stop", "train": "yes"}}, "geometry": {"type": "Point", "coordinates": [1.9793947, 41.2787632]}}, {"type": "Feature", "properties": {"type": "node", "id": 213854506, "tags": {"name": "Gav\u00e0", "public_transport": "stop_position", "train": "yes"}}, "geometry": {"type": "Point", "coordinates": [2.0106205, 41.3031565]}}, {"type": "Feature", "properties": {"type": "node", "id": 239801669, "tags": {"name": "Torrej\u00f3n de Ardoz", "public_transport": "stop_position", "train": "yes"}}, "geometry": {"type": "Point", "coordinates": [-3.4796015, 40.4546162]}}, {"type": "Feature", "properties": {"type": "node", "id": 240989832, "tags": {"name": "San Roque - La L\u00ednea", "public_transport": "stop_position", "railway": "stop", "train": "yes"}}, "geometry": {"type": "Point", "coordinates": [-5.4323419, 36.2137917]}}, {"type": "Feature", "properties": {"type": "node", "id": 241377022, "tags": {"name": "Castell\u00f3", "public_transport": "stop_position", "railway": "stop", "train": "yes"}}, "geometry": {"type": "Point", "coordinates": [-0.0519236, 39.9881203]}}, {"type": "Feature", "properties": {"type": "node", "id": 241780658, "tags": {"name": "Vila-real", "operator": "adif", "public_transport": "stop_position", "railway": "stop", "train": "yes"}}, "geometry": {"type": "Point", "coordinates": [-0.096542, 39.9329205]}}, {"type": "Feature", "properties": {"type": "node", "id": 241896202, "tags": {"name": "Oropesa del Mar", "operator": "Adif", "public_transport": "station", "railway": "station", "wikidata": "Q8841351", "wikipedia": "ca:Estaci\u00f3 d'Orpesa"}}, "geometry": {"type": "Point", "coordinates": [0.1399978, 40.0922912]}}, {"type": "Feature", "properties": {"type": "node", "id": 243348606, "tags": {"name": "Barcelona - el Clot-Arag\u00f3", "public_transport": "stop_position", "train": "yes", "uic_ref": "7100189", "wheelchair": "limited"}}, "geometry": {"type": "Point", "coordinates": [2.1874258, 41.4091045]}}, {"type": "Feature", "properties": {"type": "node", "id": 243358891, "tags": {"name": "Ronda", "public_transport": "stop_position", "railway": "stop", "ref": "7", "train": "yes"}}, "geometry": {"type": "Point", "coordinates": [-5.1619923, 36.7485499]}}, {"type": "Feature", "properties": {"type": "node", "id": 243762983, "tags": {"name": "Sant Feliu de Llobregat", "public_transport": "stop_position", "train": "yes"}}, "geometry": {"type": "Point", "coordinates": [2.048096, 41.3829662]}}, {"type": "Feature", "properties": {"type": "node", "id": 243763293, "tags": {"name": "el Papiol", "public_transport": "stop_position", "train": "yes"}}, "geometry": {"type": "Point", "coordinates": [2.0024344, 41.4353094]}}, {"type": "Feature", "properties": {"type": "node", "id": 243764476, "tags": {"name": "Castellbisbal", "public_transport": "stop_position", "train": "yes"}}, "geometry": {"type": "Point", "coordinates": [1.9676507, 41.4732493]}}, {"type": "Feature", "properties": {"type": "node", "id": 243769314, "tags": {"name": "Mollet - Sant Fost", "public_transport": "stop_position", "railway": "stop", "train": "yes"}}, "geometry": {"type": "Point", "coordinates": [2.2176857, 41.5333257]}}, {"type": "Feature", "properties": {"type": "node", "id": 243769682, "tags": {"name": "Montmel\u00f3", "public_transport": "stop_position", "railway": "stop", "train": "yes"}}, "geometry": {"type": "Point", "coordinates": [2.2457074, 41.5497928]}}, {"type": "Feature", "properties": {"type": "node", "id": 243770593, "tags": {"name": "Granollers Centre", "public_transport": "stop_position", "railway": "stop", "ref": "1", "train": "yes"}}, "geometry": {"type": "Point", "coordinates": [2.2915525, 41.5994577]}}, {"type": "Feature", "properties": {"type": "node", "id": 243770605, "tags": {"name": "les Franqueses - Granollers Nord", "public_transport": "stop_position", "railway": "stop", "train": "yes"}}, "geometry": {"type": "Point", "coordinates": [2.2944254, 41.6173221]}}, {"type": "Feature", "properties": {"type": "node", "id": 243996860, "tags": {"name": "Jardines de H\u00e9rcules", "public_transport": "stop_position", "railway": "stop", "train": "yes"}}, "geometry": {"type": "Point", "coordinates": [-5.9640269, 37.3329587]}}, {"type": "Feature", "properties": {"type": "node", "id": 243996863, "tags": {"name": "Bellavista", "public_transport": "stop_position", "railway": "stop", "train": "yes"}}, "geometry": {"type": "Point", "coordinates": [-5.9642577, 37.3215151]}}, {"type": "Feature", "properties": {"type": "node", "id": 243997039, "tags": {"name": "San Bernardo", "public_transport": "stop_position", "railway": "stop", "train": "yes"}}, "geometry": {"type": "Point", "coordinates": [-5.9795078, 37.3776623]}}, {"type": "Feature", "properties": {"type": "node", "id": 243997290, "tags": {"name": "Brenes", "public_transport": "stop_position", "railway": "stop", "train": "yes"}}, "geometry": {"type": "Point", "coordinates": [-5.8668053, 37.5460378]}}, {"type": "Feature", "properties": {"type": "node", "id": 244057404, "tags": {"name": "Nules - La Vilavella", "operator": "adif", "public_transport": "stop_position", "railway": "stop", "train": "yes"}}, "geometry": {"type": "Point", "coordinates": [-0.1522298, 39.8529378]}}, {"type": "Feature", "properties": {"type": "node", "id": 244078172, "tags": {"name": "Villanueva del Ariscal y Olivares", "public_transport": "stop_position", "railway": "stop", "train": "yes"}}, "geometry": {"type": "Point", "coordinates": [-6.1483348, 37.4072075]}}, {"type": "Feature", "properties": {"type": "node", "id": 244078247, "tags": {"name": "Camas", "public_transport": "stop_position", "railway": "stop", "train": "yes"}}, "geometry": {"type": "Point", "coordinates": [-6.0407872, 37.4179347]}}, {"type": "Feature", "properties": {"type": "node", "id": 244078266, "tags": {"name": "San Jer\u00f3nimo", "public_transport": "stop_position", "railway": "stop", "train": "yes"}}, "geometry": {"type": "Point", "coordinates": [-5.9814485, 37.4338375]}}, {"type": "Feature", "properties": {"type": "node", "id": 244104311, "tags": {"name": "Torrellano", "public_transport": "stop_position", "railway": "stop", "ref": "2", "train": "yes"}}, "geometry": {"type": "Point", "coordinates": [-0.5827699, 38.2896554]}}, {"type": "Feature", "properties": {"type": "node", "id": 244184062, "tags": {"name": "Tafalla", "public_transport": "platform", "railway": "station", "train": "yes", "wikidata": "Q4464200", "wikipedia": "es:Estaci\u00f3n de Tafalla"}}, "geometry": {"type": "Point", "coordinates": [-1.6713624, 42.5257737]}}, {"type": "Feature", "properties": {"type": "node", "id": 244749631, "tags": {"name": "\u00c1vila", "public_transport": "stop_position", "train": "yes"}}, "geometry": {"type": "Point", "coordinates": [-4.682927, 40.6571613]}}, {"type": "Feature", "properties": {"type": "node", "id": 245491636, "tags": {"name": "Viladecans", "operator": "Renfe", "platforms": "2", "public_transport": "stop_position", "ref": "R2", "train": "yes"}}, "geometry": {"type": "Point", "coordinates": [2.0274602, 41.3093192]}}, {"type": "Feature", "properties": {"type": "node", "id": 245798428, "tags": {"name": "Segorbe - Ciudad", "public_transport": "stop_position", "railway": "stop", "train": "yes"}}, "geometry": {"type": "Point", "coordinates": [-0.4819714, 39.8473975]}}, {"type": "Feature", "properties": {"type": "node", "id": 246285119, "tags": {"name": "La Garena", "public_transport": "stop_position", "train": "yes"}}, "geometry": {"type": "Point", "coordinates": [-3.3929414, 40.4803074]}}, {"type": "Feature", "properties": {"type": "node", "id": 246285922, "tags": {"name": "San Fernando", "public_transport": "stop_position", "train": "yes", "wheelchair": "no"}}, "geometry": {"type": "Point", "coordinates": [-3.5341505, 40.4427562]}}, {"type": "Feature", "properties": {"type": "node", "id": 246286074, "tags": {"name": "Coslada", "public_transport": "stop_position", "railway": "stop", "train": "yes", "wheelchair": "yes"}}, "geometry": {"type": "Point", "coordinates": [-3.5609399, 40.4237099]}}, {"type": "Feature", "properties": {"type": "node", "id": 246286106, "tags": {"name": "Santa Eugenia", "public_transport": "stop_position", "train": "yes"}}, "geometry": {"type": "Point", "coordinates": [-3.6090186, 40.3871083]}}, {"type": "Feature", "properties": {"type": "node", "id": 246286147, "tags": {"name": "Vallecas", "public_transport": "stop_position", "railway": "stop", "train": "yes", "wheelchair": "yes"}}, "geometry": {"type": "Point", "coordinates": [-3.6244529, 40.3820676]}}, {"type": "Feature", "properties": {"type": "node", "id": 246464601, "tags": {"railway": "station"}}, "geometry": {"type": "Point", "coordinates": [-3.4787736, 40.4424951]}}, {"type": "Feature", "properties": {"type": "node", "id": 246680428, "tags": {"name": "Pu\u00e7ol", "name:es": "Puzol", "operator": "Adif", "public_transport": "stop_position", "railway": "stop", "train": "yes"}}, "geometry": {"type": "Point", "coordinates": [-0.3028439, 39.6204498]}}, {"type": "Feature", "properties": {"type": "node", "id": 246680466, "tags": {"name": "El Puig", "public_transport": "stop_position", "railway": "stop", "train": "yes"}}, "geometry": {"type": "Point", "coordinates": [-0.3118829, 39.5881886]}}, {"type": "Feature", "properties": {"type": "node", "id": 246824210, "tags": {"addr:city": "Borriana / Burriana", "addr:postcode": "12530", "name": "Borriana - Les Alqueries", "operator": "Adif", "public_transport": "station", "railway": "station", "train": "yes", "wikidata": "Q8779430", "wikipedia": "ca:Estaci\u00f3 de Borriana-les Alqueries"}}, "geometry": {"type": "Point", "coordinates": [-0.1040509, 39.8965047]}}, {"type": "Feature", "properties": {"type": "node", "id": 247107844, "tags": {"name": "Caudiel", "public_transport": "stop_position", "railway": "stop", "train": "yes"}}, "geometry": {"type": "Point", "coordinates": [-0.5721305, 39.9472263]}}, {"type": "Feature", "properties": {"type": "node", "id": 247377447, "tags": {"name": "Veredas-Brazatortas", "railway": "station"}}, "geometry": {"type": "Point", "coordinates": [-4.3170979, 38.6688122]}}, {"type": "Feature", "properties": {"type": "node", "id": 247378681, "tags": {"name": "Puertollano", "operator": "Renfe", "public_transport": "stop_position", "train": "yes"}}, "geometry": {"type": "Point", "coordinates": [-4.1118523, 38.6912727]}}, {"type": "Feature", "properties": {"type": "node", "id": 248516711, "tags": {"name": "Sanl\u00facar la Mayor", "public_transport": "stop_position", "railway": "stop", "train": "yes"}}, "geometry": {"type": "Point", "coordinates": [-6.1937346, 37.3815159]}}, {"type": "Feature", "properties": {"type": "node", "id": 249550930, "tags": {"name": "Arahal", "public_transport": "stop_position", "railway": "stop", "train": "yes"}}, "geometry": {"type": "Point", "coordinates": [-5.5485177, 37.2682077]}}, {"type": "Feature", "properties": {"type": "node", "id": 249560531, "tags": {"name": "Guadajoz", "public_transport": "stop_position", "railway": "stop", "train": "yes"}}, "geometry": {"type": "Point", "coordinates": [-5.6698305, 37.5815431]}}, {"type": "Feature", "properties": {"type": "node", "id": 250671605, "tags": {"name": "Girona", "public_transport": "stop_position", "railway": "stop", "ref": "2", "train": "yes"}}, "geometry": {"type": "Point", "coordinates": [2.8165965, 41.9790132]}}, {"type": "Feature", "properties": {"type": "node", "id": 250672678, "tags": {"name": "Fornells de la Selva", "public_transport": "stop_position", "railway": "stop", "train": "yes"}}, "geometry": {"type": "Point", "coordinates": [2.8094473, 41.9349333]}}, {"type": "Feature", "properties": {"type": "node", "id": 252119151, "tags": {"name": "Sineu", "public_transport": "stop_position", "railway": "stop", "train": "yes"}}, "geometry": {"type": "Point", "coordinates": [3.0145244, 39.6436662]}}, {"type": "Feature", "properties": {"type": "node", "id": 252753551, "tags": {"local_ref": "1", "name": "Alcal\u00e1 de Henares", "public_transport": "stop_position", "train": "yes", "wheelchair": "yes"}}, "geometry": {"type": "Point", "coordinates": [-3.3663138, 40.489143]}}, {"type": "Feature", "properties": {"type": "node", "id": 252753571, "tags": {"name": "Alcal\u00e1 Universidad", "public_transport": "stop_position", "train": "yes"}}, "geometry": {"type": "Point", "coordinates": [-3.3352683, 40.5053413]}}, {"type": "Feature", "properties": {"type": "node", "id": 252936435, "tags": {"name": "El Barrial-Centro Comercial Pozuelo", "public_transport": "stop_position", "train": "yes", "wheelchair": "limited"}}, "geometry": {"type": "Point", "coordinates": [-3.807697, 40.4655016]}}, {"type": "Feature", "properties": {"type": "node", "id": 254352375, "tags": {"name": "Tolosa-Centro", "name:eu": "Tolosa-Erdia", "operator": "Renfe", "public_transport": "stop_position", "railway": "stop", "train": "yes"}}, "geometry": {"type": "Point", "coordinates": [-2.0741676, 43.1394827]}}, {"type": "Feature", "properties": {"type": "node", "id": 254353570, "tags": {"name": "Araia", "public_transport": "stop_position", "train": "yes"}}, "geometry": {"type": "Point", "coordinates": [-2.3072118, 42.8692299]}}, {"type": "Feature", "properties": {"type": "node", "id": 254354338, "tags": {"name": "Altsasu-Alsasua", "public_transport": "stop_position", "train": "yes"}}, "geometry": {"type": "Point", "coordinates": [-2.1815541, 42.8955103]}}, {"type": "Feature", "properties": {"type": "node", "id": 254453384, "tags": {"name": "Toledo", "public_transport": "station", "railway": "station", "train": "yes", "wikidata": "Q801520", "wikipedia": "es:Estaci\u00f3n de Toledo"}}, "geometry": {"type": "Point", "coordinates": [-4.0108266, 39.8625625]}}, {"type": "Feature", "properties": {"type": "node", "id": 254489948, "tags": {"name": "Aranda de Duero", "public_transport": "station", "railway": "station"}}, "geometry": {"type": "Point", "coordinates": [-3.6969435, 41.6687676]}}, {"type": "Feature", "properties": {"type": "node", "id": 254504508, "tags": {"name": "El Goloso", "public_transport": "stop_position", "train": "yes"}}, "geometry": {"type": "Point", "coordinates": [-3.7139032, 40.5573183]}}, {"type": "Feature", "properties": {"type": "node", "id": 255167436, "tags": {"name": "Santa Mar\u00eda de la Alameda", "public_transport": "stop_position", "train": "yes"}}, "geometry": {"type": "Point", "coordinates": [-4.2693138, 40.5688379]}}, {"type": "Feature", "properties": {"type": "node", "id": 255403621, "tags": {"name": "Universitat Aut\u00f2noma", "platforms": "2", "public_transport": "stop_position", "railway": "stop", "train": "yes"}}, "geometry": {"type": "Point", "coordinates": [2.1026197, 41.5028563]}}, {"type": "Feature", "properties": {"type": "node", "id": 255403657, "tags": {"name": "Sant Quirze", "public_transport": "stop_position", "train": "yes"}}, "geometry": {"type": "Point", "coordinates": [2.0887794, 41.5299838]}}, {"type": "Feature", "properties": {"type": "node", "id": 255403713, "tags": {"name": "Sant Joan", "public_transport": "stop_position", "railway": "stop", "train": "yes"}}, "geometry": {"type": "Point", "coordinates": [2.0770145, 41.4903608]}}, {"type": "Feature", "properties": {"type": "node", "id": 255404189, "tags": {"name": "Peu del Funicular", "network": "Metro del Vall\u00e8s", "operator": "FGC Ferrocarrils de la Generalitat de Catalunya", "public_transport": "stop_position", "train": "yes"}}, "geometry": {"type": "Point", "coordinates": [2.1113891, 41.409073]}}, {"type": "Feature", "properties": {"type": "node", "id": 255404190, "tags": {"name": "Baixador de Vallvidrera", "operator": "FGC Ferrocarrils de la Generalitat de Catalunya", "public_transport": "stop_position", "railway": "stop", "train": "yes", "wheelchair": "yes"}}, "geometry": {"type": "Point", "coordinates": [2.0972589, 41.4198428]}}, {"type": "Feature", "properties": {"type": "node", "id": 255404197, "tags": {"name": "les Planes", "network": "Metro del Vall\u00e8s", "operator": "FGC Ferrocarrils de la Generalitat de Catalunya", "public_transport": "stop_position", "train": "yes"}}, "geometry": {"type": "Point", "coordinates": [2.0917069, 41.4275142]}}, {"type": "Feature", "properties": {"type": "node", "id": 255404232, "tags": {"name": "La Floresta", "network": "Metro del Vall\u00e8s", "operator": "FGC Ferrocarrils de la Generalitat de Catalunya", "public_transport": "stop_position", "train": "yes"}}, "geometry": {"type": "Point", "coordinates": [2.0733815, 41.4450863]}}, {"type": "Feature", "properties": {"type": "node", "id": 255404252, "tags": {"name": "Valldoreix", "network": "Metro del Vall\u00e8s", "operator": "FGC Ferrocarrils de la Generalitat de Catalunya", "public_transport": "stop_position", "train": "yes", "wheelchair": "limited"}}, "geometry": {"type": "Point", "coordinates": [2.0683585, 41.457714]}}, {"type": "Feature", "properties": {"type": "node", "id": 255405533, "tags": {"name": "Hospital General", "operator": "FGC", "public_transport": "stop_position", "railway": "stop", "train": "yes", "wheelchair": "yes"}}, "geometry": {"type": "Point", "coordinates": [2.0463723, 41.4762687]}}, {"type": "Feature", "properties": {"type": "node", "id": 255414740, "tags": {"name": "Sabadell Centre", "public_transport": "stop_position", "railway": "stop", "train": "yes"}}, "geometry": {"type": "Point", "coordinates": [2.1158386, 41.5464476]}}, {"type": "Feature", "properties": {"type": "node", "id": 255414756, "tags": {"name": "Sabadell Sud", "public_transport": "stop_position", "train": "yes", "wheelchair": "yes"}}, "geometry": {"type": "Point", "coordinates": [2.1051055, 41.5287351]}}, {"type": "Feature", "properties": {"type": "node", "id": 255414796, "tags": {"name": "Montcada Bifurcaci\u00f3", "public_transport": "stop_position", "railway": "stop", "train": "yes"}}, "geometry": {"type": "Point", "coordinates": [2.1797974, 41.4705122]}}, {"type": "Feature", "properties": {"type": "node", "id": 255414806, "tags": {"name": "Torre del Bar\u00f3", "public_transport": "stop_position", "train": "yes", "uic_ref": "7178801"}}, "geometry": {"type": "Point", "coordinates": [2.1805044, 41.4616519]}}, {"type": "Feature", "properties": {"type": "node", "id": 255415159, "tags": {"name": "Barcelona - Sant Andreu Arenal", "operator": "RENFE", "public_transport": "stop_position", "train": "yes", "uic_ref": "7178802"}}, "geometry": {"type": "Point", "coordinates": [2.1832437, 41.43023]}}, {"type": "Feature", "properties": {"type": "node", "id": 255454508, "tags": {"name": "Cabez\u00f3n de Pisuerga", "railway": "station"}}, "geometry": {"type": "Point", "coordinates": [-4.6511489, 41.7371444]}}, {"type": "Feature", "properties": {"type": "node", "id": 255566053, "tags": {"name": "Pozuelo", "public_transport": "stop_position", "railway": "stop", "train": "yes"}}, "geometry": {"type": "Point", "coordinates": [-3.8000491, 40.4474232]}}, {"type": "Feature", "properties": {"type": "node", "id": 256076380, "tags": {"name": "Santa Cruz de la Zarza", "railway": "station", "wikidata": "Q5847171"}}, "geometry": {"type": "Point", "coordinates": [-3.1805818, 39.9729308]}}, {"type": "Feature", "properties": {"type": "node", "id": 256116811, "tags": {"name": "San Clodio-Quiroga", "public_transport": "stop_position", "train": "yes"}}, "geometry": {"type": "Point", "coordinates": [-7.2872162, 42.4651464]}}, {"type": "Feature", "properties": {"type": "node", "id": 256575419, "tags": {"name": "Aravaca", "public_transport": "stop_position", "railway": "stop", "train": "yes"}}, "geometry": {"type": "Point", "coordinates": [-3.7856268, 40.4485849]}}, {"type": "Feature", "properties": {"type": "node", "id": 257347410, "tags": {"name": "Soria", "name:ar": "\u0633\u0631\u064a\u0627", "public_transport": "station", "railway": "station", "wikidata": "Q5847274", "wikipedia": "es:Estaci\u00f3n de Soria"}}, "geometry": {"type": "Point", "coordinates": [-2.4752997, 41.7553849]}}, {"type": "Feature", "properties": {"type": "node", "id": 257389418, "tags": {"name": "Elgoibar", "network": "Euskotren Trena", "operator": "Eusko Trenbideak", "public_transport": "stop_position", "railway": "stop", "train": "yes"}}, "geometry": {"type": "Point", "coordinates": [-2.4156654, 43.2135407]}}, {"type": "Feature", "properties": {"type": "node", "id": 257474716, "tags": {"name": "Quintana Redonda Renfe", "railway": "station"}}, "geometry": {"type": "Point", "coordinates": [-2.6096681, 41.6396588]}}, {"type": "Feature", "properties": {"type": "node", "id": 258412859, "tags": {"name": "Mataporquera", "public_transport": "stop_position", "railway": "stop", "train": "yes"}}, "geometry": {"type": "Point", "coordinates": [-4.1650865, 42.8712315]}}, {"type": "Feature", "properties": {"type": "node", "id": 258413922, "tags": {"name": "Los Carabeos", "operator": "ADIF", "public_transport": "stop_position", "railway": "stop", "source": "ADIF", "train": "yes"}}, "geometry": {"type": "Point", "coordinates": [-4.0753285, 42.9102576]}}, {"type": "Feature", "properties": {"type": "node", "id": 258415358, "tags": {"name": "Mave", "railway": "station"}}, "geometry": {"type": "Point", "coordinates": [-4.2757294, 42.7233624]}}, {"type": "Feature", "properties": {"type": "node", "id": 258497300, "tags": {"name": "Reinosa", "public_transport": "stop_position", "railway": "station", "ref": "L160", "train": "yes", "wikidata": "Q5847037", "wikipedia": "es:Estaci\u00f3n de Reinosa"}}, "geometry": {"type": "Point", "coordinates": [-4.1409102, 42.9941355]}},