{"version": 0.6, "generator": "Overpass API 0.7.56.8 7d656e78", "osm3s": {"timestamp_osm_base": "2021-02-16T18:15:03Z", "timestamp_areas_base": "2021-02-16T17:27:03Z", "copyright": "The data included in this document is from www.openstreetmap.org. The data is made available under ODbL."}, "elements": [{"type": "node", "id": 24984214, "lat": 38.609897, "lon": -9.1015513, "tags": {"local_ref": "2", "name": "Fogueteiro", "public_transport": "stop_position", "railway": "stop", "train": "yes", "wikidata": "Q8779789", "wikipedia": "pt:Esta\u00e7\u00e3o Ferrovi\u00e1ria de Fogueteiro"}}, {"type": "node", "id": 25414208, "lat": 38.7404678, "lon": -9.1656799, "tags": {"local_ref": "3", "name": "Sete Rios", "network": "CP;Fertagus", "public_transport": "stop_position", "ref": "3", "train": "yes"}}, {"type": "node", "id": 25414256, "lat": 38.746226, "lon": -9.103204, "tags": {"local_ref": "2", "name": "Bra\u00e7o de Prata", "public_transport": "stop_position", "railway": "stop", "train": "yes"}}, {"type": "node", "id": 25414265, "lat": 38.7478486, "lon": -9.1024336, "tags": {"local_ref": "3", "name": "Bra\u00e7o de Prata", "public_transport": "stop_position", "railway": "stop", "ref": "3", "train": "yes"}}, {"type": "node", "id": 25447819, "lat": 40.8639776, "lon": -8.6166247, "tags": {"local_ref": "2", "name": "Ovar", "public_transport": "stop_position", "railway": "stop", "ref": "2", "source": "Bing", "train": "yes", "wikidata": "Q8841397", "wikipedia": "pt:Esta\u00e7\u00e3o Ferrovi\u00e1ria de Ovar"}}, {"type": "node", "id": 25447852, "lat": 40.8084233, "lon": -8.5853802, "tags": {"name": "Avanca", "public_transport": "stop_position", "railway": "stop", "source": "Bing", "train": "yes"}}, {"type": "node", "id": 25452599, "lat": 41.1600914, "lon": -8.3728889, "tags": {"name": "Parada", "railway": "station"}}, {"type": "node", "id": 25453091, "lat": 41.2573561, "lon": -8.1989653, "tags": {"name": "Oliveira", "public_transport": "stop_position", "railway": "station", "train": "yes", "wikidata": "Q13541962", "wikipedia": "pt:Apeadeiro de Oliveira"}}, {"type": "node", "id": 26066192, "lat": 41.1035397, "lon": -8.0905856, "tags": {"name": "Pala", "public_transport": "stop_position", "railway": "station", "train": "yes", "wikidata": "Q14492683", "wikipedia": "pt:Apeadeiro de Pala"}}, {"type": "node", "id": 26066645, "lat": 41.0945743, "lon": -8.0695387, "tags": {"name": "Mosteir\u00f4", "public_transport": "stop_position", "railway": "station", "train": "yes", "wikidata": "Q8841105", "wikipedia": "pt:Esta\u00e7\u00e3o Ferrovi\u00e1ria de Mosteir\u00f4"}}, {"type": "node", "id": 26066680, "lat": 41.0965664, "lon": -8.0378694, "tags": {"disused": "yes", "name": "Portuzelo", "public_transport": "stop_position", "train": "yes", "wikidata": "Q14493173", "wikipedia": "pt:Apeadeiro de Portuzelo"}}, {"type": "node", "id": 26066737, "lat": 41.1175595, "lon": -7.9725717, "tags": {"name": "Mir\u00e3o", "public_transport": "stop_position", "railway": "station", "train": "yes", "wikidata": "Q13541964", "wikipedia": "pt:Apeadeiro de Mir\u00e3o"}}, {"type": "node", "id": 26066788, "lat": 41.1218644, "lon": -7.9106282, "tags": {"name": "Porto de Rei", "public_transport": "stop_position", "railway": "station", "train": "yes", "wikidata": "Q14493174"}}, {"type": "node", "id": 26066811, "lat": 41.1405254, "lon": -7.8874818, "tags": {"name": "Barqueiros", "public_transport": "stop_position", "railway": "station", "train": "yes", "wikidata": "Q518118", "wikipedia": "pt:Apeadeiro de Barqueiros"}}, {"type": "node", "id": 26066858, "lat": 41.1663186, "lon": -7.7988409, "tags": {"name": "Godim", "old_name": "Quatro Caminhos", "public_transport": "stop_position", "railway": "station", "train": "yes", "wikidata": "Q5481515", "wikipedia": "pt:Esta\u00e7\u00e3o Ferrovi\u00e1ria de Godim"}}, {"type": "node", "id": 26084825, "lat": 39.4672076, "lon": -8.3475575, "tags": {"alt_name": "Praia do Ribatejo - Const\u00e2ncia", "local_ref": "1", "name": "Praia do Ribatejo", "public_transport": "stop_position", "railway": "stop", "train": "yes"}}, {"type": "node", "id": 26085134, "lat": 39.547897, "lon": -8.4297709, "tags": {"name": "Curvaceiras", "public_transport": "stop_position", "railway": "stop", "train": "yes"}}, {"type": "node", "id": 26239383, "lat": 38.7978927, "lon": -9.3399843, "tags": {"local_ref": "2", "name": "Algueir\u00e3o/Mem Martins", "public_transport": "stop_position", "railway": "stop", "train": "yes"}}, {"type": "node", "id": 26241902, "lat": 38.7592123, "lon": -9.2346314, "tags": {"local_ref": "4", "name": "Amadora", "public_transport": "stop_position", "railway": "stop", "train": "yes"}}, {"type": "node", "id": 46756926, "lat": 37.0185604, "lon": -7.9398948, "tags": {"name": "Faro", "operator": "CP", "railway": "station", "railway:position": "83.5", "wikidata": "Q8779773"}}, {"type": "node", "id": 99313411, "lat": 40.1403503, "lon": -8.676265, "tags": {"name": "Marujal", "public_transport": "stop_position", "source": "bing", "train": "yes", "wikidata": "Q557999", "wikipedia": "pt:Apeadeiro de Marujal"}}, {"type": "node", "id": 99313431, "lat": 40.1395701, "lon": -8.7031259, "tags": {"local_ref": "1", "name": "Verride", "public_transport": "stop_position", "railway": "stop", "ref": "1", "source": "bing", "train": "yes", "wikidata": "Q10275801", "wikipedia": "pt:Esta\u00e7\u00e3o Ferrovi\u00e1ria de Verride"}}, {"type": "node", "id": 115910394, "lat": 40.1418816, "lon": -8.8138049, "tags": {"local_ref": "1", "name": "Fontela", "public_transport": "stop_position", "ref": "1", "train": "yes", "wikidata": "Q8779793", "wikipedia": "pt:Esta\u00e7\u00e3o Ferrovi\u00e1ria de Fontela"}}, {"type": "node", "id": 149659131, "lat": 38.6952655, "lon": -9.3708003, "tags": {"name": "S\u00e3o Pedro do Estoril", "public_transport": "stop_position", "railway": "stop", "train": "yes"}}, {"type": "node", "id": 167269115, "lat": 38.6895085, "lon": -9.355717, "tags": {"local_ref": "2", "name": "Parede", "public_transport": "stop_position", "railway": "stop", "train": "yes"}}, {"type": "node", "id": 203897248, "lat": 38.6878818, "lon": -9.3362869, "tags": {"local_ref": "2", "name": "Carcavelos", "public_transport": "stop_position", "railway": "stop", "train": "yes"}}, {"type": "node", "id": 206273437, "lat": 38.6884196, "lon": -9.3180504, "tags": {"local_ref": "2", "name": "Oeiras", "public_transport": "stop_position", "railway": "stop", "train": "yes"}}, {"type": "node", "id": 213764501, "lat": 38.697115, "lon": -9.2901409, "tags": {"local_ref": "2", "name": "Pa\u00e7o de Arcos", "public_transport": "stop_position", "railway": "stop", "train": "yes"}}, {"type": "node", "id": 242798620, "lat": 38.7009807, "lon": -9.3852464, "tags": {"local_ref": "2", "name": "S\u00e3o Jo\u00e3o do Estoril", "network": "Linha de Cascais", "operator": "CP", "public_transport": "stop_position", "railway": "stop", "train": "yes"}}, {"type": "node", "id": 242798658, "lat": 38.7032869, "lon": -9.3995444, "tags": {"local_ref": "1", "name": "Estoril", "public_transport": "stop_position", "railway": "stop", "train": "yes"}}, {"type": "node", "id": 242798713, "lat": 38.7008489, "lon": -9.4178362, "tags": {"local_ref": "3", "name": "Cascais", "public_transport": "stop_position", "railway": "stop", "train": "yes"}}, {"type": "node", "id": 247051124, "lat": 38.7322048, "lon": -9.1676048, "tags": {"local_ref": "4", "name": "Campolide", "network": "CP", "operator": "CP", "public_transport": "stop_position", "railway": "stop", "ref": "5", "train": "yes"}}, {"type": "node", "id": 250644941, "lat": 39.8379619, "lon": -8.5934415, "tags": {"local_ref": "2", "name": "Lit\u00e9m", "public_transport": "stop_position", "ref": "2", "source": "Bing", "train": "yes", "wikidata": "Q8202385", "wikipedia": "pt:Apeadeiro de Lit\u00e9m"}}, {"type": "node", "id": 254619227, "lat": 39.8180739, "lon": -7.4909014, "tags": {"name": "Castelo Branco", "name:ar": "\u0643\u0627\u0633\u062a\u064a\u0644\u0648 \u0628\u0631\u0627\u0646\u0643\u0648", "public_transport": "stop_position", "railway": "stop", "train": "yes"}}, {"type": "node", "id": 255315354, "lat": 40.6773816, "lon": -7.3280108, "tags": {"name": "Bara\u00e7al", "public_transport": "stop_position", "railway": "stop", "train": "yes"}}, {"type": "node", "id": 256623382, "lat": 38.6364434, "lon": -9.1517185, "tags": {"layer": "1", "name": "Corroios", "public_transport": "station", "railway": "station", "train": "yes", "wikidata": "Q8779656", "wikipedia": "pt:Esta\u00e7\u00e3o Ferrovi\u00e1ria de Corroios"}}, {"type": "node", "id": 256669851, "lat": 38.6661163, "lon": -9.1799665, "tags": {"public_transport": "stop_position", "railway": "stop"}}, {"type": "node", "id": 257290320, "lat": 38.7079402, "lon": -9.1731351, "tags": {"local_ref": "2", "name": "Alc\u00e2ntara-Terra", "network": "CP", "operator": "CP", "public_transport": "stop_position", "railway": "stop", "ref": "2", "train": "yes"}}, {"type": "node", "id": 257668396, "lat": 38.6206165, "lon": -9.1288556, "tags": {"name": "Foros de Amora", "railway": "station", "wikidata": "Q18475365", "wikipedia": "pt:Esta\u00e7\u00e3o Ferrovi\u00e1ria de Foros de Amora"}}, {"type": "node", "id": 257941452, "lat": 38.5846451, "lon": -9.0515177, "tags": {"name": "Coina", "railway": "stop", "wikidata": "Q580773", "wikipedia": "pt:Esta\u00e7\u00e3o Ferrovi\u00e1ria de Coina"}}, {"type": "node", "id": 257943176, "lat": 38.6299555, "lon": -8.912821, "tags": {"local_ref": "6", "name": "Pinhal Novo", "network": "CP;Fertagus", "operator": "CP;Fertagus", "public_transport": "stop_position", "railway": "stop", "ref": "6", "train": "yes", "wikidata": "Q801319", "wikipedia": "pt:Esta\u00e7\u00e3o Ferrovi\u00e1ria de Pinhal Novo"}}, {"type": "node", "id": 257943451, "lat": 38.6062275, "lon": -8.8886421, "tags": {"name": "Venda do Alcaide", "network": "CP;Fertagus", "operator": "CP;Fertagus", "public_transport": "stop_position", "railway": "stop", "ref": "2", "train": "yes", "wikidata": "Q18475342", "wikipedia": "pt:Esta\u00e7\u00e3o Ferrovi\u00e1ria da Venda do Alcaide"}}, {"type": "node", "id": 257944542, "lat": 38.5216228, "lon": -8.8834532, "tags": {"name": "Fontainhas - Sado", "public_transport": "stop_position", "train": "yes", "wikidata": "Q18482857", "wikipedia": "pt:Apeadeiro de Fontainhas - Sado"}}, {"type": "node", "id": 257944544, "lat": 38.5198045, "lon": -8.878328, "tags": {"name": "Set\u00fabal - Mar", "public_transport": "stop_position", "train": "yes", "wikidata": "Q10275794", "wikipedia": "pt:Esta\u00e7\u00e3o Ferrovi\u00e1ria de Set\u00fabal-Mar"}}, {"type": "node", "id": 257946325, "lat": 38.6382663, "lon": -8.9567587, "tags": {"name": "Penteado", "network": "CP", "operator": "CP", "public_transport": "stop_position", "railway": "stop", "ref": "2", "train": "yes", "wikidata": "Q8202403", "wikipedia": "pt:Apeadeiro do Penteado"}}, {"type": "node", "id": 257947152, "lat": 38.6594253, "lon": -9.0439474, "tags": {"name": "Baixa da Banheira", "network": "CP", "operator": "CP", "public_transport": "stop_position", "railway": "stop", "ref": "2", "train": "yes", "wikidata": "Q8202343", "wikipedia": "pt:Apeadeiro de Baixa da Banheira"}}, {"type": "node", "id": 257947246, "lat": 38.6596501, "lon": -9.0716706, "tags": {"name": "Barreiro A", "network": "CP", "operator": "CP", "public_transport": "stop_position", "railway": "stop", "ref": "2", "train": "yes", "wikidata": "Q8202346", "wikipedia": "pt:Apeadeiro de Barreiro-A"}}, {"type": "node", "id": 258220426, "lat": 38.5137439, "lon": -8.842239, "tags": {"alt_name": "Praias do Sado", "name": "Praias - Sado", "platforms": "2", "public_transport": "stop_position", "train": "yes", "wikipedia": "pt:Esta\u00e7\u00e3o Ferrovi\u00e1ria de Praias-Sado"}}, {"type": "node", "id": 269608173, "lat": 37.1185808, "lon": -8.6474579, "tags": {"name": "Meia Praia", "operator": "CP", "public_transport": "stop_position", "railway": "halt", "train": "yes", "wikidata": "Q8202394"}}, {"type": "node", "id": 283498149, "lat": 38.8305406, "lon": -9.3000257, "tags": {"name": "Sabugo", "public_transport": "stop_position", "railway": "station", "train": "yes", "wikidata": "Q10275790", "wikipedia": "pt:Esta\u00e7\u00e3o Ferrovi\u00e1ria de Sabugo"}}, {"type": "node", "id": 283499600, "lat": 38.897459, "lon": -9.2913723, "tags": {"name": "Mafra", "railway": "station", "wikidata": "Q10275776", "wikipedia": "pt:Esta\u00e7\u00e3o Ferrovi\u00e1ria de Mafra"}}, {"type": "node", "id": 283500671, "lat": 38.9286763, "lon": -9.2580244, "tags": {"name": "Malveira", "public_transport": "stop_position", "train": "yes", "wikidata": "Q8841005", "wikipedia": "pt:Esta\u00e7\u00e3o Ferrovi\u00e1ria de Malveira"}}, {"type": "node", "id": 283560780, "lat": 38.9689107, "lon": -9.1992878, "tags": {"name": "Sapataria", "public_transport": "stop_position", "railway": "halt", "train": "yes", "wikidata": "Q18483365", "wikipedia": "pt:Apeadeiro de Sapataria"}}, {"type": "node", "id": 283560913, "lat": 38.9885437, "lon": -9.1974682, "tags": {"name": "Pero Negro", "public_transport": "stop_position", "train": "yes", "wikidata": "Q8841452", "wikipedia": "pt:Esta\u00e7\u00e3o Ferrovi\u00e1ria de Pero Negro"}}, {"type": "node", "id": 283561189, "lat": 39.0425555, "lon": -9.1845906, "tags": {"name": "Dois Portos", "public_transport": "stop_position", "railway": "station", "train": "yes", "wikidata": "Q5552454", "wikipedia": "pt:Esta\u00e7\u00e3o Ferrovi\u00e1ria de Dois Portos"}}, {"type": "node", "id": 283561422, "lat": 39.0926884, "lon": -9.254321, "tags": {"name": "Torres Vedras", "public_transport": "stop_position", "railway": "stop", "train": "yes", "wheelchair": "limited", "wikidata": "Q8842080", "wikipedia": "pt:Esta\u00e7\u00e3o Ferrovi\u00e1ria de Torres Vedras"}}, {"type": "node", "id": 287342640, "lat": 38.7471484, "lon": -9.2143865, "tags": {"local_ref": "1", "name": "Santa Cruz - Damaia", "public_transport": "stop_position", "railway": "stop", "train": "yes"}}, {"type": "node", "id": 287342641, "lat": 38.7472352, "lon": -9.2143426, "tags": {"local_ref": "2", "name": "Santa Cruz - Damaia", "public_transport": "stop_position", "railway": "stop", "train": "yes"}}, {"type": "node", "id": 287349462, "lat": 38.7405935, "lon": -9.1657101, "tags": {"local_ref": "1", "name": "Sete Rios", "network": "CP", "public_transport": "stop_position", "ref": "1", "train": "yes"}}, {"type": "node", "id": 287369020, "lat": 38.7450285, "lon": -9.1470632, "tags": {"local_ref": "1", "name": "Entrecampos", "public_transport": "stop_position", "railway": "stop", "train": "yes"}}, {"type": "node", "id": 287369028, "lat": 38.7446229, "lon": -9.1485, "tags": {"local_ref": "2", "name": "Entrecampos", "public_transport": "stop_position", "railway": "stop", "train": "yes"}}, {"type": "node", "id": 287369046, "lat": 38.7445778, "lon": -9.148489, "tags": {"local_ref": "3", "name": "Entrecampos", "public_transport": "stop_position", "railway": "stop", "train": "yes"}}, {"type": "node", "id": 287383809, "lat": 38.7458562, "lon": -9.1344417, "tags": {"local_ref": "1", "name": "Roma-Areeiro", "public_transport": "stop_position", "railway": "stop", "train": "yes"}}, {"type": "node", "id": 287383826, "lat": 38.7457303, "lon": -9.1355159, "tags": {"local_ref": "2", "name": "Roma-Areeiro", "public_transport": "stop_position", "railway": "stop", "train": "yes"}}, {"type": "node", "id": 287383903, "lat": 38.7456338, "lon": -9.1355052, "tags": {"local_ref": "3", "name": "Roma-Areeiro", "public_transport": "stop_position", "railway": "stop", "train": "yes"}}, {"type": "node", "id": 287383927, "lat": 38.7455268, "lon": -9.1367855, "tags": {"local_ref": "4", "name": "Roma-Areeiro", "public_transport": "stop_position", "railway": "stop", "train": "yes"}}, {"type": "node", "id": 287426033, "lat": 38.7478893, "lon": -9.1026072, "tags": {"local_ref": "1", "name": "Bra\u00e7o de Prata", "public_transport": "stop_position", "railway": "stop", "ref": "1", "train": "yes"}}, {"type": "node", "id": 289538875, "lat": 38.7586039, "lon": -9.2567933, "tags": {"local_ref": "1", "name": "Queluz/Belas", "network": "CP", "operator": "CP", "public_transport": "stop_position", "railway": "stop", "ref": "1", "train": "yes"}}, {"type": "node", "id": 289806640, "lat": 38.7555299, "lon": -9.2654971, "tags": {"local_ref": "4", "name": "Monte Abra\u00e3o", "network": "CP", "public_transport": "stop_position", "railway": "stop", "train": "yes"}}, {"type": "node", "id": 289806642, "lat": 38.7554066, "lon": -9.265185, "tags": {"local_ref": "1", "name": "Monte Abra\u00e3o", "network": "CP", "public_transport": "stop_position", "railway": "stop", "train": "yes"}}, {"type": "node", "id": 289806674, "lat": 38.7554764, "lon": -9.2653616, "tags": {"local_ref": "3", "name": "Monte Abra\u00e3o", "network": "CP", "public_transport": "stop_position", "railway": "stop", "train": "yes"}}, {"type": "node", "id": 289806700, "lat": 38.7554605, "lon": -9.2653214, "tags": {"local_ref": "2", "name": "Monte Abra\u00e3o", "network": "CP", "public_transport": "stop_position", "railway": "stop", "train": "yes"}}, {"type": "node", "id": 290037995, "lat": 38.7515167, "lon": -9.2838975, "tags": {"local_ref": "1", "name": "Massam\u00e1-Barcarena", "public_transport": "stop_position", "railway": "stop", "train": "yes"}}, {"type": "node", "id": 290042320, "lat": 38.7664767, "lon": -9.2986278, "tags": {"local_ref": "1", "name": "Agualva - Cac\u00e9m", "public_transport": "stop_position", "railway": "stop", "train": "yes", "wheelchair": "yes"}}, {"type": "node", "id": 290295579, "lat": 38.7895974, "lon": -9.3126305, "tags": {"local_ref": "3", "name": "Mira Sintra-Mele\u00e7as", "public_transport": "stop_position", "ref": "3", "train": "yes"}}, {"type": "node", "id": 290295600, "lat": 38.7895857, "lon": -9.3126731, "tags": {"local_ref": "2", "name": "Mira Sintra-Mele\u00e7as", "public_transport": "stop_position", "ref": "2", "train": "yes"}}, {"type": "node", "id": 290560687, "lat": 38.7845691, "lon": -9.3221058, "tags": {"local_ref": "1", "name": "Rio de Mouro", "public_transport": "stop_position", "railway": "stop", "train": "yes"}}, {"type": "node", "id": 290854065, "lat": 38.8022951, "lon": -9.3752475, "tags": {"local_ref": "2", "name": "Portela de Sintra", "network": "CP", "public_transport": "stop_position", "railway": "stop", "train": "yes"}}, {"type": "node", "id": 291120479, "lat": 38.7320791, "lon": -9.1677582, "tags": {"local_ref": "2", "name": "Campolide", "network": "CP", "operator": "CP", "public_transport": "stop_position", "railway": "stop", "ref": "2", "train": "yes"}}, {"type": "node", "id": 293283657, "lat": 38.7108485, "lon": -9.1766739, "tags": {"name": "Alvito-A", "public_transport": "stop_position", "train": "yes", "wikidata": "Q8779270", "wikipedia": "pt:Esta\u00e7\u00e3o Ferrovi\u00e1ria de Alvito-A"}}, {"type": "node", "id": 293283696, "lat": 38.7108454, "lon": -9.176621, "tags": {"name": "Alvito-A", "public_transport": "stop_position", "train": "yes", "wikidata": "Q8779270", "wikipedia": "pt:Esta\u00e7\u00e3o Ferrovi\u00e1ria de Alvito-A"}}, {"type": "node", "id": 293283726, "lat": 38.7108574, "lon": -9.1768134, "tags": {"name": "Alvito-A", "public_transport": "stop_position", "train": "yes", "wikidata": "Q8779270", "wikipedia": "pt:Esta\u00e7\u00e3o Ferrovi\u00e1ria de Alvito-A"}}, {"type": "node", "id": 293283770, "lat": 38.7108483, "lon": -9.1764906, "tags": {"name": "Alvito-A", "public_transport": "stop_position", "train": "yes", "wikidata": "Q8779270", "wikipedia": "pt:Esta\u00e7\u00e3o Ferrovi\u00e1ria de Alvito-A"}}, {"type": "node", "id": 301124993, "lat": 40.5342727, "lon": -6.9767189, "tags": {"disused": "yes", "name": "No\u00e9mi", "public_transport": "stop_position", "railway": "stop", "train": "yes"}}, {"type": "node", "id": 301126874, "lat": 40.4977944, "lon": -7.1479834, "tags": {"name": "Vila Fernando", "public_transport": "stop_position", "railway": "halt", "train": "yes"}}, {"type": "node", "id": 301126892, "lat": 40.5070379, "lon": -7.0907255, "tags": {"name": "Rochoso", "public_transport": "stop_position", "railway": "stop", "train": "yes"}}, {"type": "node", "id": 301126925, "lat": 40.5193241, "lon": -7.0132775, "tags": {"name": "Miuzela", "public_transport": "stop_position", "railway": "stop", "train": "yes"}}, {"type": "node", "id": 301126966, "lat": 40.5588243, "lon": -6.9412206, "tags": {"disused": "yes", "name": "Castelo Mendo", "public_transport": "stop_position", "railway": "stop", "train": "yes"}}, {"type": "node", "id": 301126976, "lat": 40.566546, "lon": -6.9162604, "tags": {"disused": "yes", "name": "Malhada Sorda", "public_transport": "stop_position", "railway": "stop", "train": "yes", "wikidata": "Q3014127", "wikipedia": "pt:Apeadeiro de Malhada Sorda"}}, {"type": "node", "id": 301127037, "lat": 40.600432, "lon": -6.8857887, "tags": {"alt_name": "Aldeia de S\u00e3o Sebasti\u00e3o", "name": "Aldeia", "public_transport": "stop_position", "railway": "stop", "train": "yes"}}, {"type": "node", "id": 304981634, "lat": 38.5604657, "lon": -7.90721, "tags": {"local_ref": "1", "name": "\u00c9vora", "public_transport": "stop_position", "railway": "stop", "ref": "1", "source": "Bing", "train": "yes"}}, {"type": "node", "id": 304982112, "lat": 38.498227, "lon": -8.1582156, "tags": {"name": "Casa Branca", "public_transport": "stop_position", "railway": "stop", "train": "yes", "wikidata": "Q8779519", "wikipedia": "pt:Esta\u00e7\u00e3o Ferrovi\u00e1ria de Casa Branca"}}, {"type": "node", "id": 338880663, "lat": 42.0247363, "lon": -8.6393931, "tags": {"local_ref": "1", "name": "Valen\u00e7a", "operator": "Infraestruturas de Portugal", "public_transport": "stop_position", "railway": "stop", "railway:position": "129.8", "railway:position:exact": "129.769", "train": "yes"}}, {"type": "node", "id": 355731860, "lat": 41.3574346, "lon": -8.4062847, "tags": {"name": "Vila das Aves", "public_transport": "stop_position", "railway": "stop", "ref": "1", "train": "yes", "wikidata": "Q5400404"}}, {"type": "node", "id": 355731862, "lat": 41.3645718, "lon": -8.3887626, "tags": {"name": "Giesteira", "public_transport": "stop_position", "railway": "stop", "train": "yes"}}, {"type": "node", "id": 355733713, "lat": 41.3655809, "lon": -8.3635524, "tags": {"name": "Lordelo", "public_transport": "stop_position", "train": "yes", "wikidata": "Q8840964", "wikipedia": "pt:Esta\u00e7\u00e3o Ferrovi\u00e1ria de Lordelo"}}, {"type": "node", "id": 355738132, "lat": 41.3774132, "lon": -8.3240795, "tags": {"name": "Pereirinhas", "public_transport": "stop_position", "railway": "stop", "train": "yes"}}, {"type": "node", "id": 357586650, "lat": 41.4031909, "lon": -8.3195931, "tags": {"name": "Nespereira", "public_transport": "stop_position", "railway": "stop", "train": "yes"}}, {"type": "node", "id": 357586678, "lat": 41.421567, "lon": -8.3008387, "tags": {"name": "Covas", "public_transport": "stop_position", "railway": "stop", "train": "yes", "wikidata": "Q16531542"}}, {"type": "node", "id": 357591367, "lat": 41.4352017, "lon": -8.2942776, "tags": {"name": "Guimar\u00e3es", "public_transport": "stop_position", "railway": "stop", "ref": "1", "train": "yes", "wikidata": "Q8779877", "wikipedia": "pt:Esta\u00e7\u00e3o Ferrovi\u00e1ria de Guimar\u00e3es"}}, {"type": "node", "id": 366213453, "lat": 37.1209483, "lon": -7.655683, "tags": {"bus": "yes", "name": "Tavira", "public_transport": "stop_position", "train": "yes"}}, {"type": "node", "id": 370382269, "lat": 41.2069937, "lon": -7.418878, "tags": {"name": "Tua", "public_transport": "stop_position", "railway": "station", "train": "yes", "uic_ref": "9400042", "wikidata": "Q5242521", "wikipedia": "pt:Esta\u00e7\u00e3o Ferrovi\u00e1ria do Tua"}}, {"type": "node", "id": 370382367, "lat": 41.1346683, "lon": -7.211077, "tags": {"name": "Freixo de Num\u00e3o - M\u00f3s do Douro", "public_transport": "stop_position", "train": "yes", "uic_ref": "9400329"}}, {"type": "node", "id": 386803659, "lat": 41.0021526, "lon": -8.6434897, "tags": {"name": "Espinho-Vouga", "public_transport": "stop_position", "railway": "stop", "source": "Bing", "train": "yes", "uic_ref": "9400298", "wheelchair": "no"}}, {"type": "node", "id": 386803934, "lat": 40.9837047, "lon": -8.6052197, "tags": {"name": "Lapa", "public_transport": "stop_position", "railway": "stop", "train": "yes", "wheelchair": "no"}}, {"type": "node", "id": 386803950, "lat": 40.9840357, "lon": -8.5932852, "tags": {"name": "Sampaio-Oleiros", "public_transport": "stop_position", "railway": "stop", "train": "yes"}}, {"type": "node", "id": 386964514, "lat": 40.9720232, "lon": -8.5839613, "tags": {"name": "Pa\u00e7os de Brand\u00e3o", "public_transport": "stop_position", "railway": "stop", "train": "yes", "wheelchair": "no"}}, {"type": "node", "id": 387247122, "lat": 40.9609828, "lon": -8.5710622, "tags": {"name": "Rio Me\u00e3o", "public_transport": "stop_position", "railway": "stop", "train": "yes", "wheelchair": "no"}}, {"type": "node", "id": 387247295, "lat": 40.9554878, "lon": -8.5511253, "tags": {"name": "S\u00e3o Jo\u00e3o de Ver", "old_name": "S\u00e3o Jo\u00e3o de V\u00ear", "public_transport": "stop_position", "railway": "stop", "short_name": "S.J. Ver", "train": "yes"}}, {"type": "node", "id": 387247430, "lat": 40.9395509, "lon": -8.5373965, "tags": {"name": "Cavaco", "operator": "CP", "public_transport": "stop_position", "railway": "stop", "train": "yes", "wheelchair": "no"}}, {"type": "node", "id": 387248498, "lat": 40.9266914, "lon": -8.5309244, "tags": {"name": "Sanfins", "public_transport": "stop_position", "railway": "stop", "train": "yes", "wheelchair": "no"}}, {"type": "node", "id": 387253839, "lat": 40.8985929, "lon": -8.4952496, "tags": {"name": "S\u00e3o Jo\u00e3o da Madeira", "public_transport": "stop_position", "railway": "stop", "train": "yes", "wheelchair": "no"}}, {"type": "node", "id": 387254015, "lat": 40.8792263, "lon": -8.494969, "tags": {"name": "Faria", "public_transport": "stop_position", "railway": "stop", "train": "yes", "wheelchair": "no"}}, {"type": "node", "id": 387254394, "lat": 40.8681412, "lon": -8.4940989, "tags": {"name": "Couto de Cucuj\u00e3es", "public_transport": "stop_position", "railway": "stop", "train": "yes", "wheelchair": "no"}}, {"type": "node", "id": 387254421, "lat": 40.8512967, "lon": -8.4896168, "tags": {"name": "Santiago de Riba-Ul", "public_transport": "stop_position", "railway": "stop", "train": "yes"}}, {"type": "node", "id": 387255124, "lat": 40.8401745, "lon": -8.4817997, "tags": {"name": "Oliveira de Azem\u00e9is", "public_transport": "stop_position", "railway": "stop", "train": "yes"}}, {"type": "node", "id": 451623273, "lat": 38.1817791, "lon": -8.5546035, "tags": {"name": "Gr\u00e2ndola", "public_transport": "stop_position", "train": "yes", "wikidata": "Q8779870", "wikipedia": "pt:Esta\u00e7\u00e3o Ferrovi\u00e1ria de Gr\u00e2ndola"}}, {"type": "node", "id": 451623319, "lat": 38.1365403, "lon": -8.4897889, "tags": {"name": "Canal - Caveira", "public_transport": "stop_position", "train": "yes", "wikidata": "Q8779479", "wikipedia": "pt:Esta\u00e7\u00e3o Ferrovi\u00e1ria de Canal-Caveira"}}, {"type": "node", "id": 451623541, "lat": 37.710442, "lon": -8.3483743, "tags": {"name": "Garv\u00e3o", "public_transport": "stop_position", "train": "yes", "wikidata": "Q19702813", "wikipedia": "pt:Apeadeiro de Garv\u00e3o"}}, {"type": "node", "id": 451702195, "lat": 41.3653929, "lon": -8.3635578, "tags": {"name": "Lordelo", "railway": "station", "wikidata": "Q8840964", "wikipedia": "pt:Esta\u00e7\u00e3o Ferrovi\u00e1ria de Lordelo"}}, {"type": "node", "id": 457553749, "lat": 40.5775531, "lon": -8.448289, "tags": {"name": "\u00c1gueda", "public_transport": "stop_position", "train": "yes", "wikidata": "Q559338", "wikipedia": "pt:Esta\u00e7\u00e3o Ferrovi\u00e1ria de \u00c1gueda"}}, {"type": "node", "id": 480482514, "lat": 37.176396, "lon": -7.5380857, "tags": {"name": "Cacela", "public_transport": "stop_position", "train": "yes"}}, {"type": "node", "id": 485875832, "lat": 41.3765039, "lon": -8.3418593, "tags": {"name": "Cuca", "public_transport": "stop_position", "railway": "stop", "train": "yes"}}, {"type": "node", "id": 494946298, "lat": 37.0601759, "lon": -7.7516967, "tags": {"name": "Fuseta / Moncarapacho", "operator": "CP", "public_transport": "stop_position", "railway": "station", "train": "yes", "wikidata": "Q5789475"}}, {"type": "node", "id": 569673717, "lat": 38.6525549, "lon": -9.0793819, "tags": {"name": "Barreiro", "network": "CP", "operator": "CP", "public_transport": "stop_position", "railway": "stop", "ref": "3", "train": "yes", "wikidata": "Q800450", "wikipedia": "pt:Esta\u00e7\u00e3o Ferrovi\u00e1ria do Barreiro"}}, {"type": "node", "id": 679658354, "lat": 39.0682664, "lon": -8.8670329, "tags": {"name": "Azambuja", "public_transport": "stop_position", "ref": "Linha 1", "source": "Bing", "train": "yes", "wikidata": "Q8779323", "wikipedia": "pt:Esta\u00e7\u00e3o Ferrovi\u00e1ria da Azambuja"}}, {"type": "node", "id": 688008453, "lat": 41.1882049, "lon": -8.4874973, "tags": {"name": "Valongo", "network": "Linha do Marco", "operator": "CP", "railway": "station"}}, {"type": "node", "id": 762638479, "lat": 39.7880805, "lon": -7.5624689, "tags": {"name": "Benqueren\u00e7as", "public_transport": "stop_position", "railway": "stop", "train": "yes"}}, {"type": "node", "id": 762638618, "lat": 39.7167628, "lon": -7.6817575, "tags": {"name": "Tojeirinha", "public_transport": "stop_position", "railway": "stop", "train": "yes"}}, {"type": "node", "id": 762638703, "lat": 39.6551032, "lon": -7.6728597, "tags": {"alt_name": "Vila Velha de R\u00f3d\u00e3o", "name": "R\u00f3d\u00e3o", "public_transport": "stop_position", "railway": "stop", "train": "yes"}}, {"type": "node", "id": 762638739, "lat": 39.4723372, "lon": -8.0446383, "tags": {"alt_name": "Alvega", "name": "Alvega-Ortiga", "public_transport": "stop_position", "railway": "stop", "train": "yes"}}, {"type": "node", "id": 763620150, "lat": 37.0950656, "lon": -8.0239751, "tags": {"ele": "126.0", "name": "Almancil", "operator": "CP", "public_transport": "stop_position", "railway": "stop", "train": "yes", "wikidata": "Q8202328", "wikipedia": "pt:Apeadeiro de Almancil"}}, {"type": "node", "id": 782360583, "lat": 39.46233, "lon": -8.3742346, "tags": {"local_ref": "2", "name": "Almourol", "public_transport": "stop_position", "railway": "stop", "train": "yes"}}, {"type": "node", "id": 787351146, "lat": 41.027013, "lon": -6.9371876, "tags": {"abandoned": "yes", "disused": "yes", "name": "Barca d'Alva", "public_transport": "stop_position", "railway": "stop", "train": "yes"}}, {"type": "node", "id": 792103381, "lat": 40.0951626, "lon": -7.4619501, "tags": {"name": "Alpedrinha", "public_transport": "stop_position", "railway": "stop", "train": "yes"}}, {"type": "node", "id": 792103482, "lat": 40.149271, "lon": -7.410406, "tags": {"name": "Fatela - Penamacor", "public_transport": "stop_position", "railway": "stop", "train": "yes"}}, {"type": "node", "id": 795244801, "lat": 37.9900571, "lon": -7.9173986, "tags": {"name": "Penedo Gordo", "public_transport": "stop_position", "railway": "disused_station", "train": "yes", "wikidata": "Q921660", "wikipedia": "pt:Apeadeiro de Penedo Gordo"}}, {"type": "node", "id": 888553651, "lat": 40.0643939, "lon": -7.4607176, "tags": {"name": "Castelo Novo", "public_transport": "stop_position", "railway": "stop", "train": "yes"}}, {"type": "node", "id": 888583162, "lat": 40.1411208, "lon": -7.4962975, "tags": {"name": "Fund\u00e3o", "public_transport": "stop_position", "railway": "stop", "train": "yes"}}, {"type": "node", "id": 888584265, "lat": 40.1325486, "lon": -7.4734284, "tags": {"name": "Donas", "public_transport": "stop_position", "railway": "stop", "train": "yes"}}, {"type": "node", "id": 894787935, "lat": 41.141269, "lon": -7.2619031, "tags": {"name": "Ves\u00favio", "public_transport": "stop_position", "train": "yes", "uic_ref": "9400654"}}, {"type": "node", "id": 894787963, "lat": 41.1764778, "lon": -7.377785, "tags": {"name": "Alegria", "public_transport": "stop_position", "train": "yes", "uic_ref": "9400109"}}, {"type": "node", "id": 894787992, "lat": 41.1302883, "lon": -7.1234391, "tags": {"name": "Pocinho", "public_transport": "stop_position", "train": "yes", "uic_ref": "9400059", "wikidata": "Q8841498", "wikipedia": "pt:Esta\u00e7\u00e3o Ferrovi\u00e1ria do Pocinho"}}, {"type": "node", "id": 894788002, "lat": 41.1445237, "lon": -7.3314961, "tags": {"name": "Ferradosa", "public_transport": "stop_position", "train": "yes", "uic_ref": "9400309"}}, {"type": "node", "id": 894788031, "lat": 41.1431087, "lon": -7.31607, "tags": {"name": "Vargelas", "public_transport": "stop_position", "train": "yes", "uic_ref": "9400651", "wikidata": "Q8842178", "wikipedia": "pt:Esta\u00e7\u00e3o Ferrovi\u00e1ria de Vargelas"}}, {"type": "node", "id": 894788033, "lat": 41.1903803, "lon": -7.5451485, "tags": {"name": "Pinh\u00e3o", "public_transport": "stop_position", "railway": "station", "train": "yes", "uic_ref": "9400485", "wikidata": "Q526091", "wikipedia": "pt:Esta\u00e7\u00e3o Ferrovi\u00e1ria do Pinh\u00e3o"}}, {"type": "node", "id": 903625240, "lat": 41.3288633, "lon": -7.3575324, "tags": {"name": "Brunheda", "railway": "station", "wikidata": "Q19702710"}}, {"type": "node", "id": 903625251, "lat": 41.3378853, "lon": -7.3151658, "tags": {"name": "Code\u00e7ais", "public_transport": "station", "railway": "station", "wikidata": "Q19702734"}}, {"type": "node", "id": 903625267, "lat": 41.3479819, "lon": -7.278007, "tags": {"name": "Abreiro", "railway": "station", "wikidata": "Q19707105"}}, {"type": "node", "id": 903625281, "lat": 41.3674254, "lon": -7.2388896, "tags": {"name": "Ribeirinha", "railway": "station"}}, {"type": "node", "id": 903625290, "lat": 41.3843559, "lon": -7.2090146, "tags": {"name": "Vilarinho", "railway": "station", "wikidata": "Q19707199"}}, {"type": "node", "id": 903625302, "lat": 41.3879243, "lon": -7.1661366, "tags": {"name": "Cach\u00e3o", "railway": "station"}}, {"type": "node", "id": 903625332, "lat": 41.4816154, "lon": -7.1811537, "tags": {"name": "Mirandela", "railway": "station", "wikidata": "Q19707157"}}, {"type": "node", "id": 947587140, "lat": 38.6302373, "lon": -8.9128417, "tags": {"local_ref": "2", "name": "Pinhal Novo", "network": "CP", "operator": "CP", "public_transport": "stop_position", "railway": "stop", "ref": "2", "train": "yes", "wikidata": "Q801319", "wikipedia": "pt:Esta\u00e7\u00e3o Ferrovi\u00e1ria de Pinhal Novo"}}, {"type": "node", "id": 974443362, "lat": 38.4073845, "lon": -8.0959645, "tags": {"name": "Alc\u00e1\u00e7ovas", "public_transport": "stop_position", "railway": "stop", "train": "yes"}}, {"type": "node", "id": 974650052, "lat": 39.2804566, "lon": -7.7337849, "tags": {"name": "Mata", "public_transport": "stop_position", "source": "Bing", "train": "yes"}}, {"type": "node", "id": 974651705, "lat": 39.0153917, "lon": -7.256646, "tags": {"name": "Santa Eul\u00e1lia", "public_transport": "stop_position", "train": "yes", "wikidata": "Q8841815"}}, {"type": "node", "id": 1018972809, "lat": 41.1585557, "lon": -7.7836342, "tags": {"name": "R\u00e9gua", "public_transport": "stop_position", "railway": "station", "train": "yes", "wikidata": "Q10275789", "wikipedia": "pt:Esta\u00e7\u00e3o Ferrovi\u00e1ria de R\u00e9gua"}}, {"type": "node", "id": 1022129604, "lat": 40.6132114, "lon": -8.4532254, "tags": {"name": "Aguieira", "public_transport": "stop_position", "railway": "stop", "train": "yes"}}, {"type": "node", "id": 1024974420, "lat": 40.5872663, "lon": -8.4980536, "tags": {"name": "Caban\u00f5es", "public_transport": "stop_position", "railway": "stop", "train": "yes"}}, {"type": "node", "id": 1024974597, "lat": 40.5794329, "lon": -8.4879628, "tags": {"name": "Casal d'\u00c1lvaro", "public_transport": "stop_position", "railway": "stop", "train": "yes"}}, {"type": "node", "id": 1024974811, "lat": 40.5721302, "lon": -8.4767455, "tags": {"name": "Oronhe", "public_transport": "stop_position", "railway": "stop", "train": "yes"}}, {"type": "node", "id": 1033327735, "lat": 38.1631843, "lon": -7.8947015, "tags": {"name": "Cuba", "railway": "station", "wikidata": "Q8779681"}}, {"type": "node", "id": 1036607296, "lat": 40.635417, "lon": -8.4528613, "tags": {"name": "Carvalhal da Portela", "public_transport": "stop_position", "railway": "stop", "train": "yes"}}, {"type": "node", "id": 1036607311, "lat": 40.6241991, "lon": -8.4499576, "tags": {"name": "Valongo do Vouga", "public_transport": "stop_position", "railway": "stop", "train": "yes"}}, {"type": "node", "id": 1036607373, "lat": 40.6534539, "lon": -8.4583171, "tags": {"name": "Macinhata", "public_transport": "stop_position", "railway": "stop", "train": "yes"}}, {"type": "node", "id": 1060585888, "lat": 38.6976515, "lon": -9.2929752, "tags": {"name": "Navegantes", "operator": "SATU Oeiras", "railway": "station"}}, {"type": "node", "id": 1077150141, "lat": 38.5232734, "lon": -8.8230409, "tags": {"name": "Vale da Rosa", "public_transport": "stop_position", "train": "yes", "wikidata": "Q507758", "wikipedia": "pt:Esta\u00e7\u00e3o Ferrovi\u00e1ria de Vale da Rosa"}}, {"type": "node", "id": 1084486650, "lat": 40.6721882, "lon": -8.4527189, "tags": {"name": "Sernada do Vouga", "public_transport": "stop_position", "railway": "stop", "train": "yes"}}, {"type": "node", "id": 1089179349, "lat": 40.5115455, "lon": -7.2388917, "tags": {"alt_name": "Barrac\u00e3o", "name": "Barrac\u00e3o-Sabugal", "old_name": "Sabugal", "operator": "Infraestruturas de Portugal", "public_transport": "stop_position", "railway": "stop", "train": "yes"}}, {"type": "node", "id": 1104471266, "lat": 40.1222025, "lon": -8.7645296, "tags": {"name": "Bifurca\u00e7\u00e3o de Lares", "public_transport": "stop_position", "source": "bing", "train": "yes", "wikipedia": "pt:Esta\u00e7\u00e3o Ferrovi\u00e1ria de Bifurca\u00e7\u00e3o de Lares"}}, {"type": "node", "id": 1104471318, "lat": 40.0453664, "lon": -8.7816855, "tags": {"name": "Ribeira de Sei\u00e7a", "public_transport": "stop_position", "train": "yes", "wikidata": "Q18483280", "wikipedia": "pt:Apeadeiro de Ribeira de Sei\u00e7a"}}, {"type": "node", "id": 1106077259, "lat": 39.2651095, "lon": -9.1533714, "tags": {"name": "Bombarral", "railway": "station", "wikidata": "Q8779401", "wikipedia": "pt:Esta\u00e7\u00e3o Ferrovi\u00e1ria de Bombarral"}}, {"type": "node", "id": 1109937675, "lat": 38.0243931, "lon": -8.6723075, "tags": {"alt_name": "Apeadeiro de Cumeadas", "name": "Cumeadas", "public_transport": "stop_position", "train": "yes", "wikidata": "Q18482740", "wikipedia": "pt:Apeadeiro de Cumeadas"}}, {"type": "node", "id": 1109938092, "lat": 38.0176388, "lon": -8.7037105, "tags": {"name": "Santiago do Cac\u00e9m", "public_transport": "stop_position", "train": "yes", "wikidata": "Q18475517", "wikipedia": "pt:Esta\u00e7\u00e3o Ferrovi\u00e1ria de Santiago do Cac\u00e9m"}}, {"type": "node", "id": 1110005617, "lat": 37.6765904, "lon": -8.4548617, "tags": {"name": "Vale da Isca", "public_transport": "stop_position", "train": "yes", "wikidata": "Q19702880", "wikipedia": "pt:Apeadeiro de Vale da Isca"}}, {"type": "node", "id": 1110011181, "lat": 38.5735625, "lon": -8.7476243, "tags": {"name": "\u00c1guas de Moura", "public_transport": "stop_position", "train": "yes", "wikidata": "Q8842733", "wikipedia": "pt:Esta\u00e7\u00e3o Ferrovi\u00e1ria de \u00c1guas de Moura"}}, {"type": "node", "id": 1111100211, "lat": 39.5428769, "lon": -8.4716712, "tags": {"name": "Soudos - Vila Nova", "public_transport": "stop_position", "railway": "stop", "train": "yes"}}, {"type": "node", "id": 1111100219, "lat": 39.5486264, "lon": -8.462838, "tags": {"name": "Carrascal-Delongo", "public_transport": "stop_position", "railway": "stop", "train": "yes"}}, {"type": "node", "id": 1111100220, "lat": 39.5288386, "lon": -8.4689633, "tags": {"name": "Lamarosa", "public_transport": "stop_position", "source": "Bing", "train": "yes", "wikidata": "Q8840903", "wikipedia": "pt:Esta\u00e7\u00e3o Ferrovi\u00e1ria da Lamarosa"}}, {"type": "node", "id": 1111100222, "lat": 39.571175, "lon": -8.3953655, "tags": {"name": "Carvalhos de Figueiredo", "public_transport": "stop_position", "railway": "stop", "train": "yes"}}, {"type": "node", "id": 1111100226, "lat": 39.4617074, "lon": -8.4738481, "tags": {"local_ref": "9", "name": "Entroncamento", "public_transport": "stop_position", "railway": "stop", "ref": "9", "source": "Bing", "train": "yes", "wikidata": "Q9254161", "wikipedia": "pt:Esta\u00e7\u00e3o Ferrovi\u00e1ria do Entroncamento"}}, {"type": "node", "id": 1111100230, "lat": 39.5288035, "lon": -8.469102, "tags": {"local_ref": "2", "name": "Lamarosa", "public_transport": "stop_position", "ref": "2", "source": "Bing", "train": "yes", "wikidata": "Q8840903", "wikipedia": "pt:Esta\u00e7\u00e3o Ferrovi\u00e1ria da Lamarosa"}}, {"type": "node", "id": 1111112027, "lat": 39.1136202, "lon": -8.7778997, "tags": {"name": "Setil", "public_transport": "stop_position", "source": "Bing", "train": "yes", "wikidata": "Q8841950", "wikipedia": "pt:Esta\u00e7\u00e3o Ferrovi\u00e1ria do Setil"}}, {"type": "node", "id": 1111112030, "lat": 39.2420546, "lon": -8.6752599, "tags": {"name": "Santar\u00e9m", "public_transport": "stop_position", "ref": "1", "source": "Bing", "train": "yes", "wikidata": "Q8841887", "wikipedia": "pt:Esta\u00e7\u00e3o Ferrovi\u00e1ria de Santar\u00e9m"}}, {"type": "node", "id": 1116138942, "lat": 39.5260347, "lon": -7.8350761, "tags": {"local_ref": "1", "name": "Barca da Amieira - Envendos", "public_transport": "stop_position", "railway": "stop", "train": "yes", "wikidata": "Q8779343", "wikipedia": "pt:Esta\u00e7\u00e3o Ferrovi\u00e1ria de Barca da Amieira-Envendos"}}, {"type": "node", "id": 1138859728, "lat": 38.7058064, "lon": -9.1564164, "tags": {"local_ref": "1", "name": "Santos", "public_transport": "stop_position", "railway": "stop", "train": "yes"}}, {"type": "node", "id": 1138891252, "lat": 38.702821, "lon": -9.1730248, "tags": {"local_ref": "2", "name": "Alc\u00e2ntara-Mar", "public_transport": "stop_position", "railway": "stop", "train": "yes"}}, {"type": "node", "id": 1138891290, "lat": 38.7022093, "lon": -9.1742907, "tags": {"local_ref": "1", "name": "Alc\u00e2ntara-Mar", "public_transport": "stop_position", "railway": "stop", "train": "yes"}}, {"type": "node", "id": 1139052570, "lat": 38.6960749, "lon": -9.198423, "tags": {"local_ref": "1", "name": "Bel\u00e9m", "public_transport": "stop_position", "railway": "stop", "train": "yes"}}, {"type": "node", "id": 1139501066, "lat": 38.697125, "lon": -9.2917005, "tags": {"local_ref": "1", "name": "Pa\u00e7o de Arcos", "public_transport": "stop_position", "train": "yes"}}, {"type": "node", "id": 1139811757, "lat": 38.6594646, "lon": -9.0439319, "tags": {"name": "Baixa da Banheira", "network": "CP", "operator": "CP", "public_transport": "stop_position", "railway": "stop", "ref": "1", "train": "yes", "wikidata": "Q8202343", "wikipedia": "pt:Apeadeiro de Baixa da Banheira"}}, {"type": "node", "id": 1139843658, "lat": 38.6302755, "lon": -8.9128445, "tags": {"local_ref": "1", "name": "Pinhal Novo", "network": "CP", "operator": "CP", "public_transport": "stop_position", "railway": "stop", "ref": "1", "train": "yes", "wikidata": "Q801319", "wikipedia": "pt:Esta\u00e7\u00e3o Ferrovi\u00e1ria de Pinhal Novo"}}, {"type": "node", "id": 1139843742, "lat": 38.6301482, "lon": -8.9128351, "tags": {"local_ref": "3", "name": "Pinhal Novo", "network": "CP", "operator": "CP", "public_transport": "stop_position", "railway": "stop", "ref": "3", "train": "yes", "wikidata": "Q801319", "wikipedia": "pt:Esta\u00e7\u00e3o Ferrovi\u00e1ria de Pinhal Novo"}}, {"type": "node", "id": 1139844023, "lat": 38.6300927, "lon": -8.9128311, "tags": {"local_ref": "4", "name": "Pinhal Novo", "network": "CP", "operator": "CP", "public_transport": "stop_position", "railway": "stop", "ref": "4", "train": "yes", "wikidata": "Q801319", "wikipedia": "pt:Esta\u00e7\u00e3o Ferrovi\u00e1ria de Pinhal Novo"}}, {"type": "node", "id": 1139844191, "lat": 38.6299895, "lon": -8.9128235, "tags": {"local_ref": "5", "name": "Pinhal Novo", "network": "CP;Fertagus", "operator": "CP;Fertagus", "public_transport": "stop_position", "railway": "stop", "ref": "5", "train": "yes", "wikidata": "Q801319", "wikipedia": "pt:Esta\u00e7\u00e3o Ferrovi\u00e1ria de Pinhal Novo"}}, {"type": "node", "id": 1139862131, "lat": 38.5249254, "lon": -8.8864833, "tags": {"name": "Pra\u00e7a do Quebedo", "network": "CP", "operator": "CP", "public_transport": "stop_position", "railway": "stop", "ref": "1", "train": "yes", "wikidata": "Q18200540", "wikipedia": "pt:Apeadeiro de Pra\u00e7a do Quebedo"}}, {"type": "node", "id": 1139936219, "lat": 38.7775167, "lon": -9.0993557, "tags": {"local_ref": "4", "name": "Moscavide", "network": "Refer", "operator": "CP", "public_transport": "stop_position", "railway": "stop", "ref": "4", "train": "yes"}}, {"type": "node", "id": 1139936342, "lat": 38.7944482, "lon": -9.1000271, "tags": {"local_ref": "2", "name": "Sacav\u00e9m", "public_transport": "stop_position", "railway": "stop", "ref": "2", "train": "yes"}}, {"type": "node", "id": 1139936644, "lat": 38.7461963, "lon": -9.1030306, "tags": {"local_ref": "4", "name": "Bra\u00e7o de Prata", "public_transport": "stop_position", "railway": "stop", "train": "yes"}}, {"type": "node", "id": 1139936770, "lat": 38.7774999, "lon": -9.0995335, "tags": {"local_ref": "2", "name": "Moscavide", "network": "Refer", "operator": "CP", "public_transport": "stop_position", "railway": "stop", "ref": "2", "train": "yes"}}, {"type": "node", "id": 1139937195, "lat": 38.7944195, "lon": -9.0998508, "tags": {"local_ref": "4", "name": "Sacav\u00e9m", "public_transport": "stop_position", "railway": "stop", "ref": "4", "train": "yes"}}, {"type": "node", "id": 1140100094, "lat": 38.7008099, "lon": -9.4178223, "tags": {"local_ref": "2", "name": "Cascais", "public_transport": "stop_position", "railway": "stop", "train": "yes"}}, {"type": "node", "id": 1140100170, "lat": 38.7009571, "lon": -9.4178444, "tags": {"local_ref": "5", "name": "Cascais", "public_transport": "stop_position", "railway": "stop", "train": "yes"}}, {"type": "node", "id": 1140100183, "lat": 38.7009257, "lon": -9.417839, "tags": {"local_ref": "4", "name": "Cascais", "public_transport": "stop_position", "railway": "stop", "train": "yes"}}, {"type": "node", "id": 1142291349, "lat": 38.6998073, "lon": -9.2526684, "tags": {"local_ref": "1", "name": "Cruz Quebrada", "public_transport": "stop_position", "railway": "stop", "train": "yes"}}, {"type": "node", "id": 1144333348, "lat": 41.1528876, "lon": -7.826698, "tags": {"name": "Caldas de Moledo", "public_transport": "stop_position", "railway": "station", "train": "yes", "wikidata": "Q8202362", "wikipedia": "pt:Apeadeiro de Caldas de Moledo"}}, {"type": "node", "id": 1144471806, "lat": 41.1242837, "lon": -7.9509352, "tags": {"name": "Ermida", "old_name": "Ermidas do Sado", "public_transport": "stop_position", "railway": "station", "train": "yes", "wikidata": "Q8779731", "wikipedia": "pt:Esta\u00e7\u00e3o Ferrovi\u00e1ria de Ermida"}}, {"type": "node", "id": 1144472174, "lat": 41.1607186, "lon": -7.8660441, "tags": {"name": "Rede", "old_name": "R\u00eade", "public_transport": "stop_position", "railway": "station", "train": "yes", "wikidata": "Q8841586", "wikipedia": "pt:Esta\u00e7\u00e3o Ferrovi\u00e1ria de Rede"}}, {"type": "node", "id": 1145311011, "lat": 41.106412, "lon": -8.0074491, "tags": {"name": "Aregos", "public_transport": "stop_position", "railway": "station", "train": "yes", "wikidata": "Q8841586", "wikipedia": "pt:Esta\u00e7\u00e3o Ferrovi\u00e1ria de Rede"}}, {"type": "node", "id": 1145311014, "lat": 41.180986, "lon": -8.136861, "tags": {"name": "Marco de Canaveses", "public_transport": "stop_position", "railway": "station", "service": "commuter", "train": "yes", "website": "http://www.refer.pt/MenuPrincipal/REFER/Estacoes/Estacao.aspx?stationid=9409001", "wikidata": "Q8841023", "wikipedia": "pt:Esta\u00e7\u00e3o Ferrovi\u00e1ria de Marco de Canaveses"}}, {"type": "node", "id": 1145311099, "lat": 41.1406822, "lon": -8.1194427, "tags": {"name": "Juncal", "public_transport": "stop_position", "railway": "station", "train": "yes", "wikidata": "Q10275775", "wikipedia": "pt:Esta\u00e7\u00e3o Ferrovi\u00e1ria de Juncal"}}, {"type": "node", "id": 1145311103, "lat": 41.1063723, "lon": -8.0074457, "tags": {"public_transport": "stop_position", "railway": "stop", "train": "yes"}}, {"type": "node", "id": 1145648512, "lat": 41.1470811, "lon": -7.7336021, "tags": {"disused": "yes", "name": "Baga\u00faste", "public_transport": "stop_position", "train": "yes", "wikidata": "Q8202341", "wikipedia": "pt:Apeadeiro de Baga\u00faste"}}, {"type": "node", "id": 1145648687, "lat": 41.1522536, "lon": -7.6882218, "tags": {"name": "Covelinhas", "public_transport": "stop_position", "railway": "station", "train": "yes", "wikidata": "Q8779669", "wikipedia": "pt:Esta\u00e7\u00e3o Ferrovi\u00e1ria de Covelinhas"}}, {"type": "node", "id": 1145662482, "lat": 41.161859, "lon": -7.611073, "tags": {"name": "Ferr\u00e3o", "public_transport": "stop_position", "railway": "station", "train": "yes", "wikidata": "Q13534596", "wikipedia": "pt:Apeadeiro de Ferr\u00e3o"}}, {"type": "node", "id": 1146425993, "lat": 38.7839253, "lon": -9.3197594, "tags": {"local_ref": "2", "name": "Rio de Mouro", "public_transport": "stop_position", "railway": "stop", "train": "yes"}}, {"type": "node", "id": 1146426031, "lat": 38.7927814, "lon": -9.3300729, "tags": {"local_ref": "3", "name": "Merc\u00eas", "public_transport": "stop_position", "railway": "stop", "train": "yes"}}, {"type": "node", "id": 1146426061, "lat": 38.7975035, "lon": -9.3422101, "tags": {"local_ref": "1", "name": "Algueir\u00e3o/Mem Martins", "public_transport": "stop_position", "railway": "stop", "train": "yes"}}, {"type": "node", "id": 1146426324, "lat": 38.793498, "lon": -9.3312935, "tags": {"local_ref": "1", "name": "Merc\u00eas", "public_transport": "stop_position", "railway": "stop", "train": "yes"}}, {"type": "node", "id": 1146426351, "lat": 38.7992889, "lon": -9.3853964, "tags": {"local_ref": "2", "name": "Sintra", "public_transport": "stop_position", "railway": "stop", "train": "yes"}}, {"type": "node", "id": 1146426354, "lat": 38.7992051, "lon": -9.3853071, "tags": {"local_ref": "3", "name": "Sintra", "public_transport": "stop_position", "railway": "stop", "train": "yes"}}, {"type": "node", "id": 1146426487, "lat": 38.766545, "lon": -9.2983553, "tags": {"local_ref": "4", "name": "Agualva - Cac\u00e9m", "public_transport": "stop_position", "railway": "stop", "train": "yes", "wheelchair": "yes"}}, {"type": "node", "id": 1146426583, "lat": 38.7993127, "lon": -9.3854217, "tags": {"local_ref": "1", "name": "Sintra", "public_transport": "stop_position", "railway": "stop", "train": "yes"}}, {"type": "node", "id": 1146583232, "lat": 38.8066266, "lon": -9.0946712, "tags": {"local_ref": "4", "name": "Bobadela", "public_transport": "stop_position", "railway": "stop", "ref": "4", "train": "yes"}}, {"type": "node", "id": 1146584287, "lat": 38.8072974, "lon": -9.094376, "tags": {"local_ref": "3", "name": "Bobadela", "public_transport": "stop_position", "railway": "stop", "ref": "3", "train": "yes"}}, {"type": "node", "id": 1146584520, "lat": 38.8066738, "lon": -9.0948424, "tags": {"local_ref": "2", "name": "Bobadela", "public_transport": "stop_position", "railway": "stop", "ref": "2", "train": "yes"}}, {"type": "node", "id": 1146584555, "lat": 38.8904877, "lon": -9.033474, "tags": {"local_ref": "2", "name": "Alverca", "public_transport": "stop_position", "source": "Bing", "train": "yes", "website": "http://www.refer.pt/MenuPrincipal/Passageiros/EstacoesnaRede/Estacao.aspx?stationid=9431187", "wikidata": "Q8779267", "wikipedia": "pt:Esta\u00e7\u00e3o Ferrovi\u00e1ria de Alverca"}}, {"type": "node", "id": 1146584560, "lat": 38.8897934, "lon": -9.0340072, "tags": {"local_ref": "4", "name": "Alverca", "public_transport": "stop_position", "source": "Bing", "train": "yes", "website": "http://www.refer.pt/MenuPrincipal/Passageiros/EstacoesnaRede/Estacao.aspx?stationid=9431187", "wikidata": "Q8779267", "wikipedia": "pt:Esta\u00e7\u00e3o Ferrovi\u00e1ria de Alverca"}}, {"type": "node", "id": 1146585282, "lat": 38.8073451, "lon": -9.09455, "tags": {"local_ref": "1", "name": "Bobadela", "public_transport": "stop_position", "railway": "stop", "ref": "1", "train": "yes"}}, {"type": "node", "id": 1146585493, "lat": 38.8905595, "lon": -9.0335822, "tags": {"local_ref": "1", "name": "Alverca", "public_transport": "stop_position", "source": "Bing", "train": "yes", "website": "http://www.refer.pt/MenuPrincipal/Passageiros/EstacoesnaRede/Estacao.aspx?stationid=9431187", "wikidata": "Q8779267", "wikipedia": "pt:Esta\u00e7\u00e3o Ferrovi\u00e1ria de Alverca"}}, {"type": "node", "id": 1146585641, "lat": 38.8898715, "lon": -9.0340947, "tags": {"local_ref": "3", "name": "Alverca", "public_transport": "stop_position", "source": "Bing", "train": "yes", "website": "http://www.refer.pt/MenuPrincipal/Passageiros/EstacoesnaRede/Estacao.aspx?stationid=9431187", "wikidata": "Q8779267", "wikipedia": "pt:Esta\u00e7\u00e3o Ferrovi\u00e1ria de Alverca"}}, {"type": "node", "id": 1147521997, "lat": 38.5900099, "lon": -8.9952445, "tags": {"name": "Penalva", "public_transport": "stop_position", "train": "yes", "wikidata": "Q8841445", "wikipedia": "pt:Esta\u00e7\u00e3o Ferrovi\u00e1ria de Penalva"}}, {"type": "node", "id": 1152963375, "lat": 38.6666721, "lon": -9.1786323, "tags": {"local_ref": "4", "name": "Pragal", "public_transport": "stop_position", "railway": "stop", "ref": "4", "train": "yes", "wikidata": "Q801331", "wikipedia": "pt:Esta\u00e7\u00e3o Ferrovi\u00e1ria do Pragal"}}, {"type": "node", "id": 1152963410, "lat": 38.6659352, "lon": -9.1798395, "tags": {"public_transport": "stop_position", "railway": "stop"}}, {"type": "node", "id": 1152963514, "lat": 38.6660753, "lon": -9.1799378, "tags": {"local_ref": "3", "public_transport": "stop_position", "railway": "stop", "ref": "3", "train": "yes", "wikidata": "Q801331", "wikipedia": "pt:Esta\u00e7\u00e3o Ferrovi\u00e1ria do Pragal"}}, {"type": "node", "id": 1152963736, "lat": 38.6655864, "lon": -9.1806607, "tags": {"local_ref": "1", "name": "Pragal", "public_transport": "stop_position", "railway": "stop", "ref": "1", "train": "yes", "wikidata": "Q801331", "wikipedia": "pt:Esta\u00e7\u00e3o Ferrovi\u00e1ria do Pragal"}}, {"type": "node", "id": 1152964644, "lat": 38.6659746, "lon": -9.1798677, "tags": {"local_ref": "2", "public_transport": "stop_position", "railway": "stop", "ref": "2", "train": "yes", "wikidata": "Q801331", "wikipedia": "pt:Esta\u00e7\u00e3o Ferrovi\u00e1ria do Pragal"}}, {"type": "node", "id": 1167137457, "lat": 38.6884739, "lon": -9.3188141, "tags": {"name": "Oeiras", "public_transport": "stop_position", "railway": "stop", "train": "yes"}}, {"type": "node", "id": 1167137930, "lat": 38.6869122, "lon": -9.3118998, "tags": {"local_ref": "2", "name": "Santo Amaro", "public_transport": "stop_position", "railway": "stop", "train": "yes"}}, {"type": "node", "id": 1167138526, "lat": 38.688461, "lon": -9.3195773, "tags": {"local_ref": "1", "name": "Oeiras", "public_transport": "stop_position", "railway": "stop", "train": "yes"}}, {"type": "node", "id": 1167139017, "lat": 38.6872245, "lon": -9.3134493, "tags": {"local_ref": "1", "name": "Santo Amaro", "public_transport": "stop_position", "railway": "stop", "train": "yes"}}, {"type": "node", "id": 1168672852, "lat": 38.7035845, "lon": -9.4065239, "tags": {"local_ref": "2", "name": "Monte Estoril", "public_transport": "stop_position", "railway": "stop", "train": "yes"}}, {"type": "node", "id": 1168995788, "lat": 38.6877888, "lon": -9.3380557, "tags": {"local_ref": "1", "name": "Carcavelos", "public_transport": "stop_position", "railway": "stop", "ref": "1", "train": "yes"}}, {"type": "node", "id": 1168996042, "lat": 38.701368, "lon": -9.3862651, "tags": {"local_ref": "1", "name": "S\u00e3o Jo\u00e3o do Estoril", "network": "Linha de Cascais", "operator": "CP", "public_transport": "stop_position", "railway": "stop", "train": "yes"}}, {"type": "node", "id": 1168996168, "lat": 38.7031682, "lon": -9.3975091, "tags": {"local_ref": "2", "name": "Estoril", "public_transport": "stop_position", "railway": "stop", "train": "yes"}}, {"type": "node", "id": 1168996454, "lat": 38.6900992, "lon": -9.357461, "tags": {"local_ref": "1", "name": "Parede", "public_transport": "stop_position", "railway": "stop", "train": "yes"}}, {"type": "node", "id": 1188224116, "lat": 41.2022646, "lon": -8.5568762, "tags": {"local_ref": "1", "name": "Palmilheira", "operator": "Infraestruturas de Portugal", "public_transport": "stop_position", "railway": "stop", "railway:position": "6.6", "railway:position:exact": "6.620", "train": "yes"}}, {"type": "node", "id": 1194792584, "lat": 41.22051, "lon": -8.5357218, "tags": {"name": "Cabeda", "railway": "station", "wikidata": "Q5042671"}}, {"type": "node", "id": 1198755474, "lat": 41.1846756, "lon": -8.5570818, "tags": {"local_ref": "1", "name": "Rio Tinto", "operator": "Infraestruturas de Portugal", "public_transport": "stop_position", "railway": "stop", "railway:position": "4.8", "railway:position:exact": "4.749", "train": "yes", "wikidata": "Q10275788"}}, {"type": "node", "id": 1205990138, "lat": 41.4054957, "lon": -8.5293276, "tags": {"local_ref": "2", "name": "Famalic\u00e3o", "operator": "Infraestruturas de Portugal", "public_transport": "stop_position", "railway:position": "32.1", "railway:position:exact": "32.053", "train": "yes"}}, {"type": "node", "id": 1262418665, "lat": 38.5349066, "lon": -8.8144696, "tags": {"name": "Mourisca - Sado", "public_transport": "stop_position", "train": "yes"}}, {"type": "node", "id": 1273255165, "lat": 41.3008499, "lon": -8.5487717, "tags": {"local_ref": "1", "name": "Portela", "operator": "Infraestruturas de Portugal", "public_transport": "stop_position", "railway:position": "18.4", "railway:position:exact": "18.391", "train": "yes"}}, {"type": "node", "id": 1273261742, "lat": 41.2778749, "lon": -8.5536739, "tags": {"local_ref": "2", "name": "S\u00e3o Rom\u00e3o", "operator": "Infraestruturas de Portugal", "public_transport": "stop_position", "railway": "stop", "railway:position": "15.4", "railway:position:exact": "15.425", "train": "yes"}}, {"type": "node", "id": 1273269202, "lat": 41.2583674, "lon": -8.5581802, "tags": {"local_ref": "1", "name": "S\u00e3o Frutuoso", "operator": "Infraestruturas de Portugal", "public_transport": "stop_position", "railway": "stop", "railway:position": "13.1", "railway:position:exact": "13.116", "train": "yes"}}, {"type": "node", "id": 1304586453, "lat": 40.566989, "lon": -7.7155073, "tags": {"name": "Conten\u00e7as", "public_transport": "stop_position", "railway": "stop", "train": "yes"}}, {"type": "node", "id": 1306495518, "lat": 41.6802197, "lon": -8.7819674, "tags": {"local_ref": "2", "name": "Darque", "operator": "Infraestruturas de Portugal", "public_transport": "stop_position", "railway": "stop", "railway:position": "76.8", "railway:position:exact": "76.777", "train": "yes"}}, {"type": "node", "id": 1307914589, "lat": 37.7464591, "lon": -8.2925386, "tags": {"name": "Pan\u00f3ias", "public_transport": "stop_position", "railway": "disused_station", "train": "yes", "wikidata": "Q8202401", "wikipedia": "pt:Apeadeiro de Panoias"}}, {"type": "node", "id": 1313287326, "lat": 38.550568, "lon": -8.8054917, "tags": {"name": "Pontes", "public_transport": "stop_position", "train": "yes", "wikidata": "Q18483211", "wikipedia": "pt:Apeadeiro de Pontes"}}, {"type": "node", "id": 1354206154, "lat": 41.7016595, "lon": -8.8340911, "tags": {"name": "Elevador de Santa Luzia", "railway": "station"}}, {"type": "node", "id": 1366444356, "lat": 40.9248273, "lon": -8.6261022, "tags": {"name": "Carvalheira-Maceda", "public_transport": "stop_position", "railway": "stop", "source": "Bing", "train": "yes"}}, {"type": "node", "id": 1377692707, "lat": 38.6449156, "lon": -8.9966507, "tags": {"name": "Moita", "network": "CP", "operator": "CP", "public_transport": "stop_position", "railway": "stop", "ref": "1", "train": "yes", "wikidata": "Q8841062", "wikipedia": "pt:Esta\u00e7\u00e3o Ferrovi\u00e1ria da Moita"}}, {"type": "node", "id": 1383589801, "lat": 41.1721561, "lon": -8.354204, "tags": {"name": "C\u00eate", "public_transport": "stop_position", "source": "Bing", "train": "yes", "wikidata": "Q8779688"}}, {"type": "node", "id": 1385418417, "lat": 41.1697708, "lon": -8.4677958, "tags": {"name": "S\u00e3o Martinho do Campo", "railway": "station", "wikidata": "Q13541966", "wikipedia": "pt:Apeadeiro de S\u00e3o Martinho do Campo"}}, {"type": "node", "id": 1385418422, "lat": 41.2353433, "lon": -8.2742314, "tags": {"name": "Bustelo", "railway": "station"}}, {"type": "node", "id": 1385418436, "lat": 41.1812443, "lon": -8.3421684, "tags": {"name": "Irivo", "railway": "station"}}, {"type": "node", "id": 1385949214, "lat": 41.1612553, "lon": -8.418971, "tags": {"name": "Trancoso", "railway": "station", "wikidata": "Q14494675", "wikipedia": "pt:Apeadeiro de Trancoso"}}, {"type": "node", "id": 1386018900, "lat": 41.2530262, "lon": -8.2273241, "tags": {"public_transport": "stop_position", "railway": "stop", "train": "yes"}}, {"type": "node", "id": 1386018968, "lat": 41.192931, "lon": -8.337714, "tags": {"name": "Oleiros", "public_transport": "stop_position", "train": "yes", "wikidata": "Q13541963"}}, {"type": "node", "id": 1386030143, "lat": 41.1929188, "lon": -8.3376735, "tags": {"name": "Oleiros", "public_transport": "stop_position", "train": "yes", "wikidata": "Q13541963"}}, {"type": "node", "id": 1386030214, "lat": 41.2530045, "lon": -8.2273532, "tags": {"public_transport": "stop_position", "railway": "stop", "train": "yes"}}, {"type": "node", "id": 1386076362, "lat": 41.1714756, "lon": -8.3553953, "tags": {"name": "C\u00eate", "public_transport": "stop_position", "train": "yes", "wikidata": "Q8779688"}}, {"type": "node", "id": 1386076498, "lat": 41.1715584, "lon": -8.3554742, "tags": {"name": "C\u00eate", "public_transport": "stop_position", "train": "yes", "wikidata": "Q8779688"}}, {"type": "node", "id": 1386076500, "lat": 41.1612373, "lon": -8.4189157, "tags": {"public_transport": "stop_position", "railway": "stop", "train": "yes"}}, {"type": "node", "id": 1386095233, "lat": 41.1882942, "lon": -8.4872468, "tags": {"public_transport": "stop_position", "railway": "stop", "train": "yes"}}, {"type": "node", "id": 1386110544, "lat": 41.1846617, "lon": -8.5570353, "tags": {"local_ref": "2", "name": "Rio Tinto", "operator": "Infraestruturas de Portugal", "public_transport": "stop_position", "railway": "stop", "railway:position": "4.8", "railway:position:exact": "4.749", "train": "yes", "wikidata": "Q10275788"}}, {"type": "node", "id": 1388331187, "lat": 41.2161311, "lon": -8.1548589, "tags": {"public_transport": "stop_position", "railway": "stop", "train": "yes"}}, {"type": "node", "id": 1390093271, "lat": 41.1637852, "lon": -8.4383104, "tags": {"name": "Terronhas", "railway": "station", "wikidata": "Q8202411", "wikipedia": "pt:Apeadeiro de Terronhas"}}, {"type": "node", "id": 1390263719, "lat": 41.1453753, "lon": -8.6091178, "tags": {"public_transport": "stop_position", "railway": "stop", "ref": "5B", "train": "yes"}}, {"type": "node", "id": 1390263721, "lat": 41.1454135, "lon": -8.6091209, "tags": {"name": "4B", "public_transport": "stop_position", "railway": "stop", "train": "yes"}}, {"type": "node", "id": 1390263728, "lat": 41.1455118, "lon": -8.6091122, "tags": {"name": "3B", "public_transport": "stop_position", "railway": "stop", "train": "yes"}}, {"type": "node", "id": 1390263729, "lat": 41.1455426, "lon": -8.6091063, "tags": {"public_transport": "stop_position", "railway": "stop", "ref": "2B", "train": "yes"}}, {"type": "node", "id": 1393070418, "lat": 41.646257, "lon": -8.7010904, "tags": {"name": "Barroselas", "nat_ref": "06304", "old_name": "Barrosellas", "operating_times": "24/7", "operator": "Infraestruturas de Portugal", "public_transport": "station", "railway": "station", "railway:ref": "BAR", "start_date": "1878-07-01", "train": "yes", "wikidata": "Q5947399", "wikipedia": "pt:Esta\u00e7\u00e3o Ferrovi\u00e1ria de Barroselas"}}, {"type": "node", "id": 1395237632, "lat": 39.4617295, "lon": -8.4738856, "tags": {"local_ref": "10", "name": "Entroncamento", "public_transport": "stop_position", "railway": "stop", "ref": "10", "source": "Bing", "train": "yes", "wikidata": "Q9254161", "wikipedia": "pt:Esta\u00e7\u00e3o Ferrovi\u00e1ria do Entroncamento"}}, {"type": "node", "id": 1401030438, "lat": 41.2315609, "lon": -8.1752548, "tags": {"name": "Recesinhos", "old_name": "Castel\u00f5es", "public_transport": "stop_position", "railway": "station", "train": "yes"}}, {"type": "node", "id": 1401036849, "lat": 41.2460742, "lon": -8.1848443, "tags": {"public_transport": "stop_position", "railway": "stop", "train": "yes"}}, {"type": "node", "id": 1403385469, "lat": 41.5101209, "lon": -7.1623051, "tags": {"name": "Carvalhais", "public_transport": "station", "railway": "station"}}, {"type": "node", "id": 1403385493, "lat": 41.498194, "lon": -7.172801, "tags": {"name": "Jean Monet", "public_transport": "station", "railway": "station"}}, {"type": "node", "id": 1404638326, "lat": 41.2076041, "lon": -7.4200299, "tags": {"disused": "yes", "name": "Tua", "public_transport": "stop_position", "source": "bing", "train": "yes", "wikidata": "Q5242521", "wikipedia": "pt:Esta\u00e7\u00e3o Ferrovi\u00e1ria do Tua"}}, {"type": "node", "id": 1408512567, "lat": 41.1305741, "lon": -7.1235426, "tags": {"name": "Pocinho", "public_transport": "stop_position", "train": "yes", "uic_ref": "9400059"}}, {"type": "node", "id": 1409789295, "lat": 41.1681471, "lon": -7.5681774, "tags": {"disused": "yes", "name": "Chanceleiros", "public_transport": "stop_position", "train": "yes", "wikidata": "Q574770", "wikipedia": "pt:Apeadeiro de Chanceleiros"}}, {"type": "node", "id": 1409789366, "lat": 41.2131641, "lon": -7.4346933, "tags": {"disused": "yes", "name": "S\u00e3o Mamede do Tua", "public_transport": "stop_position", "train": "yes", "wikidata": "Q14494676"}}, {"type": "node", "id": 1409904254, "lat": 41.2037342, "lon": -7.464528, "tags": {"disused": "yes", "name": "Castedo", "public_transport": "stop_position", "train": "yes"}}, {"type": "node", "id": 1412142724, "lat": 41.1557152, "lon": -7.7709597, "tags": {"name": "Corgo", "railway": "station", "wikidata": "Q9624677"}}, {"type": "node", "id": 1418770700, "lat": 40.6093712, "lon": -8.5316885, "tags": {"name": "Eirol", "public_transport": "stop_position", "railway": "stop", "train": "yes"}}, {"type": "node", "id": 1422199979, "lat": 38.8021994, "lon": -9.3775035, "tags": {"local_ref": "1", "name": "Portela de Sintra", "network": "CP", "public_transport": "stop_position", "railway": "stop", "train": "yes"}}, {"type": "node", "id": 1436431412, "lat": 39.5526051, "lon": -8.3939363, "tags": {"local_ref": "1", "name": "Santa Cita", "public_transport": "stop_position", "railway": "stop", "ref": "1", "train": "yes"}}, {"type": "node", "id": 1454840294, "lat": 39.4612492, "lon": -8.3953206, "tags": {"name": "Tancos", "public_transport": "stop_position", "railway": "stop", "train": "yes"}}, {"type": "node", "id": 1457098225, "lat": 40.5217696, "lon": -7.2144745, "tags": {"name": "Gata", "public_transport": "stop_position", "railway": "stop", "train": "yes"}}, {"type": "node", "id": 1464057526, "lat": 40.5866477, "lon": -7.7602535, "tags": {"local_ref": "1", "name": "Mangualde", "public_transport": "stop_position", "railway": "stop", "ref": "1", "train": "yes"}}, {"type": "node", "id": 1473511443, "lat": 38.0027785, "lon": -8.4141841, "tags": {"name": "Ermidas-Sado", "network": "IP", "public_transport": "station", "railway": "station", "wikidata": "Q8779732"}}, {"type": "node", "id": 1490800054, "lat": 38.3728656, "lon": -8.5250174, "tags": {"name": "Alc\u00e1cer do Sal", "public_transport": "stop_position", "train": "yes", "wikidata": "Q10275762"}}, {"type": "node", "id": 1507539803, "lat": 40.2775158, "lon": -7.4961635, "tags": {"name": "Covilh\u00e3", "public_transport": "stop_position", "railway": "stop", "train": "yes"}}, {"type": "node", "id": 1518863463, "lat": 39.0507198, "lon": -8.9024788, "tags": {"name": "Espadanal da Azambuja", "public_transport": "stop_position", "source": "Bing", "train": "yes", "wikidata": "Q577716", "wikipedia": "pt:Apeadeiro de Espadanal da Azambuja"}}, {"type": "node", "id": 1530131534, "lat": 41.0671566, "lon": -8.649838, "tags": {"name": "Miramar", "public_transport": "stop_position", "railway": "stop", "source": "Bing", "train": "yes"}}, {"type": "node", "id": 1541645171, "lat": 38.6617966, "lon": -9.0582845, "tags": {"name": "Lavradio", "network": "CP", "operator": "CP", "public_transport": "stop_position", "railway": "stop", "ref": "2", "train": "yes", "wikidata": "Q5860044", "wikipedia": "pt:Esta\u00e7\u00e3o Ferrovi\u00e1ria do Lavradio"}}, {"type": "node", "id": 1547680274, "lat": 41.0062851, "lon": -8.644296, "tags": {"name": "Espinho", "public_transport": "stop_position", "railway": "stop", "ref": "2", "source": "Bing", "train": "yes", "uic_ref": "9400075", "wikidata": "Q8779739", "wikipedia": "pt:Esta\u00e7\u00e3o Ferrovi\u00e1ria de Espinho"}}, {"type": "node", "id": 1547696723, "lat": 40.9903511, "lon": -8.6407154, "tags": {"name": "Silvalde", "public_transport": "stop_position", "railway": "stop", "source": "Bing", "train": "yes", "uic_ref": "9400579", "wikidata": "Q9624753", "wikipedia": "pt:Apeadeiro de Silvalde"}}, {"type": "node", "id": 1547992451, "lat": 40.2144689, "lon": -8.4564224, "tags": {"local_ref": "2", "name": "Bencanta", "public_transport": "stop_position", "ref": "2", "source": "Bing", "train": "yes"}}, {"type": "node", "id": 1547992452, "lat": 40.2089708, "lon": -8.4709216, "tags": {"local_ref": "2", "name": "Espadaneira", "public_transport": "stop_position", "ref": "2", "source": "Bing", "train": "yes"}}, {"type": "node", "id": 1551407004, "lat": 40.9627709, "lon": -8.6354758, "tags": {"name": "Esmoriz", "public_transport": "stop_position", "railway": "stop", "source": "Bing", "train": "yes", "uic_ref": "9400295", "wikidata": "Q523028", "wikipedia": "pt:Esta\u00e7\u00e3o Ferrovi\u00e1ria de Esmoriz"}}, {"type": "node", "id": 1551407005, "lat": 40.9757007, "lon": -8.636881, "tags": {"name": "Paramos", "public_transport": "stop_position", "railway": "stop", "source": "Bing", "train": "yes", "uic_ref": "9400467", "wikidata": "Q8202402", "wikipedia": "pt:Apeadeiro de Paramos"}}, {"type": "node", "id": 1555877791, "lat": 39.265477, "lon": -8.0130117, "tags": {"local_ref": "1", "name": "Ponte de Sor", "public_transport": "stop_position", "ref": "1", "source": "Bing", "train": "yes", "wikidata": "Q8841524", "wikipedia": "pt:Esta\u00e7\u00e3o Ferrovi\u00e1ria de Ponte de Sor"}}, {"type": "node", "id": 1564048045, "lat": 41.1243381, "lon": -8.6341354, "tags": {"name": "Coimbr\u00f5es", "public_transport": "stop_position", "railway": "stop", "source": "Bing", "train": "yes"}}, {"type": "node", "id": 1564048046, "lat": 41.1243724, "lon": -8.634155, "tags": {"name": "Coimbr\u00f5es", "public_transport": "stop_position", "railway": "stop", "source": "Bing", "train": "yes"}}, {"type": "node", "id": 1564601429, "lat": 41.067171, "lon": -8.6498819, "tags": {"name": "Miramar", "public_transport": "stop_position", "railway": "stop", "source": "Bing", "train": "yes"}}, {"type": "node", "id": 1578363630, "lat": 37.4364946, "lon": -8.4464095, "tags": {"name": "Pereiras", "public_transport": "stop_position", "train": "yes", "wikidata": "Q19702836", "wikipedia": "pt:Apeadeiro de Pereiras"}}, {"type": "node", "id": 1591287244, "lat": 37.0303438, "lon": -7.8398806, "tags": {"name": "Olh\u00e3o", "name:ar": "\u0623\u0648\u0644\u0627\u0648", "name:fa": "\u0627\u0648\u0644\u0627\u0648", "public_transport": "stop_position", "railway": "stop", "train": "yes"}}, {"type": "node", "id": 1595515793, "lat": 39.2899686, "lon": -7.9854897, "tags": {"name": "Fazenda", "public_transport": "stop_position", "source": "Bing", "train": "yes"}}, {"type": "node", "id": 1604764489, "lat": 37.9367516, "lon": -8.3833369, "tags": {"name": "Alvalade", "railway": "station"}}, {"type": "node", "id": 1613192520, "lat": 38.9503587, "lon": -8.5409398, "tags": {"name": "Coruche", "public_transport": "station", "railway": "station", "wikidata": "Q5935961", "wikipedia": "pt:Esta\u00e7\u00e3o Ferrovi\u00e1ria de Coruche"}}, {"type": "node", "id": 1613217621, "lat": 38.6680764, "lon": -8.5855938, "tags": {"name": "S\u00e3o Jo\u00e3o das Craveiras", "public_transport": "stop_position", "railway": "stop", "train": "yes"}}, {"type": "node", "id": 1613218611, "lat": 38.6862565, "lon": -8.5153584, "tags": {"name": "Bombel", "public_transport": "stop_position", "railway": "stop", "train": "yes", "wikidata": "Q8779404", "wikipedia": "pt:Esta\u00e7\u00e3o Ferrovi\u00e1ria de Bombel"}}, {"type": "node", "id": 1613227278, "lat": 38.6365292, "lon": -8.6913957, "tags": {"local_ref": "1", "name": "Fernando P\u00f3", "operator": "IP", "public_transport": "stop_position", "railway": "stop", "ref": "1", "train": "yes"}}, {"type": "node", "id": 1618061589, "lat": 41.0838131, "lon": -7.1052301, "tags": {"abandoned": "yes", "disused": "yes", "name": "C\u00f4a", "public_transport": "stop_position", "railway": "stop", "train": "yes"}}, {"type": "node", "id": 1618130925, "lat": 38.6518592, "lon": -9.0268842, "tags": {"name": "Alhos Vedros", "network": "CP", "operator": "CP", "public_transport": "stop_position", "railway": "stop", "ref": "2", "train": "yes", "wikidata": "Q8202324", "wikipedia": "pt:Apeadeiro de Alhos Vedros"}}, {"type": "node", "id": 1618130932, "lat": 38.6448864, "lon": -8.9966591, "tags": {"name": "Moita", "network": "CP", "operator": "CP", "public_transport": "stop_position", "railway": "stop", "ref": "2", "train": "yes", "wikidata": "Q8841062", "wikipedia": "pt:Esta\u00e7\u00e3o Ferrovi\u00e1ria da Moita"}}, {"type": "node", "id": 1618131335, "lat": 38.6383011, "lon": -8.9567451, "tags": {"name": "Penteado", "network": "CP", "operator": "CP", "public_transport": "stop_position", "railway": "stop", "ref": "1", "train": "yes", "wikidata": "Q8202403", "wikipedia": "pt:Apeadeiro do Penteado"}}, {"type": "node", "id": 1618131804, "lat": 38.6518918, "lon": -9.0268718, "tags": {"name": "Alhos Vedros", "network": "CP", "operator": "CP", "public_transport": "stop_position", "railway": "stop", "ref": "1", "train": "yes", "wikidata": "Q8202324", "wikipedia": "pt:Apeadeiro de Alhos Vedros"}}, {"type": "node", "id": 1618132952, "lat": 38.6618332, "lon": -9.0582757, "tags": {"name": "Lavradio", "network": "CP", "operator": "CP", "public_transport": "stop_position", "railway": "stop", "ref": "1", "train": "yes", "wikidata": "Q5860044", "wikipedia": "pt:Esta\u00e7\u00e3o Ferrovi\u00e1ria do Lavradio"}}, {"type": "node", "id": 1620095283, "lat": 41.0350236, "lon": -7.0031373, "tags": {"abandoned": "yes", "disused": "yes", "name": "Almendra", "public_transport": "stop_position", "railway": "stop", "train": "yes"}}, {"type": "node", "id": 1620095292, "lat": 41.047009, "lon": -7.0502605, "tags": {"abandoned": "yes", "disused": "yes", "name": "Castelo Melhor", "public_transport": "stop_position", "railway": "stop", "train": "yes"}}, {"type": "node", "id": 1631424185, "lat": 37.6899822, "lon": -8.4143518, "tags": {"alt_name": "Amoreiras-Gare", "name": "Amoreiras-Odemira", "public_transport": "stop_position", "railway": "halt", "train": "yes", "wikidata": "Q966302", "wikipedia": "pt:Esta\u00e7\u00e3o Ferrovi\u00e1ria de Amoreiras-Odemira"}}, {"type": "node", "id": 1636670601, "lat": 37.1649052, "lon": -8.2563704, "tags": {"name": "Tunes", "public_transport": "stop_position", "train": "yes", "wikidata": "Q8842098", "wikipedia": "pt:Esta\u00e7\u00e3o Ferrovi\u00e1ria de Tunes"}}, {"type": "node", "id": 1639350027, "lat": 38.0677599, "lon": -8.4306168, "tags": {"name": "Azinheira dos Barros", "public_transport": "stop_position", "train": "yes", "wikidata": "Q18482511", "wikipedia": "pt:Apeadeiro de Azinheira dos Barros"}}, {"type": "node", "id": 1640853772, "lat": 41.2290581, "lon": -8.5517721, "tags": {"local_ref": "1", "name": "Travagem", "operator": "Infraestruturas de Portugal", "public_transport": "stop_position", "railway": "stop", "railway:position": "9.7", "railway:position:exact": "9.711", "train": "yes"}}, {"type": "node", "id": 1640853776, "lat": 41.2290605, "lon": -8.5517241, "tags": {"local_ref": "2", "name": "Travagem", "operator": "Infraestruturas de Portugal", "public_transport": "stop_position", "railway": "stop", "railway:position": "9.7", "railway:position:exact": "9.711", "train": "yes"}}, {"type": "node", "id": 1640863557, "lat": 41.2438277, "lon": -8.5567973, "tags": {"local_ref": "1", "name": "Leandro", "operator": "Infraestruturas de Portugal", "public_transport": "stop_position", "railway": "stop", "railway:position": "11.5", "railway:position:exact": "11.480", "train": "yes"}}, {"type": "node", "id": 1640863562, "lat": 41.2438347, "lon": -8.5567455, "tags": {"local_ref": "2", "name": "Leandro", "operator": "Infraestruturas de Portugal", "public_transport": "stop_position", "railway": "stop", "railway:position": "11.5", "railway:position:exact": "11.480", "train": "yes"}}, {"type": "node", "id": 1642557446, "lat": 41.220542, "lon": -8.535704, "tags": {"name": "Cabeda", "public_transport": "stop_position", "railway": "stop", "source": "Bing", "train": "yes"}}, {"type": "node", "id": 1642557449, "lat": 41.2205762, "lon": -8.5356874, "tags": {"name": "Cabeda", "public_transport": "stop_position", "railway": "stop", "source": "Bing", "train": "yes"}}, {"type": "node", "id": 1642557451, "lat": 41.2171066, "lon": -8.5544698, "tags": {"local_ref": "1", "name": "Ermesinde", "operator": "Infraestruturas de Portugal", "public_transport": "stop_position", "railway": "stop", "railway:position": "8.4", "railway:position:exact": "8.430", "train": "yes"}}, {"type": "node", "id": 1642557459, "lat": 41.2171096, "lon": -8.5544038, "tags": {"local_ref": "2", "name": "Ermesinde", "operator": "Infraestruturas de Portugal", "public_transport": "stop_position", "railway": "stop", "railway:position": "8.4", "railway:position:exact": "8.430", "train": "yes"}}, {"type": "node", "id": 1642557460, "lat": 41.2171161, "lon": -8.5542587, "tags": {"local_ref": "3", "name": "Ermesinde", "operator": "Infraestruturas de Portugal", "public_transport": "stop_position", "railway": "stop", "railway:position": "8.4", "railway:position:exact": "8.430", "train": "yes"}}, {"type": "node", "id": 1642557461, "lat": 41.2171187, "lon": -8.5542006, "tags": {"local_ref": "4", "name": "Ermesinde", "operator": "Infraestruturas de Portugal", "public_transport": "stop_position", "railway": "stop", "railway:position": "8.4", "railway:position:exact": "8.430", "train": "yes"}}, {"type": "node", "id": 1642557462, "lat": 41.2171233, "lon": -8.5540965, "tags": {"local_ref": "5", "name": "Ermesinde", "operator": "Infraestruturas de Portugal", "public_transport": "stop_position", "railway": "stop", "railway:position": "8.4", "railway:position:exact": "8.430", "train": "yes"}}, {"type": "node", "id": 1642557463, "lat": 41.2171255, "lon": -8.5540473, "tags": {"local_ref": "6", "name": "Ermesinde", "operator": "Infraestruturas de Portugal", "public_transport": "stop_position", "railway": "stop", "railway:position": "8.4", "railway:position:exact": "8.430", "train": "yes"}}, {"type": "node", "id": 1643292765, "lat": 41.1297437, "lon": -8.620266, "tags": {"local_ref": "2", "name": "Vila Nova de Gaia", "official_name": "Gaia", "public_transport": "stop_position", "railway": "stop", "ref": "2", "source": "Bing", "train": "yes"}}, {"type": "node", "id": 1643292783, "lat": 41.1297746, "lon": -8.6202939, "tags": {"local_ref": "1", "name": "Vila Nova de Gaia", "official_name": "Gaia", "public_transport": "stop_position", "railway": "stop", "ref": "1", "source": "Bing", "train": "yes"}}, {"type": "node", "id": 1643655286, "lat": 41.1114874, "lon": -8.637766, "tags": {"name": "Madalena", "operator": "REFER", "platforms": "2", "railway": "station", "source": "Bing", "wheelchair": "limited", "wikidata": "Q8202390", "wikipedia": "pt:Apeadeiro de Madalena"}}, {"type": "node", "id": 1643655287, "lat": 41.1114933, "lon": -8.6377853, "tags": {"name": "Madalena", "public_transport": "stop_position", "railway": "stop", "source": "Bing", "train": "yes"}}, {"type": "node", "id": 1643655288, "lat": 41.1114968, "lon": -8.6377473, "tags": {"name": "Madalena", "public_transport": "stop_position", "railway": "stop", "source": "Bing", "train": "yes"}}, {"type": "node", "id": 1643655289, "lat": 41.0990036, "lon": -8.6320385, "tags": {"name": "Valadares", "public_transport": "stop_position", "railway": "stop", "source": "Bing", "train": "yes"}}, {"type": "node", "id": 1643655290, "lat": 41.0990078, "lon": -8.6320831, "tags": {"name": "Valadares", "public_transport": "stop_position", "railway": "stop", "source": "Bing", "train": "yes"}}, {"type": "node", "id": 1644056607, "lat": 41.0502636, "lon": -8.6511038, "tags": {"name": "Aguda", "public_transport": "stop_position", "railway": "stop", "source": "Bing", "train": "yes", "wikidata": "Q8202327", "wikipedia": "pt:Apeadeiro de Aguda"}}, {"type": "node", "id": 1644056611, "lat": 41.0502714, "lon": -8.6510587, "tags": {"name": "Aguda", "public_transport": "stop_position", "railway": "stop", "source": "Bing", "train": "yes", "wikidata": "Q8202327", "wikipedia": "pt:Apeadeiro de Aguda"}}, {"type": "node", "id": 1644056630, "lat": 41.0815699, "lon": -8.6474577, "tags": {"name": "Francelos", "public_transport": "stop_position", "railway": "stop", "source": "Bing", "train": "yes"}}, {"type": "node", "id": 1644056631, "lat": 41.0815761, "lon": -8.6475024, "tags": {"name": "Francelos", "public_transport": "stop_position", "railway": "stop", "source": "Bing", "train": "yes"}}, {"type": "node", "id": 1645697059, "lat": 40.9248231, "lon": -8.6261459, "tags": {"name": "Carvalheira-Maceda", "public_transport": "stop_position", "railway": "stop", "source": "Bing", "train": "yes"}}, {"type": "node", "id": 1645697070, "lat": 40.9406448, "lon": -8.6302699, "tags": {"name": "Cortega\u00e7a", "public_transport": "stop_position", "railway": "stop", "source": "Bing", "train": "yes"}}, {"type": "node", "id": 1645697075, "lat": 40.940656, "lon": -8.6302247, "tags": {"name": "Cortega\u00e7a", "public_transport": "stop_position", "railway": "stop", "source": "Bing", "train": "yes"}}, {"type": "node", "id": 1645697079, "lat": 40.9627695, "lon": -8.6355218, "tags": {"name": "Esmoriz", "public_transport": "stop_position", "railway": "stop", "source": "Bing", "train": "yes", "uic_ref": "9400295", "wikidata": "Q523028", "wikipedia": "pt:Esta\u00e7\u00e3o Ferrovi\u00e1ria de Esmoriz"}}, {"type": "node", "id": 1645697086, "lat": 41.006288, "lon": -8.6444855, "tags": {"name": "Espinho", "public_transport": "stop_position", "railway": "stop", "ref": "1", "source": "Bing", "train": "yes", "uic_ref": "9400075", "wikidata": "Q8779739", "wikipedia": "pt:Esta\u00e7\u00e3o Ferrovi\u00e1ria de Espinho"}}, {"type": "node", "id": 1645697089, "lat": 41.0385258, "lon": -8.6471547, "tags": {"name": "Granja", "public_transport": "stop_position", "railway": "stop", "source": "Bing", "train": "yes", "wikidata": "Q10275772", "wikipedia": "pt:Esta\u00e7\u00e3o Ferrovi\u00e1ria de Granja"}}, {"type": "node", "id": 1645697099, "lat": 41.0385344, "lon": -8.6471114, "tags": {"name": "Granja", "public_transport": "stop_position", "railway": "stop", "source": "Bing", "train": "yes", "wikidata": "Q10275772", "wikipedia": "pt:Esta\u00e7\u00e3o Ferrovi\u00e1ria de Granja"}}, {"type": "node", "id": 1645697105, "lat": 40.9756938, "lon": -8.6369277, "tags": {"name": "Paramos", "public_transport": "stop_position", "railway": "stop", "source": "Bing", "train": "yes", "uic_ref": "9400467", "wikidata": "Q8202402", "wikipedia": "pt:Apeadeiro de Paramos"}}, {"type": "node", "id": 1645697116, "lat": 40.9903443, "lon": -8.6407608, "tags": {"name": "Silvalde", "public_transport": "stop_position", "railway": "stop", "source": "Bing", "train": "yes", "uic_ref": "9400579", "wikidata": "Q9624753", "wikipedia": "pt:Apeadeiro de Silvalde"}}, {"type": "node", "id": 1645708310, "lat": 41.038499, "lon": -8.6472715, "tags": {"public_transport": "stop_position", "railway": "stop", "source": "Bing", "train": "yes", "wikidata": "Q10275772", "wikipedia": "pt:Esta\u00e7\u00e3o Ferrovi\u00e1ria de Granja"}}, {"type": "node", "id": 1645708318, "lat": 41.0385096, "lon": -8.6472149, "tags": {"public_transport": "stop_position", "railway": "stop", "source": "Bing", "train": "yes", "wikidata": "Q10275772", "wikipedia": "pt:Esta\u00e7\u00e3o Ferrovi\u00e1ria de Granja"}}, {"type": "node", "id": 1646823746, "lat": 40.8639697, "lon": -8.6166571, "tags": {"local_ref": "1", "name": "Ovar", "public_transport": "stop_position", "railway": "stop", "ref": "2", "source": "Bing", "train": "yes", "wikidata": "Q8841397", "wikipedia": "pt:Esta\u00e7\u00e3o Ferrovi\u00e1ria de Ovar"}}, {"type": "node", "id": 1647271725, "lat": 40.808408, "lon": -8.5854234, "tags": {"name": "Avanca", "public_transport": "stop_position", "railway": "stop", "source": "Bing", "train": "yes"}}, {"type": "node", "id": 1647271728, "lat": 40.8341992, "lon": -8.6015013, "tags": {"building": "yes", "name": "V\u00e1lega", "operator": "Infraestruturas de Portugal", "railway": "station", "source": "Bing", "wheelchair": "yes", "wikidata": "Q8202415", "wikipedia": "pt:Esta\u00e7\u00e3o Ferrovi\u00e1ria de V\u00e1lega"}}, {"type": "node", "id": 1647271738, "lat": 40.8341781, "lon": -8.6015125, "tags": {"name": "V\u00e1lega", "operator": "Infraestruturas de Portugal", "public_transport": "stop_position", "railway": "stop", "source": "Bing", "train": "yes"}}, {"type": "node", "id": 1647271739, "lat": 40.834192, "lon": -8.6014725, "tags": {"name": "V\u00e1lega", "operator": "Infraestruturas de Portugal", "public_transport": "stop_position", "railway": "stop", "source": "Bing", "train": "yes"}}, {"type": "node", "id": 1648290869, "lat": 38.9498507, "lon": -9.2330307, "tags": {"name": "Jerumelo", "public_transport": "stop_position", "railway": "stop", "train": "yes", "wikidata": "Q18482941", "wikipedia": "pt:Apeadeiro de Jerumelo"}}, {"type": "node", "id": 1648809564, "lat": 40.7511431, "lon": -8.575499, "tags": {"name": "Estarreja", "public_transport": "stop_position", "railway": "stop", "ref": "1", "source": "Bing", "train": "yes"}}, {"type": "node", "id": 1648809568, "lat": 40.7511527, "lon": -8.575453, "tags": {"name": "Estarreja", "public_transport": "stop_position", "railway": "stop", "ref": "2", "source": "Bing", "train": "yes"}}, {"type": "node", "id": 1649608066, "lat": 40.6847631, "lon": -8.5981483, "tags": {"name": "Cacia", "public_transport": "stop_position", "railway": "stop", "source": "Bing", "train": "yes", "website": "http://www.refer.pt/MenuPrincipal/Passageiros/EstacoesnaRede/Estacao.aspx?stationid=9438075", "wikidata": "Q10275768", "wikipedia": "pt:Esta\u00e7\u00e3o Ferrovi\u00e1ria de Cacia"}}, {"type": "node", "id": 1649608075, "lat": 40.6848394, "lon": -8.5982266, "tags": {"name": "Cacia", "public_transport": "stop_position", "railway": "stop", "source": "Bing", "train": "yes", "wikidata": "Q10275768", "wikipedia": "pt:Esta\u00e7\u00e3o Ferrovi\u00e1ria de Cacia"}}, {"type": "node", "id": 1649608085, "lat": 40.7163627, "lon": -8.5640297, "tags": {"name": "Canelas", "public_transport": "stop_position", "railway": "stop", "source": "Bing", "train": "yes", "wikidata": "Q8202363", "wikipedia": "pt:Apeadeiro de Canelas"}}, {"type": "node", "id": 1649608094, "lat": 40.7163675, "lon": -8.5639807, "tags": {"name": "Canelas", "public_transport": "stop_position", "railway": "stop", "source": "Bing", "train": "yes", "wikidata": "Q8202363", "wikipedia": "pt:Apeadeiro de Canelas"}}, {"type": "node", "id": 1649608118, "lat": 40.7288517, "lon": -8.564891, "tags": {"name": "Salreu", "public_transport": "stop_position", "railway": "stop", "source": "Bing", "train": "yes"}}, {"type": "node", "id": 1649608122, "lat": 40.7288595, "lon": -8.5648428, "tags": {"name": "Salreu", "public_transport": "stop_position", "railway": "stop", "source": "Bing", "train": "yes"}}, {"type": "node", "id": 1650269000, "lat": 40.6433409, "lon": -8.6403931, "tags": {"local_ref": "5", "name": "Aveiro", "name:ar": "\u0622\u0648\u064a\u0631\u0648", "public_transport": "stop_position", "railway": "stop", "source": "Bing", "train": "yes", "website": "http://www.refer.pt/MenuPrincipal/Passageiros/EstacoesnaRede/Estacao.aspx?stationid=9438075", "wikidata": "Q800417", "wikipedia": "pt:Esta\u00e7\u00e3o Ferrovi\u00e1ria de Aveiro"}}, {"type": "node", "id": 1650269006, "lat": 40.6433731, "lon": -8.6405427, "tags": {"local_ref": "4", "name": "Aveiro", "name:ar": "\u0622\u0648\u064a\u0631\u0648", "public_transport": "stop_position", "railway": "stop", "ref": "4", "source": "Bing", "train": "yes", "website": "http://www.refer.pt/MenuPrincipal/Passageiros/EstacoesnaRede/Estacao.aspx?stationid=9438075", "wikidata": "Q800417", "wikipedia": "pt:Esta\u00e7\u00e3o Ferrovi\u00e1ria de Aveiro"}}, {"type": "node", "id": 1650269011, "lat": 40.6433836, "lon": -8.6405884, "tags": {"local_ref": "3", "name": "Aveiro", "name:ar": "\u0622\u0648\u064a\u0631\u0648", "public_transport": "stop_position", "railway": "stop", "source": "Bing", "train": "yes", "website": "http://www.refer.pt/MenuPrincipal/Passageiros/EstacoesnaRede/Estacao.aspx?stationid=9438075", "wikidata": "Q800417", "wikipedia": "pt:Esta\u00e7\u00e3o Ferrovi\u00e1ria de Aveiro"}}, {"type": "node", "id": 1650269015, "lat": 40.6434096, "lon": -8.6407366, "tags": {"local_ref": "2", "name": "Aveiro", "name:ar": "\u0622\u0648\u064a\u0631\u0648", "public_transport": "stop_position", "railway": "stop", "source": "Bing", "train": "yes", "website": "http://www.refer.pt/MenuPrincipal/Passageiros/EstacoesnaRede/Estacao.aspx?stationid=9438075", "wikidata": "Q800417", "wikipedia": "pt:Esta\u00e7\u00e3o Ferrovi\u00e1ria de Aveiro"}}, {"type": "node", "id": 1650269019, "lat": 40.6434227, "lon": -8.6407835, "tags": {"local_ref": "1", "name": "Aveiro", "name:ar": "\u0622\u0648\u064a\u0631\u0648", "public_transport": "stop_position", "railway": "stop", "ref": "1", "source": "Bing", "train": "yes", "website": "http://www.refer.pt/MenuPrincipal/Passageiros/EstacoesnaRede/Estacao.aspx?stationid=9438075", "wikidata": "Q800417", "wikipedia": "pt:Esta\u00e7\u00e3o Ferrovi\u00e1ria de Aveiro"}}, {"type": "node", "id": 1651724590, "lat": 40.5435396, "lon": -8.5499346, "tags": {"local_ref": "1", "name": "Oi\u00e3", "public_transport": "stop_position", "railway": "stop", "ref": "1", "source": "Bing", "train": "yes"}}, {"type": "node", "id": 1651724591, "lat": 40.5435586, "lon": -8.5498935, "tags": {"local_ref": "2", "name": "Oi\u00e3", "public_transport": "stop_position", "railway": "stop", "ref": "2", "source": "Bing", "train": "yes"}}, {"type": "node", "id": 1651724592, "lat": 40.5100837, "lon": -8.4988661, "tags": {"local_ref": "3", "name": "Oliveira do Bairro", "public_transport": "stop_position", "railway": "stop", "ref": "2", "source": "Bing", "train": "yes"}}, {"type": "node", "id": 1651724593, "lat": 40.5101468, "lon": -8.4987618, "tags": {"local_ref": "1", "name": "Oliveira do Bairro", "public_transport": "stop_position", "railway": "stop", "ref": "1", "source": "Bing", "train": "yes"}}, {"type": "node", "id": 1651724594, "lat": 40.5101718, "lon": -8.4987266, "tags": {"local_ref": "2", "name": "Oliveira do Bairro", "public_transport": "stop_position", "railway": "stop", "ref": "2", "source": "Bing", "train": "yes"}}, {"type": "node", "id": 1651724595, "lat": 40.4811937, "lon": -8.4801651, "tags": {"local_ref": "1", "name": "Paraimo-Sangalhos", "public_transport": "stop_position", "railway": "stop", "ref": "1", "source": "Bing", "train": "yes"}}, {"type": "node", "id": 1651724596, "lat": 40.4812136, "lon": -8.4801246, "tags": {"local_ref": "2", "name": "Paraimo-Sangalhos", "public_transport": "stop_position", "railway": "stop", "ref": "2", "source": "Bing", "train": "yes"}}, {"type": "node", "id": 1651724598, "lat": 40.5910309, "lon": -8.612713, "tags": {"local_ref": "1", "name": "Quint\u00e3s", "public_transport": "stop_position", "railway": "stop", "ref": "1", "source": "Bing", "train": "yes"}}, {"type": "node", "id": 1651724599, "lat": 40.5910442, "lon": -8.6126654, "tags": {"local_ref": "2", "name": "Quint\u00e3s", "public_transport": "stop_position", "railway": "stop", "ref": "2", "source": "Bing", "train": "yes"}}, {"type": "node", "id": 1652618644, "lat": 37.2555315, "lon": -8.2909155, "tags": {"name": "Messines - Alte", "public_transport": "stop_position", "train": "yes", "wikidata": "Q8841049", "wikipedia": "pt:Esta\u00e7\u00e3o Ferrovi\u00e1ria de Messines-Alte"}}, {"type": "node", "id": 1652625328, "lat": 40.4150648, "lon": -8.4568279, "tags": {"local_ref": "2", "name": "Aguim", "public_transport": "stop_position", "railway": "stop", "ref": "2", "source": "Bing", "train": "yes"}}, {"type": "node", "id": 1652625342, "lat": 40.4150676, "lon": -8.4568729, "tags": {"local_ref": "1", "name": "Aguim", "public_transport": "stop_position", "railway": "stop", "ref": "1", "source": "Bing", "train": "yes"}}, {"type": "node", "id": 1652625346, "lat": 40.415208, "lon": -8.4568371, "tags": {"name": "Aguim", "official_name": "Apeadeiro de Aguim", "public_transport": "station", "railway": "station", "train": "yes", "wikidata": "Q16492780", "wikipedia": "pt:Apeadeiro de Aguim"}}, {"type": "node", "id": 1652625349, "lat": 40.4245452, "lon": -8.4560786, "tags": {"local_ref": "2", "name": "Curia", "public_transport": "stop_position", "railway": "stop", "ref": "2", "source": "Bing", "train": "yes"}}, {"type": "node", "id": 1652625352, "lat": 40.424549, "lon": -8.4561235, "tags": {"local_ref": "1", "name": "Curia", "public_transport": "stop_position", "railway": "stop", "ref": "1", "source": "Bing", "train": "yes"}}, {"type": "node", "id": 1652625353, "lat": 40.3754167, "lon": -8.4538737, "tags": {"local_ref": "1", "name": "Mealhada", "public_transport": "stop_position", "railway": "stop", "ref": "1", "source": "Bing", "train": "yes"}}, {"type": "node", "id": 1652625354, "lat": 40.3754179, "lon": -8.4538286, "tags": {"local_ref": "2", "name": "Mealhada", "public_transport": "stop_position", "railway": "stop", "ref": "2", "source": "Bing", "train": "yes"}}, {"type": "node", "id": 1652625356, "lat": 40.4504565, "lon": -8.4594129, "tags": {"local_ref": "1", "name": "Mogofores", "public_transport": "stop_position", "railway": "stop", "ref": "1", "source": "Bing", "train": "yes"}}, {"type": "node", "id": 1652625360, "lat": 40.4504704, "lon": -8.4593713, "tags": {"local_ref": "2", "name": "Mogofores", "public_transport": "stop_position", "railway": "stop", "ref": "2", "source": "Bing", "train": "yes"}}, {"type": "node", "id": 1652625372, "lat": 40.4505114, "lon": -8.4592485, "tags": {"local_ref": "3", "name": "Mogofores", "public_transport": "stop_position", "railway": "stop", "ref": "3", "source": "Bing", "train": "yes"}}, {"type": "node", "id": 1652625376, "lat": 40.450528, "lon": -8.4591989, "tags": {"local_ref": "4", "name": "Mogofores", "public_transport": "stop_position", "railway": "stop", "ref": "4", "source": "Bing", "train": "yes"}}, {"type": "node", "id": 1654269020, "lat": 40.3380859, "lon": -8.4313305, "tags": {"name": "Pampilhosa", "public_transport": "stop_position", "railway": "stop", "ref": "2-N", "source": "Bing", "train": "yes"}}, {"type": "node", "id": 1654269021, "lat": 40.3382126, "lon": -8.4311322, "tags": {"local_ref": "1-B", "name": "Pampilhosa", "public_transport": "stop_position", "railway": "stop", "ref": "1-B", "source": "Bing", "train": "yes"}}, {"type": "node", "id": 1654269022, "lat": 40.3382305, "lon": -8.4310912, "tags": {"local_ref": "2-B", "name": "Pampilhosa", "public_transport": "stop_position", "railway": "stop", "ref": "2-B", "source": "Bing", "train": "yes"}}, {"type": "node", "id": 1654269024, "lat": 40.2862343, "lon": -8.4256259, "tags": {"local_ref": "2", "name": "Souselas", "public_transport": "stop_position", "railway": "stop", "ref": "2", "source": "Bing", "train": "yes"}}, {"type": "node", "id": 1654269025, "lat": 40.2862442, "lon": -8.4256712, "tags": {"name": "Souselas", "public_transport": "stop_position", "railway": "stop", "ref": "1", "source": "Bing", "train": "yes"}}, {"type": "node", "id": 1654269026, "lat": 40.2862636, "lon": -8.4258132, "tags": {"name": "Souselas", "public_transport": "stop_position", "railway": "stop", "source": "Bing", "train": "yes"}}, {"type": "node", "id": 1654271125, "lat": 40.3380662, "lon": -8.43137, "tags": {"name": "Pampilhosa", "public_transport": "stop_position", "railway": "stop", "ref": "1-N", "source": "Bing", "train": "yes"}}, {"type": "node", "id": 1654271162, "lat": 40.338264, "lon": -8.4309899, "tags": {"local_ref": "3-B", "name": "Pampilhosa", "public_transport": "stop_position", "railway": "stop", "ref": "3-B", "source": "Bing", "train": "yes"}}, {"type": "node", "id": 1655345061, "lat": 40.2515448, "lon": -8.4502022, "tags": {"local_ref": "1", "name": "Ad\u00e9mia", "public_transport": "stop_position", "railway": "stop", "ref": "1", "source": "Bing", "train": "yes"}}, {"type": "node", "id": 1655345065, "lat": 40.2243481, "lon": -8.4404055, "tags": {"local_ref": "2", "name": "Coimbra-B", "public_transport": "stop_position", "railway": "stop", "ref": "2", "train": "yes"}}, {"type": "node", "id": 1655345067, "lat": 40.2632357, "lon": -8.4413323, "tags": {"local_ref": "2", "name": "Vilela-Fornos", "public_transport": "stop_position", "railway": "stop", "ref": "2", "source": "Bing", "train": "yes"}}, {"type": "node", "id": 1655345068, "lat": 40.2632458, "lon": -8.4413775, "tags": {"local_ref": "1", "name": "Vilela-Fornos", "public_transport": "stop_position", "railway": "stop", "ref": "1", "source": "Bing", "train": "yes"}}, {"type": "node", "id": 1655345121, "lat": 40.22475, "lon": -8.440182, "tags": {"local_ref": "8", "name": "Coimbra-B", "public_transport": "stop_position", "railway": "stop", "ref": "8", "train": "yes"}}, {"type": "node", "id": 1655345205, "lat": 40.2250506, "lon": -8.4402323, "tags": {"local_ref": "7", "name": "Coimbra-B", "public_transport": "stop_position", "railway": "stop", "ref": "7", "train": "yes"}}, {"type": "node", "id": 1655345337, "lat": 40.2260968, "lon": -8.4406974, "tags": {"local_ref": "1", "name": "Coimbra-B", "public_transport": "stop_position", "railway": "stop", "ref": "1", "train": "yes"}}, {"type": "node", "id": 1657223976, "lat": 40.1649734, "lon": -8.6342388, "tags": {"local_ref": "2", "name": "Alfarelos - Granja do Ulmeiro", "public_transport": "stop_position", "ref": "2", "source": "Bing", "train": "yes"}}, {"type": "node", "id": 1657223987, "lat": 40.1650029, "lon": -8.6342653, "tags": {"local_ref": "1", "name": "Alfarelos - Granja do Ulmeiro", "public_transport": "stop_position", "ref": "1", "source": "Bing", "train": "yes"}}, {"type": "node", "id": 1657223990, "lat": 40.1923144, "lon": -8.5443996, "tags": {"local_ref": "2", "name": "Amial", "public_transport": "stop_position", "railway": "stop", "ref": "2", "source": "Bing", "train": "yes"}}, {"type": "node", "id": 1657224031, "lat": 40.2145435, "lon": -8.4558718, "tags": {"local_ref": "1", "name": "Bencanta", "public_transport": "stop_position", "ref": "1", "source": "Bing", "train": "yes"}}, {"type": "node", "id": 1657224034, "lat": 40.2047424, "lon": -8.4841644, "tags": {"local_ref": "2", "name": "Casais", "public_transport": "stop_position", "ref": "2", "source": "Bing", "train": "yes"}}, {"type": "node", "id": 1657224036, "lat": 40.2092696, "lon": -8.4703208, "tags": {"name": "Espadaneira", "public_transport": "stop_position", "source": "Bing", "train": "yes"}},