{"type": "FeatureCollection", "features": [{"type": "Feature", "properties": {"type": "node", "id": 7198645521, "tags": {"name": "Sutomore", "name:sr": "\u0421\u0443\u0442\u043e\u043c\u043e\u0440\u0435", "public_transport": "station", "railway": "station", "train": "yes", "wikidata": "Q3971060", "wikipedia": "sr:\u0416\u0435\u043b\u0435\u0437\u043d\u0438\u0447\u043a\u0430 \u0441\u0442\u0430\u043d\u0438\u0446\u0430 \u0421\u0443\u0442\u043e\u043c\u043e\u0440\u0435"}}, "geometry": {"type": "Point", "coordinates": [19.0503466, 42.1397083]}}, {"type": "Feature", "properties": {"type": "node", "id": 7198645523, "tags": {"name": "Bar", "public_transport": "station", "railway": "station", "train": "yes", "wikidata": "Q4857956"}}, "geometry": {"type": "Point", "coordinates": [19.1055901, 42.087459]}}, {"type": "Feature", "properties": {"type": "node", "id": 1846488218, "tags": {"name": "Crmnica", "public_transport": "station", "railway": "station", "train": "yes"}}, "geometry": {"type": "Point", "coordinates": [19.0751358, 42.2108706]}}, {"type": "Feature", "properties": {"type": "node", "id": 7198645520, "tags": {"name": "Virpazar", "name:sr": "\u0412\u0438\u0440\u043f\u0430\u0437\u0430\u0440", "public_transport": "station", "railway": "station", "train": "yes", "wikidata": "Q3971343", "wikipedia": "sr:\u0416\u0435\u043b\u0435\u0437\u043d\u0438\u0447\u043a\u0430 \u0441\u0442\u0430\u043d\u0438\u0446\u0430 \u0412\u0438\u0440\u043f\u0430\u0437\u0430\u0440"}}, "geometry": {"type": "Point", "coordinates": [19.0840459, 42.2394916]}}, {"type": "Feature", "properties": {"type": "node", "id": 1846488577, "tags": {"name": "Zeta", "railway": "station"}}, "geometry": {"type": "Point", "coordinates": [19.1588796, 42.295588]}}, {"type": "Feature", "properties": {"type": "node", "id": 1846494328, "tags": {"name": "Mora\u010da", "railway": "station"}}, "geometry": {"type": "Point", "coordinates": [19.2067404, 42.3156058]}}, {"type": "Feature", "properties": {"type": "node", "id": 1846489402, "tags": {"name": "Golubovci", "name:sr": "\u0413\u043e\u043b\u0443\u0431\u043e\u0432\u0438\u045b\u0438", "railway": "station"}}, "geometry": {"type": "Point", "coordinates": [19.2185364, 42.3435477]}}, {"type": "Feature", "properties": {"type": "node", "id": 7198645524, "tags": {"name": "Aerodrom", "name:sr": "\u0410\u0435\u0440\u043e\u0434\u0440\u043e\u043c", "operator": "\u017dpcg", "railway": "station"}}, "geometry": {"type": "Point", "coordinates": [19.2345456, 42.3652965]}}, {"type": "Feature", "properties": {"type": "node", "id": 7198645519, "tags": {"name": "Tuzi", "public_transport": "station", "railway": "station", "train": "yes", "wikidata": "Q31182492"}}, "geometry": {"type": "Point", "coordinates": [19.3379404, 42.3613236]}}, {"type": "Feature", "properties": {"type": "node", "id": 301885814, "tags": {"name": "Podgorica", "name:sr": "\u041f\u043e\u0434\u0433\u043e\u0440\u0438\u0446\u0430", "name:sr-Latn": "Podgorica", "public_transport": "station", "railway": "station"}}, "geometry": {"type": "Point", "coordinates": [19.2693884, 42.4319673]}}, {"type": "Feature", "properties": {"type": "node", "id": 1947214538, "tags": {"name": "Danilovgrad", "name:lt": "Danilovgradas", "name:sr": "\u0414\u0430\u043d\u0438\u043b\u043e\u0432\u0433\u0440\u0430\u0434", "railway": "station"}}, "geometry": {"type": "Point", "coordinates": [19.1136307, 42.5591576]}}, {"type": "Feature", "properties": {"type": "node", "id": 2043767874, "tags": {"name": "Ljutotuk", "railway": "station"}}, "geometry": {"type": "Point", "coordinates": [19.1582872, 42.550492]}}, {"type": "Feature", "properties": {"type": "node", "id": 2043767191, "tags": {"name": "Pri\u010delje", "railway": "station"}}, "geometry": {"type": "Point", "coordinates": [19.2232553, 42.5039966]}}, {"type": "Feature", "properties": {"type": "node", "id": 1947214421, "tags": {"name": "Spu\u017e", "railway": "station"}}, "geometry": {"type": "Point", "coordinates": [19.2011835, 42.5133054]}}, {"type": "Feature", "properties": {"type": "node", "id": 2043769759, "tags": {"name": "\u0160umanovi\u0107a Bare", "railway": "station"}}, "geometry": {"type": "Point", "coordinates": [19.0758084, 42.6244674]}}, {"type": "Feature", "properties": {"type": "node", "id": 2043771030, "tags": {"description": "Altitude=295 m", "name": "\u0160obaji\u0107i", "railway": "station"}}, "geometry": {"type": "Point", "coordinates": [19.0615491, 42.6326134]}}, {"type": "Feature", "properties": {"type": "node", "id": 1846530089, "tags": {"description": "Altitude 363 m", "name": "Ostrog", "railway": "station"}}, "geometry": {"type": "Point", "coordinates": [19.0304576, 42.6539159]}}, {"type": "Feature", "properties": {"type": "node", "id": 2043771859, "tags": {"description": "Altitude 430 m", "name": "Dabovi\u0107i", "name:en": "Dabovichi", "name:ru": "\u0414\u0430\u0431\u043e\u0432\u0438\u0447\u0438", "railway": "station"}}, "geometry": {"type": "Point", "coordinates": [19.0169594, 42.6758982]}}, {"type": "Feature", "properties": {"type": "node", "id": 2043774728, "tags": {"description": "Altitude 535 m", "name": "Stubica", "railway": "station"}}, "geometry": {"type": "Point", "coordinates": [18.971028, 42.7044225]}}, {"type": "Feature", "properties": {"type": "node", "id": 2043768820, "tags": {"name": "Slap", "railway": "station"}}, "geometry": {"type": "Point", "coordinates": [19.0888658, 42.6043835]}}, {"type": "Feature", "properties": {"type": "node", "id": 1846499528, "tags": {"name": "Zlatica", "name:sr": "\u0417\u043b\u0430\u0442\u0438\u0446\u0430", "railway": "station"}}, "geometry": {"type": "Point", "coordinates": [19.2964963, 42.4695153]}}, {"type": "Feature", "properties": {"type": "node", "id": 418346188, "tags": {"name": "Bio\u010de", "railway": "station", "wikidata": "Q31182472"}}, "geometry": {"type": "Point", "coordinates": [19.3673778, 42.5278896]}}, {"type": "Feature", "properties": {"type": "node", "id": 418346303, "tags": {"name": "Bratonozi\u0107i", "railway": "station", "wikidata": "Q31182489"}}, "geometry": {"type": "Point", "coordinates": [19.3489206, 42.556334]}}, {"type": "Feature", "properties": {"type": "node", "id": 418346401, "tags": {"name": "Lutovo", "operator": "\u017dPCG", "railway": "station", "wikidata": "Q31182488"}}, "geometry": {"type": "Point", "coordinates": [19.3857765, 42.62809]}}, {"type": "Feature", "properties": {"type": "node", "id": 1846516823, "tags": {"name": "Kru\u0161evacki Potok", "railway": "station"}}, "geometry": {"type": "Point", "coordinates": [19.4147772, 42.6637721]}}, {"type": "Feature", "properties": {"type": "node", "id": 1846513097, "tags": {"alt_name": "Trebje\u0161ica", "name": "Trebe\u0161ica", "operator": "\u017dICG", "railway": "station", "wikidata": "Q31182490"}}, "geometry": {"type": "Point", "coordinates": [19.4756043, 42.6858495]}}, {"type": "Feature", "properties": {"type": "node", "id": 1846518344, "tags": {"name": "Seli\u0161te", "railway": "station"}}, "geometry": {"type": "Point", "coordinates": [19.4849396, 42.7252176]}}, {"type": "Feature", "properties": {"type": "node", "id": 1846517445, "tags": {"name": "Kos", "railway": "station", "wikidata": "Q31182441"}}, "geometry": {"type": "Point", "coordinates": [19.4962326, 42.7423076]}}, {"type": "Feature", "properties": {"type": "node", "id": 4172717221, "tags": {"name": "Mate\u0161evo", "railway": "station"}}, "geometry": {"type": "Point", "coordinates": [19.5340657, 42.7689081]}}, {"type": "Feature", "properties": {"type": "node", "id": 418344166, "tags": {"name": "Pade\u017e", "railway": "station"}}, "geometry": {"type": "Point", "coordinates": [19.5485178, 42.7935475]}}, {"type": "Feature", "properties": {"type": "node", "id": 4172717220, "tags": {"name": "Pade\u017e", "railway": "station"}}, "geometry": {"type": "Point", "coordinates": [19.5485385, 42.7935447]}}, {"type": "Feature", "properties": {"type": "node", "id": 4172717211, "tags": {"name": "Kola\u0161in", "railway": "station"}}, "geometry": {"type": "Point", "coordinates": [19.5374069, 42.8196334]}}, {"type": "Feature", "properties": {"type": "node", "id": 420429664, "tags": {"name": "Oblutak", "railway": "station"}}, "geometry": {"type": "Point", "coordinates": [19.5360429, 42.8637244]}}, {"type": "Feature", "properties": {"type": "node", "id": 4172717201, "tags": {"name": "Trebaljevo", "railway": "station", "wikidata": "Q31182475"}}, "geometry": {"type": "Point", "coordinates": [19.5421108, 42.8884206]}}, {"type": "Feature", "properties": {"type": "node", "id": 420428656, "tags": {"name": "\u0160titari\u010dka rijeka", "railway": "station"}}, "geometry": {"type": "Point", "coordinates": [19.5723205, 42.9288134]}}, {"type": "Feature", "properties": {"type": "node", "id": 420105032, "tags": {"name": "Mojkovac", "railway": "station", "wikidata": "Q31182435"}}, "geometry": {"type": "Point", "coordinates": [19.5861584, 42.9529728]}}, {"type": "Feature", "properties": {"type": "node", "id": 312404997, "tags": {"name": "\u017dari", "railway": "station"}}, "geometry": {"type": "Point", "coordinates": [19.617734, 42.9850397]}}, {"type": "Feature", "properties": {"type": "node", "id": 1846524147, "tags": {"name": "Mijatovo Kolo", "railway": "station"}}, "geometry": {"type": "Point", "coordinates": [19.6524603, 42.9843855]}}, {"type": "Feature", "properties": {"type": "node", "id": 1846527787, "tags": {"name": "Ravna Rijeka", "railway": "station"}}, "geometry": {"type": "Point", "coordinates": [19.7100897, 42.986954]}}, {"type": "Feature", "properties": {"type": "node", "id": 1768837946, "tags": {"name": "Kru\u0161evo", "railway": "station"}}, "geometry": {"type": "Point", "coordinates": [19.7349658, 43.0023582]}}, {"type": "Feature", "properties": {"type": "node", "id": 7198645522, "tags": {"name": "Bijelo Polje", "public_transport": "station", "railway": "station"}}, "geometry": {"type": "Point", "coordinates": [19.769298, 43.0543225]}}]}